Time_s,X,Y,Z,Roll_deg,Pitch_deg,Yaw_deg,Ref_X,Ref_Y,Ref_Z,Ref_Yaw,vx,vy,vz,p,q,r,T_pert,tau_x,tau_y,tau_z,RPM_0,RPM_1,RPM_2,RPM_3
0.0040000000000000036,3.540239794309915e-22,-6.0,0.010006999594037988,1.030927412343402e-18,1.9273866450044995e-18,-5.1486728461073835e-21,-1.3251816272735622e-06,-0.00021060000000000038,7.200000000000012e-05,0.0,-1.8465271353911924e-19,-1200.0,2.0013999188075973,0.0,0.0,0.0,-10.19,-1.0,-0.015442263661495339,6.014464043099446e-21,404.81320959804117,0.0,0.0,398.18530879891836
0.008,3.3580976022614716e-22,-6.0,0.010010999365392528,-7.469846356765815e-19,2.0329722297787655e-18,-5.621850650730388e-12,-3.959594995754815e-06,-0.0006292652184,0.000215133408,0.0,-1.0462047462450715e-19,-666.6666666666666,1.1123332628213918,0.0,0.0,0.0,-0.03433847593238737,-1.0,-0.016377200740517128,6.5672105366299794e-12,678.9943605632506,332.7727927996931,341.14828645152585,674.82510327018
0.012000000000000004,-1.080040796770077e-14,-5.999999999999345,0.010014999137751003,-1.533896300459247e-09,-2.5319647599198937e-11,-1.7396955014645746e-11,-7.887434485668012e-06,-0.0012534838006313383,0.0004285414703013123,0.0,-1.0799365617249077e-12,6.545243438734611e-11,0.00099994293902856,0.0,0.0,0.0,0.11268126721401261,-1.0,-0.017322944152663056,1.3986427650337605e-11,682.272566085385,338.93110331286226,347.62719417786343,677.8830881471366
0.016,-8.127143994560675e-14,-5.999999999994258,0.010018998918150723,-1.319290711306123e-08,-1.8682753812888764e-10,4.4387167870042224e-12,-1.3093037581334317e-05,-0.0020807666344590764,0.0007113732083620774,0.0,-8.126109904571732e-12,5.741360073260728e-10,0.0009999438435465136,0.0,0.0,0.0,0.2602150064293996,-1.0,-0.01827952000714728,-2.479153556430484e-11,685.5474203886879,344.9985781952233,354.0114082329251,680.9370067913673
0.020000000000000004,-2.668665473803603e-13,-5.999999999981421,0.010022998715797746,-4.261547859275966e-08,-6.121804759536754e-10,1.3150391654833628e-11,-1.9560883717773268e-05,-0.0031086471666820427,0.001062785356130613,0.0,-2.6508653166349435e-11,1.847103149197283e-09,0.0009999464547723335,0.0,0.0,0.0,0.40825153952372506,-1.0,-0.019246955111035323,-1.0357584681427143e-11,688.8187366914835,350.9794548320232,360.30551428959967,683.9866709433836
0.024000000000000007,-6.070080707778662e-13,-5.999999999959708,0.010026998535203516,-9.238067963195359e-08,-1.3917277761034625e-09,1.9388894077983275e-11,-2.7275593136034675e-05,-0.004334681221220333,0.0014819422978531054,0.0,-5.724116841082736e-11,3.792666219668413e-09,0.0009999508966988505,0.0,0.0,0.0,0.5567797944359751,-1.0,-0.02022527621747035,-7.827175658109674e-12,692.0863346510758,356.87762717179555,366.5137190205206,687.0318981670721
0.027999999999999997,-1.1210421556921516e-12,-5.999999999929034,0.010030998377879146,-1.62679130100685e-07,-2.5698074990482988e-09,2.395492492669434e-11,-3.651675062160827e-05,-0.0057564468185795255,0.0019680160063522034,0.0,-9.641970504421515e-11,5.985952880266908e-09,0.0009999563429865497,0.0,0.0,0.0,0.7057888110888553,-1.0,-0.024650086799435925,-6.130990976414953e-12,695.7756213380754,361.8796004033507,373.43343031131815,689.6434104068338
0.032,-2.00798720999745e-12,-5.999999998005029,0.010035003898096093,-4.57220861223738e-06,-4.618452760039551e-09,3.3146208973471154e-11,-4.7265706116016904e-05,-0.007371543996684275,0.0025201859817730854,0.0,-1.5914931243871204e-10,1.966488130282378e-07,0.001000527546613253,0.0,0.0,0.0,0.8552562653258421,-1.0,-0.025858260257886415,-1.1723186391546462e-11,699.0586769578988,367.5864052867591,379.5152769459712,692.6550033463105
0.036000000000000004,-3.811984945299197e-12,-5.999998772736777,0.010042679276562575,-0.0028125578185655693,-8.80810330127998e-09,5.194903773429102e-11,-5.950397908075672e-05,-0.00917759463306722,0.003137639190793573,0.0,-2.969090714741085e-10,0.0001226998912350774,0.0013680863887224489,-0.004900861179950894,-7.312347748583573e-09,3.2697003480682676e-11,0.9977461990687199,-1.0,-0.02707979732992612,-2.3330728231732014e-11,702.1827400033484,372.92938698449234,385.23942155680885,695.5052235197307
0.04000000000000001,-6.047615426796232e-12,-5.99999290611007,0.010064271072309252,-0.01625248403326255,-1.3967023282547782e-08,6.707351975527939e-11,-7.321325712835701e-05,-0.011172242268406109,0.0038195700062949463,0.0,-4.597021600294698e-10,0.0007089397110031789,0.003127396883205608,-0.028357955108825623,-1.631636423347971e-08,5.774414875457527e-11,1.119772118402429,-1.0,-0.02831474870963748,-1.9809568965931914e-11,704.8702122375472,377.4017964414714,390.11642835888387,697.913536361578
0.044,-8.70037089124171e-12,-5.999979131169943,0.010109528661840304,-0.047776272757988465,-2.0050601136730617e-08,8.07244604026538e-11,-8.837542717239505e-05,-0.013353151676019224,0.004565180147490074,0.0,-5.826562846866357e-10,0.0020582180424475642,0.007177911730616766,-0.08236977777526366,-2.3496571186594513e-08,5.820888069342288e-11,1.2220058485017,-1.0,-0.02956350751494552,-1.871398214752331e-11,707.1400116696078,381.05998183399385,394.20274946248867,699.8984912391246
0.048,-1.1762885860562097e-11,-5.999954550467809,0.010186976963047895,-0.10390928693411912,-2.702252075290431e-08,9.656196190821603e-11,-0.00010497250867079212,-0.015718009201900616,0.005373678620505554,0.0,-6.836143941220618e-10,0.0041938718649286895,0.01359247940135378,-0.16788936582591976,-2.7497807689824318e-08,4.1721049093214664e-11,1.3066111540998782,-1.0,-0.030825376154599966,-2.1834418172101975e-11,709.0406889918157,384.00977561908314,397.6022009675924,701.5088709653572
0.052000000000000005,-1.5237117381274893e-11,-5.9999165747354235,0.010304007718739554,-0.19032731323790258,-3.4852453827619106e-08,1.1773393080324847e-10,-0.0001229866851911619,-0.018264522333760125,0.006244281659414509,0.0,-7.805683276828052e-10,0.007016680949923101,0.022077190308397446,-0.2810009349625729,-3.133689889254323e-08,2.287141235242915e-11,1.3756056477253065,-1.0,-0.03210074279989686,-2.8722999694489344e-11,710.6167707945281,386.3436908111566,400.40605199914836,702.7891829535192
0.05600000000000001,-1.9125612026981058e-11,-5.999862867555924,0.010466945676587996,-0.31191498711824117,-4.350099645286873e-08,1.4873059728394592e-10,-0.00014240030308288598,-0.02099041952985327,0.007176212667716818,0.0,-8.745765549465367e-10,0.010433917968548204,0.03235801304832164,-0.4180456517836511,-3.503857641466152e-08,-4.3423294807103204e-12,1.4309088314351996,-1.0,-0.03338963956389132,-4.10774086048374e-11,711.9098437447195,388.1451510896423,402.696457792427,703.7811069616212
0.06,-2.3431478329383472e-11,-5.999791281260469,0.010681143431294032,-0.47284628861197914,-5.2914421279529374e-08,1.9355548519742764e-10,-0.00016319587015926394,-0.02389345004911017,0.008168702160263459,0.0,-9.645404261165943e-10,0.014360566647531547,0.04418406407035747,-0.5756732834182732,-3.8542494326242436e-08,-4.5423254564825884e-11,1.474281820002081,-1.0,-0.03469209842070811,-5.851416411915846e-11,712.9575719154274,389.4876609759681,404.5458080189856,704.5224099987945
0.064,-2.8146198429728393e-11,-5.9996998013975515,0.01095105943907624,-0.6766519352214179,-6.301375667364397e-08,2.60880920019782e-10,-0.00018535605438966532,-0.026971383782554193,0.009220987705621773,0.0,-1.0487452229160614e-09,0.018719521406862262,0.05732793841871938,-0.7508469174282009,-4.1780943825168863e-08,-1.0000280260790211e-10,1.507358472491032,-1.0,-0.03600815144794478,-8.66525277813001e-11,713.7945105265014,390.43714310883047,406.0189830403161,705.0477648741941
0.068,-3.3298410428311915e-11,-5.999586476172485,0.01128039106212207,-0.9263285848001752,-7.379523833430864e-08,3.6095933843563537e-10,-0.00020803843228077838,-0.03022211794160064,0.010332313868878385,0.0,-1.1285798739706153e-09,0.023443254697345747,0.07159058029743026,-0.940908058073941,-4.481428659045895e-08,-1.6646206739854304e-10,1.531531223724999,-1.0,-0.02772123634147581,-1.2769600377135418e-10,713.2891971437067,393.16171400881217,405.1299667306687,706.5602035548088
0.07200000000000001,-3.893633469511395e-11,-5.999449356169968,0.011672186912426481,-1.2244323220115214,-8.526904520157595e-08,4.986057450457561e-10,-0.0002312359209430705,-0.03364346189471256,0.011501932154876639,0.0,-1.2090017533782644e-09,0.0284747010867882,0.08680390280383254,-1.143611794496184,-4.780762775452254e-08,-2.559468265826598e-10,1.5479888573959417,-1.0,-0.028482344629492173,-1.7571609622691835e-10,713.7183860467713,393.60674829798376,405.88513841595227,706.8079371478701
0.076,-4.497628140960963e-11,-5.999286460767836,0.012128892524941046,-1.573120789873506,-9.709689274183678e-08,6.586045424766624e-10,-0.00025494150393769557,-0.03723324515597884,0.012729100951885333,0.0,-1.279935080207971e-09,0.03376541179726369,0.10282523090270199,-1.357052615051472,-5.024065040170054e-08,-4.066668011751398e-10,1.5578482356622418,-1.0,-0.02925041446301377,-2.075142369298192e-10,714.0130436700708,393.8048350066845,406.40304799605065,706.9182666107239
0.08,-5.125028974806711e-11,-5.999095735341066,0.012652432328591577,-1.9742234162339276,-1.0890228768861751e-07,8.716880504510394e-10,-0.00027914823073167796,-0.04098931722150425,0.01401308547569566,0.0,-1.3194388566117615e-09,0.0392737553251049,0.11953191595978326,-1.5795926004330956,-5.1402372720191734e-08,-5.615923852076189e-10,1.5620791775531115,-1.0,-0.03002546062910617,-2.761416178853291e-10,714.1931946248258,393.79235671846976,406.71947320851245,706.9113151960922
0.084,-5.7827334970905837e-11,-5.998875017394813,0.013244273264177863,-2.429297927572256,-1.2075384918084495e-07,1.1450558595467587e-09,-0.0003038492161572608,-0.0449095474070433,0.015353157714143138,0.0,-1.3334690200040335e-09,0.04496453255953639,0.13682023073837007,-1.8098465837961715,-5.1600714004911496e-08,-6.973590139531852e-10,1.5615390950047012,-1.0,-0.03080749409647484,-3.553739641806633e-10,714.2764795683878,393.6011451485147,406.86570218384065,706.8048164203107
0.08800000000000001,-6.47633691904761e-11,-5.998622013399599,0.013905465090855615,-2.9396694120448896,-1.3269225657908536e-07,1.4878928678776929e-09,-0.00032903763987538945,-0.04899182468686916,0.016748596372051536,0.0,-1.3483476884620105e-09,0.050808515125728,0.15460404272829392,-2.046664465497158,-5.183954774231801e-08,-8.314838765725476e-10,1.5570182766688963,-1.0,-0.03159653271018285,-4.478302759495539e-10,714.2791130596527,393.26032148568817,406.8703249983034,706.6150770891848
0.09200000000000001,-7.211283979828586e-11,-5.998334277608449,0.014636680561523032,-3.506469915911457,-1.44750658150714e-07,1.9096812523888707e-09,-0.000354708755731121,-0.0532340214968194,0.01819868681659564,0.0,-1.3693610468860273e-09,0.05678103655311804,0.17281062244261877,-2.2890752526957185,-5.2256452589417683e-08,-9.8883414926404e-10,1.5492388698556163,-1.0,-0.03241601252720103,-5.542398332136839e-10,714.218708151854,392.7912390610057,406.7642716562443,706.3541206850844
0.09600000000000002,-7.992591783070182e-11,-5.998009194825442,0.015438248566009668,-4.130673414469497,-1.569557264913208e-07,2.4226404924541147e-09,-0.0003808558472586334,-0.05763406608344736,0.01970272102307982,0.0,-1.3954247137610809e-09,0.06286159342761909,0.19137950485541796,-2.536271804638569,-5.2814038199773824e-08,-1.167419620636938e-09,1.538867872400686,-1.0,-0.03322052442351775,-6.781951186036055e-10,714.1034276487288,392.22828022406986,406.561821311892,706.0412237823637
0.10000000000000002,-8.825288440130965e-11,-5.997643966934583,0.016310179837280784,-4.813125956057349,-1.6932886870081448e-07,3.0386541226606184e-09,-0.0004074722614545703,-0.062189905871827794,0.021259997521129354,0.0,-1.4258930566161388e-09,0.06903342540734306,0.21026128528251867,-2.787594705498571,-5.348617999744992e-08,-1.367345197568296e-09,1.5265311701051534,-1.0,-0.034032102848967925,-8.198118315570008e-10,713.9487230636253,391.58956334825524,406.29002918511577,705.6865957903161
0.104,-9.713732555747656e-11,-5.997235602359977,0.01725218662533906,-5.554572169436349,-1.8187705473980434e-07,3.770401999548197e-09,-0.00043455140825599935,-0.06689950730930726,0.022869821341291525,0.0,-1.4597647401756927e-09,0.07528301424579412,0.22941616423180808,-3.0425128006837654,-5.4234222193827084e-08,-1.5880887971695239e-09,1.5128249603333142,-1.0,-0.03485076291327146,-9.80515372761394e-10,713.766784462023,390.8970163563973,405.9702337177215,705.3025323672713
0.108,-1.0662167297852045e-10,-5.996780908052608,0.018263696741964007,-6.35567854227215,-1.9461174012290584e-07,4.634764535473391e-09,-0.0004620867600223702,-0.07176085571044488,0.024531503962043472,0.0,-1.496249694356604e-09,0.0815996694672799,0.2488127488041254,-3.3006071584052386,-5.503738755272522e-08,-1.8260240977708141e-09,1.4983265496594134,-1.0,-0.03567651953493928,-1.1657414111314257e-09,713.5694229609563,390.1719853846027,405.62313638555366,704.9009591915524
0.112,-1.1675156744044063e-10,-5.996276486187102,0.01934385706463252,-7.217049605250466,-2.075458613953695e-07,5.648325154234244e-09,-0.0004900718510214398,-0.0767719551031343,0.026244363257203765,0.0,-1.534919310388146e-09,0.08797500491150316,0.26842650966125203,-3.561550460555643,-5.5888888161662494e-08,-2.077713089773347e-09,1.483615299201258,-1.0,-0.03650938761266799,-1.3758454393696804e-09,713.3685031458189,389.4360398087302,405.2695743561745,704.4938696851963
0.116,-1.275673895247796e-10,-5.995718730021544,0.020491538984931494,-8.139246958932953,-2.2067972375254236e-07,6.827356472477343e-09,-0.0005185002769191396,-0.08193082807589874,0.028007723443744872,0.0,-1.5762375382754435e-09,0.094402633379877,0.28823889819500637,-3.825095188351039,-5.6795845434485916e-08,-2.347007287364212e-09,1.4692685668286105,-1.0,-0.037349382175103495,-1.6111557703124793e-09,713.1758615460731,388.71083364016465,404.9303832142893,704.093242867098
0.12000000000000001,-1.3910316659665413e-10,-5.995103822481374,0.021705337228711537,-9.122804465714468,-2.340097878661182e-07,8.192230935103013e-09,-0.0005473683567435714,-0.0872354161704427,0.029820915030003513,0.0,-1.6184020295423738e-09,0.10087801893420392,0.30823694058181894,-4.091068161205825,-5.77123910977087e-08,-2.6250323355021906e-09,1.455874985907427,-1.0,-0.038227543739254036,-1.8771414097036723e-09,713.0073277784177,388.0117172667842,404.6334813771899,703.7075203703669
0.12400000000000001,-1.513903474409867e-10,-5.994427736453925,0.022983564505344386,-10.16824159367319,-2.4752934679828303e-07,9.764447937063187e-09,-0.0005766701611524566,-0.09268375862399608,0.03168327476428597,0.0,-1.6607146601478672e-09,0.10739825554828075,0.32841260157800567,-4.359362017637379,-5.862632927362109e-08,-2.9065051258045264e-09,1.4440429680964169,-1.0,-0.03908820951065782,-2.1759683458523946e-09,712.8686708301777,387.37418040041723,404.38910166378827,703.3561942841928
0.128,-1.644552017020053e-10,-5.993686236246893,0.02432424310308196,-11.276075888533923,-2.612217329725223e-07,1.1564624752523556e-08,-0.0006063994305858228,-0.09827393424392246,0.033594145583865524,0.0,-1.7022389570611907e-09,0.11396185832709697,0.34876218222225586,-4.629927153054407,-5.951521730385208e-08,-3.1863187966562124e-09,1.4344070721676638,-1.0,-0.03995184503951003,-2.5075034317716344e-09,712.7753999811894,386.81795666273473,404.2246569663818,703.050005889883
0.132,-1.7831846358064138e-10,-5.992874879930468,0.02572509384396906,-12.446835026335599,-2.750674642372431e-07,1.3615883583484104e-08,-0.0006365499652096769,-0.10400403978590304,0.035552876564369104,0.0,-1.7418851323243261e-09,0.12056866386636853,0.36928604992697517,-4.902768083050413,-6.035939267966035e-08,-3.4563980101672797e-09,1.4276336311133107,-0.9374285419703543,-0.04082269135797832,-2.8755353454957935e-09,705.1369300967744,400.07829247909496,417.29152721920326,695.0888364703828
0.136,-1.9301165070583492e-10,-5.991989055224581,0.027183469587141053,-13.681023556902261,-2.890616346428553e-07,1.594020754699418e-08,-0.0006671156244224861,-0.10987218980707363,0.03755882286955031,0.0,-1.780111213491269e-09,0.1272178829886228,0.38998261405696344,-5.177863357076039,-6.11669236686546e-08,-3.7201737902594586e-09,1.4245336446085586,-0.806011168015029,-0.041700763081301405,-3.279700456531178e-09,688.9355341160247,427.1618495784749,443.66592307344973,678.4246020205505
0.14,-4.477183586866687e-09,-5.991024410764427,0.028695703125515965,-14.978581381305906,-3.138189910195968e-07,-3.6736956528171348e-06,-0.0006980903263654519,-0.11587651652028325,0.03961134570144605,0.0,-4.302766108243586e-07,0.13388427134513228,0.410775345568671,-5.454197776459724,1.5677094628770345e-06,-6.2387518457402196e-06,1.4272533977024304,-0.6694648950470439,-0.04253632076198796,4.30941704687685e-06,671.8016043110554,453.7899628884844,469.68210330525415,660.8123457566076
0.14400000000000002,-3.1214614903836377e-07,-5.989977532905752,0.030256768735367846,-16.338566715234254,-1.1354419452793137e-06,-0.00027405704862673536,-0.0007294680474365422,-0.12201516964946571,0.041709812250913796,0.0,-3.142988532609932e-05,0.14047241887131226,0.43146056970008145,-5.729193027754207,0.0001293769068033061,-0.00046051030756157855,1.4386586884903623,-0.5287791652473908,-0.03993877364955711,0.00031600161566589224,652.9853178113716,479.97969936169756,495.2783940415143,643.257420853378
0.14800000000000002,-1.6609420624969004e-06,-5.988846241065306,0.03186081919407316,-17.759577770145217,-4.912727773224108e-06,-0.0014846789823256049,-0.0007612451304598242,-0.12828613858983923,0.04385359564854689,0.0,-0.00016816403131361034,0.1467981010663363,0.4517731530703726,-5.999814810415237,0.0007463257807978658,-0.0024813390637014794,1.4605688450334113,-0.3845119592796076,-0.03200847426855456,0.001425470901082934,631.4863976157006,505.1938320866902,521.0218459353353,626.8608369878498
0.15200000000000002,-4.283871300904126e-06,-5.9876317047058585,0.0335010466531929,-19.239587710549575,-1.274471983493513e-05,-0.00390311866861561,-0.0007934156391168828,-0.13468760979678765,0.04604207491596504,0.0,-0.00042905527407964496,0.15244546247494675,0.47139467901966176,-6.263563327662722,0.002046367052567239,-0.006376875040719593,1.4951118552456557,-0.23744641834846725,-0.029311214805292127,0.002886208710625226,609.3498515573087,528.5535983460265,547.7429813981719,609.7183111158599
0.15600000000000003,-8.026530003625373e-06,-5.986337247060678,0.03517000237530889,-20.77617366091931,-2.4714181767683286e-05,-0.007467316502729207,-0.000825973694161801,-0.14121778679014865,0.0482746349174772,0.0,-0.000741556534874459,0.1569239355969268,0.489954706915542,-6.518115857338119,0.003833419657376859,-0.011118417688206048,1.5437975336046663,-0.08814242206393286,-0.030920480794381464,0.0043242168108982865,587.0697901806577,551.0134005484962,574.5266754320306,591.4410459558376
0.16000000000000003,-1.2689275525762143e-05,-5.984966967325666,0.0368595151547919,-22.366378487831046,-4.072747345026696e-05,-0.012077579016736657,-0.0008589134729479428,-0.1478748900141135,0.05055066631211418,0.0,-0.0010287576588711316,0.15991703455245126,0.5071176459342894,-6.761461787235985,0.0058064687595220325,-0.015587291957542182,1.608321807768632,0.06264997485164026,-0.03317271475215303,0.005693064520622867,564.3036034768254,573.2346200462567,600.7025001563935,572.554006056302
0.16400000000000003,-1.80912736356379e-05,-5.983525181365961,0.03856112682240882,-24.00651656589163,-0.000471934290350487,-0.017280080756493812,-0.0008922292089583774,-0.15465715669819888,0.05286956550602828,0.0,-0.0012769053424887995,0.1614336853706126,0.5226523760784209,-6.990976798230818,0.006975502260449855,-0.01928340703972307,1.6895198911985314,0.21391530596392494,-0.0348820875548078,0.006575048975552327,541.6905736870139,595.9301042073077,625.4532156984352,552.6693475238412
0.16800000000000004,-2.3709254164295346e-05,-5.982013452698998,0.040268272816626954,-25.69038263958776,-0.0032855189436208037,-0.021336458010181053,-0.0009259151913399168,-0.16156284071928273,0.0552307346052572,0.0,-0.0014438597470598192,0.16176927000659752,0.5367156528990699,-7.200538851904244,0.0029735577388832236,-0.021085577013076996,1.7838107588697598,0.36249414573310124,-0.03840007307494207,0.0054510321794416575,522.7265589512872,620.4373156995741,646.6102588704315,529.0899337172183
0.172,-2.9266944148129677e-05,-5.980427990097423,0.041978193440860706,-27.407778567046293,-0.008826785530596109,-0.023740618950262377,-0.0009598897456568529,-0.16859159804753793,0.057633581368849565,0.0,-0.001507619657601969,0.16158097977907918,0.5501366690315571,-7.3779747454039875,-0.007082969239615937,-0.020964134793818583,1.8836742029909859,0.503330069210006,-0.038022526254917983,0.0036890397295172676,505.0243071203443,644.5295558862719,664.8376848023036,505.40214857964276
0.176,-3.47725199025078e-05,-5.9787638340294444,0.04368884040036018,-29.14770791600092,-0.01700676002427027,-0.024325500018924525,-0.000994148185962006,-0.17574169876801474,0.06007751916234956,0.0,-0.0014836998539919598,0.16149638375314607,0.5638154825180811,-7.512135505042707,-0.0202774995915879,-0.019965410851961428,1.9877470511071684,0.6348169219620217,-0.035312609280310825,0.0016642131498216936,488.53734406602865,667.299490734802,680.8400162268206,482.2677559233773
0.18,-4.024242775296334e-05,-5.977015930262866,0.045398113483890806,-30.89861233241178,-0.02781021760816301,-0.022917555914150563,-0.0010286858723196663,-0.18301142935638048,0.0625619669116377,0.0,-0.0014268785601252497,0.1618183911116394,0.5781794225764978,-7.597518789877682,-0.03369427526680682,-0.018987923575237327,2.096192710304466,0.7555622989025446,-0.032338032468474776,-0.0006380064388153132,474.0551338436406,688.4681349161635,694.8390516823491,459.61997588546336
0.184,-4.570235286404358e-05,-5.975179149624306,0.04710387380682501,-32.648279991225884,-0.041239189135792595,-0.01934713204492533,-0.0010634982104204948,-0.19039909254391935,0.06508634905712558,0.0,-0.0013412011415908298,0.16263583742851223,0.593299529909305,-7.63172147648134,-0.04748170201093633,-0.018167054323529545,2.209149455983812,0.8640203951347694,-0.029059450358376194,-0.003220339524712067,462.0571057609089,708.0021545368005,706.7599283817107,437.84536805107683
0.188,-5.118808313570106e-05,-5.973248304160488,0.048803981780329186,-34.384546546929904,-0.05728769181830266,-0.013464810265107409,-0.0010985806511994017,-0.19790300718356646,0.06765009550830155,0.0,-0.0012258024179698725,0.16403386801835645,0.6092372116892224,-7.613109212121129,-0.06170427886166594,-0.017601884908051056,2.326679827104819,0.9594107170705138,-0.02546610493617247,-0.006066264273286928,452.8559459293205,725.9226048212638,716.6335671913691,417.2825212497954
0.192,-5.674622774513165e-05,-5.971218175311881,0.050496307190658785,-36.09560679550181,-0.07593120783310932,-0.0051420903100039194,-0.0011339286904563824,-0.20552150811696954,0.0702526415986251,0.0,-0.0010797646805973708,0.1660975405903237,0.6260541735616064,-7.5419612059577545,-0.07630242421982655,-0.01735329670626904,2.4488260180626753,1.0,-0.02156087963986216,-0.009157642282091266,454.56987561093325,737.4645600807148,719.5878707066923,407.0927812262304
0.196,-6.243493188539684e-05,-5.969083543273013,0.052178739676539715,-37.77036418296196,-0.09713724980029714,0.005697940669928342,-0.001169538037502946,-0.21325262968912664,0.07289342804076722,0.0,-0.0009022782197549078,0.16890852770102102,0.6438081224180117,-7.420259245316754,-0.09115874817633599,-0.01751433196299522,2.575608748701374,1.0,-0.017336834938716142,-0.012439658299030442,464.3411739903946,744.5057108248279,717.4868318892883,405.1678723921055
0.2,-6.832459955252494e-05,-5.9668391705574635,0.053849256838874905,-39.39852513104174,-0.12084334796602343,0.019103849400255342,-0.0012054042747091237,-0.22109474213199606,0.07557190088219415,0.0,-0.0006927499441350083,0.17254422335418734,0.6625567159418865,-7.251064153919321,-0.10611357120237593,-0.01813967137886042,2.706909963774759,1.0,-0.012806626320052975,-0.01588253359949857,474.30485331432857,751.7994834059381,715.2295807825307,403.0984320168913
0.20400000000000001,-7.44987082851986e-05,-5.964479850500693,0.05550591125492712,-40.971438317415256,-0.14696862609726888,0.035028491244396456,-0.0012415230282084612,-0.22904623123908144,0.07828751146109221,0.0,-0.00045102612180694755,0.17707439220373403,0.6823542715490584,-7.039205625632691,-0.12093059311593365,-0.01934439603604658,2.8426352453543746,1.0,-0.007975270877297047,-0.01937663561578256,484.24021244927593,759.2042446664301,712.9538559834625,401.1275680185865
0.20800000000000002,-8.10545649032307e-05,-5.962000328924093,0.05714695829258102,-42.482043122495334,-0.17538188664744866,0.05336006262777885,-0.0012778899675303145,-0.23710549823680427,0.0810397163626309,0.0,-0.0001777024262284962,0.18255716549246723,0.7032613591247526,-6.791231594470221,-0.13528145817972756,-0.02117473630217526,2.982428469731446,1.0,-0.002884297923270076,-0.022844672414055495,494.0026875302564,766.6131794667984,710.7565822854657,399.41163503759697
0.21200000000000002,-8.810280104892964e-05,-5.95939547588464,0.058770671081601764,-43.92455488546687,-0.20592616398706473,0.07391149767322541,-0.0013145008052349975,-0.24527095965686496,0.08382797737556207,0.0,0.0001256727612755547,0.18903910298808452,0.7253209884130242,-6.513660772869737,-0.14881432056064964,-0.02371457968162256,3.1263026513962178,1.0,0.0024360896449081605,-0.026194302744488706,503.440270257484,773.9140102491176,708.7615137427634,398.1598877361826
0.21600000000000003,-9.576700333399845e-05,-5.956660294221126,0.060375365235087665,-45.29423161966494,-0.23842554365597246,0.09642457969143693,-0.001351351163057545,-0.2535405470616268,0.08665176144915254,0.0,0.00045657588723177717,0.19655933292577493,0.74854575243702,-6.211854293656836,-0.16120507833622694,-0.026950821289933324,3.274220149254989,1.0,0.007964725948685018,-0.02933488465628809,512.4117466368488,781.000664984628,707.0893315989654,397.57915786958677
0.22000000000000003,-0.00010418296422775961,-5.953789940296228,0.06195940760763551,-46.58718266082018,-0.27269285866430043,0.12057648313626064,-0.001388436840143661,-0.26191271323412685,0.08951054065044776,0.0,0.0008114543550136437,0.20515328823062967,0.7729283281911473,-5.890175785186013,-0.17216413433602748,-0.030912023319902955,3.4261242754513184,1.0,0.013678950390401366,-0.032180478528659504,520.7925611478203,787.7756956178948,705.85520667638,397.8628544457503
0.22400000000000003,-0.0001134975360252977,-5.9507797499153945,0.06352122025799113,-47.8002131936554,-0.30853094553319343,0.14599754922343136,-0.0014257536775778075,-0.27038592583116994,0.09240379212186403,0.0,0.0011857081786730097,0.21485516348988026,0.7984491137520128,-5.552191838637079,-0.1814463819251036,-0.03558155436578144,3.5819487478650176,1.0,0.01955612680857665,-0.034663233889308316,528.4953416384641,794.1653208429506,705.1507771354333,399.15720272462636
0.22800000000000004,-0.00012386715891831292,-5.94762526711301,0.06505928135361587,-48.930697530746905,-0.3457568176640527,0.17226998463269946,-0.0014632975580296606,-0.2789586672600081,0.09533099803910691,0.0,0.001573744257348889,0.2257000061866677,0.8250735887593621,-5.200819166142571,-0.1888647301403576,-0.04094708043298888,3.7416237693302796,1.0,0.025595022721352476,-0.03671183121373524,535.4259131484109,800.0959016389917,705.0687875250298,401.6119542380807
0.23200000000000004,-0.00013545752705232828,-5.944322145439449,0.06657224169493275,-49.97647873072156,-0.38417632810760255,0.19892303762251634,-0.0015010643608917367,-0.28762900951266845,0.09829164556941347,0.0,0.001968854600058506,0.23772495717215528,0.8527673377781291,-4.838449972866071,-0.19423844586014552,-0.04698679054339888,3.9048413458758264,1.0,0.03177840349162362,-0.03824731019017447,541.4750881558289,805.480554683085,705.7074436353515,405.36930344781115
0.23600000000000004,-0.00014844129050315059,-5.940866220069821,0.06805887977598839,-50.935782201313636,-0.42359223486363773,0.22546303019593272,-0.0015390500514902102,-0.296395469246944,0.10128522683011584,0.0,0.002363135126150622,0.2509701973635553,0.8814932812318352,-4.467047213932949,-0.19740403644663768,-0.0536605583302122,4.071379263752879,1.0,0.03807304458060967,-0.03922358531774321,546.5943668111664,810.2706401200004,707.1238130690563,410.48120385263684
0.24000000000000005,-0.00016299592868527154,-5.937253537862233,0.06951809827121842,-51.8071460033856,-0.46381726458768147,0.25138134558786357,-0.0015772506356873828,-0.30525657746050494,0.10431123884752391,0.0,0.0027475902829116753,0.2654798563079105,0.9111971840455171,-4.088217538011718,-0.1982674971096547,-0.06089061808246736,4.241018445911445,1.0,0.04446235560306989,-0.03960292585269559,550.7438472602602,814.42862016413,709.3593502536094,416.9694270996999
0.24400000000000005,-0.00017930341853816028,-5.93348024100918,0.07094904069767194,-52.589365064334494,-0.5046465352064655,0.276138100919032,-0.0016156621595390388,-0.31421087937170417,0.10736918351612457,0.0,0.003112100223987303,0.2813024470399793,0.9418223361933631,-3.7032773036910043,-0.1967419448910789,-0.06859935006494329,4.41329916478782,1.0,0.050916865355354834,-0.03932787918721061,553.8429730003535,817.888614204673,712.4741744549439,424.87270924976684
0.24800000000000005,-0.0001975474897541814,-5.929542631234165,0.07235105540813301,-53.28144303226971,-0.5458650432941854,0.299186080674704,-0.001654280708954466,-0.32325693430130115,0.11045856755809544,0.0,0.003445322977646401,0.29849099021785264,0.9733123066987813,-3.313304620716411,-0.19273443426255252,-0.07669856167017379,4.587827166132983,1.0,0.05738620787956978,-0.038367629223029755,555.8560815311633,820.6128176355616,716.4941376430552,434.15537042132104
0.25200000000000006,-0.0002179114624732089,-5.925437175502103,0.07372370939283752,-53.88255322444837,-0.5872447894873164,0.31997832278329796,-0.00169310240935912,-0.3323933155550977,0.11357890248313057,0.0,0.0037347232100553114,0.3171031442912806,1.005598240715735,-2.9191784429471466,-0.18619326313996737,-0.08507344484981468,4.764173728038284,1.0,0.06382038722443509,-0.03669988229683804,556.7548353504459,822.5709132567083,721.4296333521961,444.7530773640248
0.256,-0.0002405760569335292,-5.921160507463778,0.07506680545359458,-54.39200640788692,-0.6285398028281499,0.3379746442415958,-0.001732123982999118,-0.34161795727125616,0.11672970454857584,0.0,0.0039667266815448686,0.33720124515371636,1.0385983132296084,-2.5216130864231556,-0.1771059691005172,-0.09360165821104044,4.9418683751002,0.9445033105413376,0.07015395246078801,-0.03430993992949847,565.0452030653481,817.9113111888861,720.6739458500012,466.9318911038675
0.26,-0.00026571766476356874,-5.9167093954666345,0.07638042558972956,-54.80937257501762,-0.6694636869170953,0.3526507350241645,-0.0017713416266189857,-0.3509294682371267,0.11991049471987206,0.0,0.004126787982257523,0.3588513670212996,1.072226725195595,-2.12144632923266,-0.16546432603096842,-0.10212282346417638,5.120345132043239,0.8715165589319687,0.07631648015060231,-0.031193967424570184,574.7307611771386,810.5474885052992,718.7813425314661,492.5240768143417
0.264,-0.00029350589212118476,-5.912080746385862,0.07766495445588267,-55.13510660789542,-0.7097056961334034,0.3634948885954812,-0.0018107515755437938,-0.3603264708073178,0.1231207986313028,0.0,0.004199457001065814,0.38211773803713767,1.106395390498173,-1.72079323054261,-0.15127097226526862,-0.11047973126658454,5.298981583398898,0.7928278305150622,0.08222467889381582,-0.02734492599857346,583.991388397324,801.6444529592347,717.1667645340684,519.0548598167642
0.268,-0.00032409963180914634,-5.907271690345279,0.07892103552815424,-55.37073872650637,-0.7489383942577498,0.37004087925408,-0.0018503501033517219,-0.3698076007904851,0.12636014654704567,0.0,0.004168670914952801,0.4070540037229361,1.1410062949363,-1.323402490351334,-0.1345898767657922,-0.11852360763621414,5.477234693392463,0.7169789378502404,0.08778916124904149,-0.022794664620878816,591.6530481451533,792.0969707565565,716.8185719338178,544.9567513709436
0.272,-0.00035764397454154684,-5.902279615337474,0.08014955452556048,-55.51866654502406,-0.7868367437840359,0.37186665605481,-0.0018901335215491713,-0.3793715073369935,0.1296280733225239,0.0,0.004018159088923218,0.4336968819370089,1.1759433201472818,-0.9335448018468171,-0.11557675790109326,-0.12615587437947234,5.654586886551001,0.6379329365508264,0.09294782825564965,-0.017575341596231683,598.6921391721376,781.2369689413085,716.9694361072737,571.1527003385033
0.276,-0.00039426764766380075,-5.897102175351036,0.08135163606636195,-55.581923373923985,-0.8230450582252431,0.3686215795936202,-0.0019296789148855002,-0.3890154464670925,0.1329241183660568,0.0,0.00373186388918983,0.4620661960202098,1.2110828703798773,-0.5547812347872431,-0.09442912869935968,-0.13324479308487472,5.830519714234118,0.5565348751752113,0.10248896702442105,-0.011752716593887998,604.4146404133754,769.7080017203692,717.0510483395338,598.0591476721512
0.28,-0.00043408173621402877,-5.891737228777687,0.08252868950254219,-55.56428056087864,-0.8571800849041422,0.36001543614065584,-0.001968987716024882,-0.3987381106079704,0.13624782560080612,0.0,0.003294235550200592,0.4921647092141669,1.2463068153157195,-0.19016175901803828,-0.07134207604287213,-0.13963669686973315,6.004414151804322,0.4737948971318313,0.10685349462041394,-0.005382623961795509,610.1350885461293,756.5619502110983,718.2486701270376,624.0307377911665
0.28400000000000003,-0.0004771777679192877,-5.8861828512429435,0.0836823938360797,-55.470097028920556,-0.8888216830102662,0.3457705697210953,-0.0020080613489568385,-0.4085382050435887,0.1395987434270168,0.0,0.002690151302857886,0.523976636975789,1.2815093480208828,0.15740431957753506,-0.04641357060634641,-0.14520245222643685,6.175672770256677,0.3906005482992265,0.11052935166444422,0.0015325582391379523,615.0903389159498,742.3281892592271,720.1109306080492,649.6405788109886
0.28800000000000003,-0.0005236246340183521,-5.880437369517665,0.08481466209231986,-55.304069288150885,-0.9175080287047648,0.32565961294886464,-0.002046901229049074,-0.4184144478070108,0.1429764246845496,0.0,0.001904663846814483,0.5574684300548145,1.316586231587015,0.48568007415341513,-0.01969496967512953,-0.14982373656574866,6.343761907544984,0.3075906780286821,0.11338732124976876,0.008945880090066288,619.284541591926,727.051518928365,722.654093096579,674.7566380358625
0.29200000000000004,-0.0005734669990057895,-5.874499289104289,0.08592768402385292,-55.07147649678001,-0.9427367393461445,0.2995571721371496,-0.002085508763099981,-0.4283655695735637,0.14638042661570336,0.0,0.0009235396599325929,0.5925887844510946,1.3514430861898876,0.7926277103859032,0.008693267060920485,-0.15332107680429408,6.508053829733308,0.2257166651747604,0.11531075626719686,0.01674796615206442,622.7633611001553,710.8935996260728,725.8474180644853,699.1444390144409
0.29600000000000004,-0.0006267236077858697,-5.8683672545135765,0.08702394051285063,-54.778284774089386,-0.9640015332654864,0.2674316272394409,-0.0021238853493908303,-0.43839031355482616,0.1498103108283251,0.0,-0.00026555584466483146,0.629265117723973,1.386008949221885,1.0757157137500264,0.038492937617291376,-0.15548589440179839,6.6678828064136155,0.14609522662450164,0.11621978217556776,0.024834841337631683,625.5322674112278,694.044520962534,729.6800944038106,722.5900862434303
0.30000000000000004,-0.0006833846479341155,-5.862040097306885,0.08810614456662141,-54.43079358582417,-0.9807894765253375,0.2293256947522045,-0.0021620323777376362,-0.4484874353934383,0.15326564325920558,0.0,-0.0016726260205820321,0.6674021040212393,1.4202293484957424,1.332609398200256,0.06944080444601027,-0.1561661655091333,6.822693630103922,0.06948129319667462,0.11601784489751973,0.03312138772259892,627.6212857060756,676.6394731714694,734.1250205308761,744.9687400253482
0.30400000000000005,-0.0007434097827334135,-5.855516835892434,0.08917721579607948,-54.035530824842816,-0.9925827263293856,0.18535857805544295,-0.0021999587127619824,-0.45865425040521807,0.15674599413775817,0.0,-0.0033053415759840125,0.706884635405498,1.4540581882755352,1.5618099417892268,0.10131172377002326,-0.15526563008869398,6.971975541593623,-0.0034655291357914564,0.11452756304804285,0.041516919965146934,629.0910203726148,658.8119412109146,739.1464848101367,766.1618532957999
0.30800000000000005,-0.0008067263433591403,-5.848796670186245,0.09024025563887615,-53.59917016340793,-0.9988674562526767,0.1357257633723181,-0.002237665637435678,-0.4688895562667469,0.16025093794997916,0.0,-0.0051689131378838595,0.747581531018864,1.4874611482403939,1.762424386175865,0.13389300118704975,-0.15267656305728522,7.1152615308302085,-0.07216196709055755,0.11183731336190793,0.049927841955346684,629.9788897403355,640.7398510777674,744.6660484070916,786.0935658775413
0.31200000000000006,-0.0008732276087938143,-5.841878984704315,0.09129851254785452,-53.12839405759889,-0.9991600685271386,0.08067487443555056,-0.002275154427233642,-0.47919216261681685,0.1637800534026873,0.0,-0.007265933120710841,0.7893478403180583,1.5204185934107515,1.9340156619491053,0.1669788824270261,-0.1483544997652429,7.252149491015885,-0.13617009372726696,0.10781386366379053,0.05828561708448392,630.3357502487746,622.5352597669702,750.6470058871672,804.7113074270763
0.31600000000000006,-0.000942771143699763,-5.834763367240446,0.09235533159285436,-52.629674830841644,-0.992978231427008,0.02050390006212252,-0.0023124263501779507,-0.4895608909557368,0.16733292338804046,0.0,-0.009596604045432656,0.8320292262213247,1.5529215919563506,2.076839377091183,0.20040808738135185,-0.14226558175960066,7.382334960558612,-0.1953023520671981,0.10237253830489164,0.06652162099554794,630.2408952533077,604.2972904979733,757.020679153479,821.9941078713733
0.32,-0.001015177436731789,-5.827449539361936,0.0934141774399854,-52.10959229120117,-0.9798434375154546,-0.04433648000888676,-0.0023494895272143917,-0.4999935902787686,0.17090913494832735,0.0,-0.012158040321431588,0.875463854045476,1.5849799465535805,2.191149640929612,0.2339273079053989,-0.13425284478238206,7.505463807971486,-0.2490101439647785,0.09535296116482996,0.07444560761619158,629.9088637936965,586.367671376125,763.6227714647364,837.7379605264122
0.324,-0.0010902289271964467,-5.819937335362401,0.09447861459668806,-51.57479506338259,-0.9594211048096998,-0.11334533386942262,-0.0023863451290194867,-0.5104891173569276,0.1745082792410327,0.0,-0.01494298768211029,0.9194802584030006,1.6166298946066964,2.276808344473287,0.2671376666787668,-0.12428626754517232,7.621218228083887,-0.2967780815221802,0.08699602390821004,0.08198069409233774,629.340005595778,569.0054544481396,770.380872212848,851.9124895003579
0.328,-0.001167669471011555,-5.8122267744698295,0.09555220446258963,-51.03142906210359,-0.9313606570665129,-0.18598833331906245,-0.0024229943196943464,-0.5210463404181772,0.17812995150417293,0.0,-0.01794052697720223,0.9639015003731611,1.6479196601751958,2.33439198815451,0.29973917843510406,-0.112364426730805,7.729486214853815,-0.33874881953932745,0.07713892255918317,0.08906758941179782,628.6591476606446,552.3116530171939,777.2213208611656,864.5283026809547
0.332,-0.001247203463658181,-5.804317972684816,0.09663854212463625,-50.485547695027215,-0.8954156734441789,-0.2616229557795169,-0.0024594382568016698,-0.5316641390506902,0.18177375102190133,0.0,-0.02113633331454739,1.0085498289163897,1.6789079440035368,2.3651084636349204,0.3314666772708573,-0.09853220488274003,7.830081229399353,-0.3746160914058745,0.06582785382730014,0.09555821790832861,628.0287352737639,536.6524567157232,783.9944598388053,875.4694981465375
0.336,-0.0013284958839856974,-5.796211142907832,0.09774121581055419,-49.94294427945222,-0.8514275193872202,-0.3395120335114146,-0.002495678091402531,-0.5423414041068607,0.1854392810903802,0.0,-0.02451167041887637,1.0532484999035059,1.7096730686523387,2.369908915033754,0.3618620921822401,-0.082712002785278,7.9228979925420955,-0.4042714227473522,0.053106150676158426,0.10131584387756944,627.624765279071,522.3823481554065,790.5491079070889,884.6488660585128
0.34,-0.0014111730832533865,-5.787906587715852,0.09886377236644693,-49.40904995882762,-0.7993773475563907,-0.4188946716975159,-0.00253172584287159,-0.5530756469803961,0.18912614898391802,0.0,-0.028042925542382014,1.097821767482375,1.7403071014962623,2.3500009528035433,0.39046301390913085,-0.06503524996475324,8.007901550779362,-0.42773928647998294,0.038965050775391016,0.1062826372517232,627.5356537997602,509.7151110705922,796.8219889929244,892.0624902924053
0.34400000000000003,-0.0014948245456397743,-5.779404717833384,0.10000966005853075,-48.88873513809033,-0.7393092160043773,-0.49901944024442535,-0.0025675825184873764,-0.5638657975047446,0.19283396592137,0.0,-0.031703104830731396,1.142100494659982,1.7709053950056692,2.3072097252683954,0.4169583706119854,-0.04565790654356306,8.08517439747417,-0.4452970005625569,0.0236993312745195,0.11043851380535855,627.7902995630463,498.81511855491027,802.7369417352537,897.7899201521453
0.34800000000000003,-0.0015790043944955412,-5.770706030092484,0.10118221008029825,-48.38634474531123,-0.6713431208584989,-0.5791299663035938,-0.002603249120319807,-0.5747107963426776,0.19656234703279937,0.0,-0.035463164101209046,1.185926278619702,1.801562850812532,2.243828344001014,0.4411843478137535,-0.02474394967887516,8.154839742815684,-0.45721565123294516,0.007256226821353712,0.11374689529162285,628.4887495614856,489.815330498925,808.2394190767662,901.8490690115494
0.35200000000000004,-0.0016632323660883742,-5.761811050740289,0.10238465330168904,-47.90581313910252,-0.5957286678693398,-0.6583705969918769,-0.002638726645256616,-0.585609594894474,0.20031091132639842,0.0,-0.03929114556835502,1.2291524216741416,1.8323828003949783,2.1619553925051926,0.46276248696758043,-0.0023715551531342223,8.216990579059207,-0.463665043649393,-0.01023555128756358,0.11606074683351819,629.8507006938438,483.09574823096386,813.1425947412627,904.1437345681568
0.35600000000000004,-0.0017469964022054328,-5.752720314972726,0.10362010671428884,-47.45064956057749,-0.5129067036624894,-0.7358369228289418,-0.0026740160850296534,-0.5965611552068194,0.20407928165566652,0.0,-0.04315019843342017,1.2716426861110515,1.863477686149892,2.0634824476736418,0.4810861051603504,0.021307551492354342,8.271750648879548,-0.4648573002011295,-0.02854725933730587,0.11728791642466044,632.0057346692109,478.9350486982602,817.3099553023087,904.6382354896579
0.36000000000000004,-0.0018297579629025812,-5.743434408365574,0.10489150425040322,-47.02379727538261,-0.4233700698883238,-0.8106655483728396,-0.0027091305272822956,-0.6075628815440643,0.2078670846868438,0.0,-0.046999568352745574,1.3132724141268646,1.8949563959700118,1.9504560033204268,0.4956893631189724,0.04609995117524257,8.319387771553583,-0.46119564832029847,-0.04770714284093811,0.11743905311396127,634.9951650616375,477.3100752365708,820.7299726782028,903.3864028397115
0.36400000000000005,-0.0019109546448239031,-5.733953905902758,0.10620162685618406,-46.627714355375055,-0.3277702014607295,-0.8819434443567695,-0.0027440708078648665,-0.6186137758517618,0.21167395086659824,0.0,-0.05079553036430486,1.353930318937493,1.9269211668233606,1.8251115669894944,0.5062225994857641,0.07177755236651329,8.360114610838485,-0.45302563201510654,-0.06722808472217959,0.11642053880396452,638.9269786094301,478.4575449054808,823.2246726469693,900.369060326077
0.36800000000000005,-0.0019900063583027693,-5.724279392176562,0.10755305951290206,-46.26436210995359,-0.2268448294781829,-0.9487863245192621,-0.0027788377588673055,-0.6297128502820714,0.21549951438996442,0.0,-0.05449179766445485,1.3935191940191356,1.9594695618419042,1.6896109830808022,0.512295091075577,0.09814254630271815,8.39423597632961,-0.44073776704784,-0.08705899429860134,0.11422821006254827,643.8421682642983,482.31416797450754,824.7571081911304,895.6115769878483
0.37200000000000005,-0.0020663201700279886,-5.714411433285749,0.10894819781734646,-45.935217290196604,-0.12145496580149888,-1.0102990494791306,-0.002813432208634339,-0.6408591271068421,0.21934341316853218,0.0,-0.05803924086455266,1.431955600025551,1.992691460604083,1.546063763355581,0.5135381801315754,0.1249563748927854,8.42204961277861,-0.42474091855645696,-0.10697741340900138,0.11081276746767084,649.8191782591744,488.88404499742796,825.217405390362,889.1014204370247
0.37600000000000006,-0.0021392965935829824,-5.704350569102617,0.11038923880060453,-45.64128852711372,-0.012573545972437752,-1.0655779903760927,-0.002847854981780599,-0.6520516386313748,0.22320528879888304,0.0,-0.06138616771447323,1.469170052681567,2.0266682467812154,1.3965349276509946,0.5095566242016234,0.15199125142116363,8.443877979048873,-0.40545686048062257,-0.12674452989259669,0.10612716454676,656.9256572658091,498.1239580058919,824.4919018966076,880.8208854463966
0.38000000000000006,-0.0022083371071554545,-5.6940973149910175,0.11187816580742417,-45.38315942184592,0.09872726275135447,-1.1137582968510507,-0.0028823615520618185,-0.6632879264829648,0.22708478653127295,0.0,-0.06447833474908486,1.505106612662583,2.0614705426174598,1.2429731004967575,0.4999943155482969,0.1789711923792922,8.46008059524455,-0.38328835594079935,-0.1490761570812331,0.10017915961216392,665.5265172140546,509.3579125385695,822.8347167005946,870.5047292641249
0.38400000000000006,-0.002272849557204791,-5.683652133818361,0.11341676747897535,-45.16086756862793,0.2111762384834763,-1.1539034776724488,-0.002916949671675848,-0.6745670608393246,0.23098155523855904,0.0,-0.06725841035082096,1.5397235758201704,2.09715827231068,1.0874431002825706,0.4843209272523793,0.20558560706951767,8.470985311693227,-0.35880809398365154,-0.16785977961056125,0.09284905567931823,675.0269392578805,523.5882544737347,819.4100035208206,858.6287424332288
0.388,-0.0023322581574248985,-5.673015454042922,0.11500661337063701,-44.974028813294964,0.32338555981521905,-1.185055661785498,-0.002951617116858387,-0.68588812149356,0.23489524738536907,0.0,-0.06966491085533055,1.5729943499676435,2.1337769198912104,0.9319824611159799,0.4619267443042233,0.23150692183800364,8.476975714026157,-0.3324809739737655,-0.1855517378338659,0.08407286143274291,685.850115573636,540.2312387327448,814.3412491726727,844.861530632897
0.392,-0.0023860136993526042,-5.662187672360003,0.11664904889087248,-44.821889870915896,0.4338860726591241,-1.2062793413690962,-0.0029863616876745873,-0.6972501977719134,0.23882551899751156,0.0,-0.07163199523936822,1.6049072265991018,2.1713549778111934,0.7784208864318877,0.4323328247021886,0.2564717713928772,8.478452688376139,-0.304739560307016,-0.201839803313987,0.07383673956816734,697.9758848183801,559.0860006488055,807.5096306475201,829.1781033754226
0.396,-0.002433603919083032,-5.6511691538104465,0.11834519608398027,-44.703364163587764,0.5411526599231836,-1.2166809565406067,-0.0030211812078122955,-0.7086523884521492,0.24277202963162442,0.0,-0.0730916777725964,1.6354634228426117,2.209904143178863,0.628302973685006,0.3953249879770623,0.2801791905878036,8.47582272289766,-0.27600033635514554,-0.21642413793997264,0.062150583809000744,711.3474094608677,579.9141804675229,798.8114207944785,811.5618852391794
0.4,-0.0024745638537410726,-5.6399602414488,0.12009594784572138,-44.61702042782415,0.6435606618274734,-1.2154357351949585,-0.003056073524376929,-0.7200938016825801,0.2467344423450612,0.0,-0.07397527506733878,1.664676476827551,2.249420652591305,0.48310771881561976,0.3507709043941211,0.30222595195237967,8.469511211320613,-0.2467166389500815,-0.22894010544126128,0.04905730118999435,725.8609241353132,602.4437060709507,788.1530493947133,792.0302599451473
0.404,-0.0025084865387905515,-5.628561251032905,0.12190197987865953,-44.56115079118302,0.7395156292828994,-1.2017133895703689,-0.003091042041697887,-0.7315712305657612,0.2507124236660123,0.0,-0.07421336643695783,1.6925726613276946,2.289885979667271,0.34419024541993437,0.2986127999632736,0.3223524993567345,8.459926634756552,-0.2172868792682364,-0.2392178530256746,0.03451576765261975,741.5346727858149,626.529147342888,775.3497809206345,770.4600876141869
0.40800000000000003,-0.0025350338333773046,-5.616972447053086,0.12376378394461966,-44.53395154207649,0.8275033210947975,-1.174775256709514,-0.00312608458649947,-0.7430838297264197,0.25470564356386005,0.0,-0.07373689719228935,1.7191889001858205,2.3312726010647724,0.21251834394153385,0.23902587461846037,0.34042057037626855,8.447416958135246,-0.18791848521925297,-0.2469460355595466,0.018598050102168102,758.2047511190648,651.9186074664791,760.3277943337612,746.8295919861229
0.41200000000000003,-0.002553946050758619,-5.605194034587301,0.12568168742195995,-44.53358783475576,0.906031130897916,-1.134067333435968,-0.003161199008920298,-0.7546307626676562,0.2587137754197653,0.0,-0.07247936599245543,1.7445686514359076,2.373550708540907,0.0884959907630323,0.1725065601013709,0.3561686164961859,8.432296365047517,-0.158751139542102,-0.2519388854059309,0.001488605848931325,775.5904085338915,678.2298111017833,743.1478434253261,721.2152590148868
0.41600000000000004,-0.0025650530612737416,-5.593226286320541,0.12765573438056207,-44.5578356096104,0.9734551294957697,-1.0791497994917232,-0.003196383182309733,-0.7662112016945176,0.26273649599748455,0.0,-0.07037948665601274,1.768762876766268,2.4166658258015725,-0.027039899404588848,0.09934842026342576,0.36900341817796073,8.415125686550812,-0.13034607623448602,-0.25372205854530183,-0.016702891868556898,793.5380816139417,705.2185107550608,723.6827928906538,693.6822801603857
0.42000000000000004,-0.0025682826162933114,-5.5810694931920715,0.12968574937155714,-44.60426389955189,1.0282147142432208,-1.0096262212437799,-0.003231635003025909,-0.7778243278381718,0.26677348541441526,0.0,-0.06738032996416206,1.7918348466926344,2.460540233349934,-0.13295884452597267,0.019764994521874635,0.37832688228360223,8.39634537044503,-0.10307981227763714,-0.25210542954764303,-0.03594481306465141,812.0026138222948,732.7572784859266,701.723312429006,664.1187778698585
0.42400000000000004,-0.0025636663264674243,-5.568723872810312,0.13177144938073787,-44.67046513130644,1.068968522085161,-0.925162704811645,-0.00326695239023536,-0.7894693307806758,0.2708244271128679,0.0,-0.06342802851751826,1.8138604697468517,2.505096329097934,-0.22851821953966836,-0.06577080874005366,0.3842038644819075,8.376175699191394,-0.07707578033156968,-0.2470809983914271,-0.056181399953958766,830.9040682564859,760.7105570754073,677.0900208831534,632.343574292644
0.42800000000000005,-0.0025513454719754583,-5.556189533770179,0.13391249930343763,-44.754163010005094,1.0944754255925258,-0.8256520573036317,-0.003302333285714227,-0.8011454087803377,0.27488900783156306,0.0,-0.05847466367251584,1.8349203766420026,2.550277333545576,-0.31382445626574174,-0.1563737984687184,0.3865659180336051,8.354727845103806,-0.05233151380405307,-0.23851111523292912,-0.07716258369499668,849.9321575844767,788.7619506386063,649.8151316308536,598.408459513299
0.43200000000000005,-0.002531580642102094,-5.543466612108409,0.13610838422039476,-44.85303531387692,1.1035327261211432,-0.7112128689412246,-0.0033377679222169675,-0.812848742469921,0.2789669175773519,0.0,-0.05248202282354605,1.8550976013082932,2.5960169051502726,-0.3890303527683379,-0.2511009418725342,0.38504887306415475,8.332373907064955,-0.0290440865053056,-0.22605055510721744,-0.09863006608152844,868.7984589811961,816.6346128802923,619.8641815953793,562.4349652255366
0.43600000000000005,-0.002504757494539764,-5.530555320333786,0.13835837246622576,-44.96468502848239,1.095061504051067,-0.5821439257181292,-0.00337325437920438,-0.824578583461134,0.2830578495971585,0.0,-0.045424404864279316,1.8744810089982606,2.6422156781742507,-0.4539168399410019,-0.34903397667843883,0.3791345633984059,8.309566717367373,-0.007449041543514542,-0.2097555662334315,-0.12036952246991929,887.3283524711054,844.092281041152,587.146232417265,524.4192159866641
0.44000000000000006,-0.0024713867803679273,-5.517455868669965,0.1406616156877888,-45.086761012775,1.0681533536574614,-0.4389431069977594,-0.003408790757318198,-0.8363341913920814,0.28716150035014193,0.0,-0.03728884376775875,1.8931671408866695,2.6887653415847432,-0.5082932933982744,-0.44913668727900335,0.36851370403321987,8.286562996238166,0.012352195710587766,-0.18954514437401376,-0.14213713255692603,905.3024642647779,870.9206573962141,551.5512082464933,484.38061184663695
0.44400000000000006,-0.002432105187446268,-5.504168462931401,0.1430171674507706,-45.216990441684295,1.0220774298787112,-0.28233450334600346,-0.0034443751781952914,-0.8481148338576009,0.29127756948007694,0.0,-0.028076228786403017,1.911258066021773,2.735566524950709,-0.5522517693361052,-0.5502100701182198,0.3530410054549253,8.263585469883445,0.03029757966679622,-0.1654305161824915,-0.16364918794952477,922.4826047160744,896.883732067952,512.9834867324154,442.37330031528325
0.44800000000000006,-0.002387674538912626,-5.490693308792624,0.14542399432660613,-45.353201181993576,0.9562966771596249,-0.11328086320706943,-0.00348000578428335,-0.8599197863401488,0.29540575978795147,0.0,-0.017803517688044352,1.9288590201227156,2.7825242882759325,-0.5860755469957668,-0.6509370729537717,0.33253697103788593,8.240837538591823,0.04635496247321057,-0.13746975914937914,-0.1845981010581421,938.6243546163704,921.744463573346,471.3208218327619,398.4820050358971
0.452,-0.0023389790410769007,-5.47703061589109,0.14788098617637838,-45.49334149586477,0.8704834788269289,0.06700626721182631,-0.0035156807386580225,-0.8717483321412313,0.2995457772047791,0.0,-0.006505597792479251,1.946077398995626,2.8295435196124092,-0.6101498550115136,-0.7499118465669674,0.3068614821434786,8.218504552965944,0.06052057383497628,-0.10577329105868266,-0.2,949.0059368983335,940.7528184921804,436.25252207395613,364.6956057654915
0.456,-0.0022870204003174657,-5.463180591443618,0.1503869767127493,-45.63549783831995,0.7645628522083184,0.25708291441869197,-0.003551398224841513,-0.8835997623133774,0.30369733076462546,0.0,0.005763302775954646,1.9630215846614618,2.8765318109582148,-0.6249578830452801,-0.8456460501515004,0.27598456251920134,8.196732626541394,0.07281822669137014,-0.07054099961962487,-0.2,944.3436506877835,944.7591119490485,430.96093327914247,369.21321523414764
0.46,-0.002232910370385333,-5.449143329136116,0.15294087905753984,-45.77791938687134,0.6388672317934935,0.45536544129153944,-0.0035871564466226124,-0.8954733755926481,0.30786013257784617,0.0,0.01892960686686118,1.979798482676608,2.9234180480729104,-0.6310947147600989,-0.9365323213430632,0.24028680128475424,8.175394594556396,0.08330849207445157,-0.03220261952833933,-0.2,939.5458916665043,948.8731117763768,424.6226093795658,374.82438356457175
0.464,-0.0021778631344637964,-5.434918562781108,0.1555419784373018,-45.91904753176907,0.49423594625194617,0.6601881023707242,-0.003622924389090273,-0.9073646067642951,0.3120338978045354,0.0,0.03290251491484339,1.9965083421456176,2.9701919567052086,-0.62929279947524,-1.0208302219050094,0.20073492442105395,8.153766777723256,0.09209628277916586,0.009002478373428074,-0.2,934.6116471360265,953.0701648538065,417.23558251974237,381.37534383789324
0.468,-0.0021231900666459497,-5.420505725652053,0.15818989598116104,-46.057507920887886,0.3318069391252264,0.8697672918940582,-0.003658700647950327,-0.9192728163292877,0.3162183446281834,0.0,0.04757627893669047,2.01324172386789,3.016891730780615,-0.6203732395440589,-1.0969277599963079,0.15839935475294914,8.131187152978256,0.0992892780050662,0.05206466787640089,-0.2,929.6119318180328,957.2578864069236,408.9547878300768,388.5460082008869
0.47200000000000003,-0.0020702942642936303,-5.405904129968023,0.1608844160595416,-46.19205789500286,0.15307029845664366,1.082099920577454,-0.003694483835460747,-0.9311973718513615,0.320413194229541,0.0,0.06282903241655219,2.0300811525503017,3.063549102051571,-0.6051022324152251,-1.1632530062642816,0.11400094286797105,8.107333451817716,0.1049454159148596,0.09686654079484934,-0.2,924.5461289638029,961.4261673605388,399.75068973640765,396.2527224311216
0.47600000000000003,-0.002020659136833923,-5.391113076418856,0.16362538416419767,-46.32155598136992,-0.0401389638556992,1.2949325555253959,-0.0037302725802829785,-0.9431376478950327,0.32461817076069005,0.0,0.07851811372907425,2.047104862785381,3.110151529909321,-0.5841051623031401,-1.2180952540892966,0.06806079213085743,8.08208549867664,0.1090951492701209,0.1428816202346188,-0.2,919.4577187326673,965.5291759361602,389.67650228374805,404.3418402790229
0.48000000000000004,-0.0019758305014877693,-5.376131902192663,0.16641266636190435,-46.444959418961766,-0.24584061132649393,1.50593122296144,-0.0037660655273344655,-0.9550930259641046,0.3288330013193179,0.0,0.09448049555774622,2.0643876145163866,3.1566603510294735,-0.5579376804741647,-1.2600592974184737,0.020994995859099534,8.0554035009617,0.11177216344346132,0.18970819537568157,-0.2,914.3803673134847,969.5344346953934,378.76030961471537,412.6985802741583
0.48400000000000004,-0.001937400533737978,-5.36096003515467,0.16924610129001835,-46.56130614694842,-0.4617943108809317,1.7125462041788937,-0.0038018613376423634,-0.9670628944406617,0.33305741592319477,0.0,0.1105337940362832,2.082000562678969,3.203024167884884,-0.5271306192865479,-1.2879951872572424,-0.026860293373580146,8.027344477522355,0.11299513332957242,0.23680714488375593,-0.2,909.3644907804794,973.3979391630455,367.0602009590514,421.1949050528589
0.48800000000000004,-0.0019069861393825284,-5.345596994895893,0.17212550487401598,-46.6697129137747,-0.6856864727347749,1.912181467208723,-0.0038376586881984243,-0.9790466485245493,0.33729114748485184,0.0,0.12647985298193148,2.100010796178686,3.2491882410895663,-0.49220057797559946,-1.3009951914445597,-0.07523693742548042,7.997956788557482,0.11278537255742577,0.2837608761142463,-0.2,904.4496463164701,977.0871499324741,354.60722279482184,429.7361899330541
0.49200000000000005,-0.0018862097522015723,-5.330042422020976,0.1750506454584478,-46.76937268284493,-0.9149992425766195,2.102055139879894,-0.0038738344319000162,-0.9910403517680413,0.3415339317864596,0.0,0.14210319811599198,2.1184808454775728,3.2950991524589894,-0.45366265583029336,-1.29821870264829,-0.1239126332222423,7.967340031384066,0.11116593782915767,0.3255965004365013,-0.2,900.1130531389559,980.1704962948347,342.5820895257741,437.3399550526244
0.49600000000000005,-0.0018766760017138388,-5.314296050577444,0.17802127526379338,-46.85954558727291,-1.1472327788369687,2.279417224674193,-0.00391038272570262,-1.0030434530079058,0.3457855074549037,0.0,0.15717529316526418,2.137468009938948,3.340710580547276,-0.41202446053827246,-1.2791449496756393,-0.17270932466048491,7.935531518689342,0.10815397175739756,0.3704744841289599,-0.2,895.5772965547185,983.3710185909097,328.9066676901871,445.63288968499586
0.5,-0.0018799503883751556,-5.298357707229709,0.18103713404387675,-46.9395581079058,-1.3799231364705642,2.441562214738572,-0.003947297783266446,-1.0150554073565417,0.3500456159370582,0.0,0.1714587331419411,2.157023887811517,3.385986782801978,-0.36777055549440285,-1.2437849152825124,-0.22149111595341306,7.902561694832977,0.10376973380610705,0.4138901326528219,-0.2,891.2734670200849,986.2963455022809,314.6081088288692,453.719766084266
0.504,-0.0018975387078978459,-5.282227340349327,0.18409792161277894,-47.008826702033346,-1.6104717839725209,2.585653697597541,-0.003984573874484289,-1.0270756761462871,0.35431400147525305,0.0,0.18470975766915926,2.1771939035850805,3.4308964678863254,-0.3214213093739409,-1.1919698732698385,-0.2701485558088359,7.868517198789374,0.0980651422588467,0.45527398965411364,-0.2,887.2566280056795,988.9051083473155,299.780084080078,461.4981609450329
0.508,-0.0019308654508185495,-5.2659050063000175,0.18720331254690356,-47.06685942149884,-1.8361872229018763,2.708767034023405,-0.004022205325013015,-1.0391037268741725,0.35859041108293643,0.0,0.19667345680816017,2.19801617548718,3.475413333794074,-0.27353833946433603,-1.1232457276447627,-0.3185914635321443,7.833456144565155,0.09109975033268874,0.4940644056303768,-0.2,883.5806190977763,991.1570169144811,284.5309380569581,468.8710931841841
