Time_s,X,Y,Z,Roll_deg,Pitch_deg,Yaw_deg,Ref_X,Ref_Y,Ref_Z,Ref_Yaw,vx,vy,vz,p,q,r,T_pert,tau_x,tau_y,tau_z,RPM_0,RPM_1,RPM_2,RPM_3
0.0040000000000000036,3.907672823421635e-23,-2.0,0.010006999594037988,3.1588276933026285e-18,-1.2404722931936249e-18,-1.2671305083394822e-20,-1.7036918152829097e-23,-2.0,7.200000000000012e-05,0.0,-7.173352330779748e-20,-400.0,2.0013999188075973,0.0,0.0,0.0,-10.19,-3.688665432071574e-18,7.946506583471864e-19,1.4802088048930945e-20,0.0,0.0,0.0,0.0
0.008000000000000007,-2.2845147947142647e-22,-2.0,0.010010999365392528,4.225032291713385e-18,-3.0182454625789816e-18,-5.043015736345434e-21,-1.7036918152829097e-23,-2.0,0.00021513340800000038,0.0,-6.955654838364261e-20,-222.22222222222223,1.1123332628213918,0.0,0.0,0.0,-0.034338475932384316,-1.4632550593036749e-18,5.885575995615201e-18,-8.389839031087655e-21,534.6826504237879,534.682650423788,534.6826504237879,534.682650423788
0.01200000000000001,-3.322421896345364e-22,-2.0,0.01001499913738627,5.290639114639494e-18,-3.677086002731227e-18,-4.3619646091710074e-20,-1.7036918152829097e-23,-2.0,0.00042854147030131276,0.0,-3.268915607693931e-20,7.740276918348525e-23,0.0009999429025551315,0.0,0.0,0.0,0.11268126795424338,-1.5384162460979169e-18,-7.039960987436207e-19,4.527192351895956e-20,538.6882898857357,538.6882898857358,538.6882898857357,538.6882898857358
0.016000000000000014,-5.433012432069734e-22,-2.0,0.010018998918163225,5.444194606497135e-18,-4.509251583777965e-18,-2.126259037960425e-19,-1.7036918152829097e-23,-2.0,0.0007113732083620786,0.0,-3.329822171295566e-20,8.776339630094047e-23,0.0009999438447967288,0.0,0.0,0.0,0.26021500567542344,-5.499466448335118e-19,2.5701095898479964e-18,1.992214788858057e-19,542.6782123982766,542.6782123982767,542.6782123982766,542.6782123982766
0.020000000000000018,-5.806877109309868e-22,-2.0,0.010022998716742462,5.366470414267589e-18,-5.770325043375553e-18,-1.8680161267529883e-19,-1.7036918152829097e-23,-2.0,0.0010627853561306145,0.0,-3.917512877806964e-20,9.477000854818948e-23,0.0009999465672663743,0.0,0.0,0.0,0.4082515376313835,-2.9417511872562117e-19,-5.0249372502250284e-20,-2.1416625781071948e-20,546.6524625312177,546.6524625312178,546.6524625312177,546.6524625312177
0.023999999999999994,-6.683810118096398e-22,-2.0,0.010026998537345124,5.913917814697618e-18,-6.22904405989244e-18,-9.173750699713742e-20,-1.7036918152829097e-23,-2.0,0.001481942297853104,0.0,-3.6466985699261235e-20,9.780407291077588e-23,0.000999951136014185,0.0,0.0,0.0,0.5567797919767445,-1.0226397792557719e-18,1.5698580023271868e-18,-1.0334706534764003e-19,550.6110856194592,550.6110856194593,550.6110856194592,550.6110856194593
0.027999999999999997,-6.786057495110558e-22,-2.0,0.010030998381149596,6.815028186483151e-18,-6.345391011990315e-18,-2.315529396309627e-20,-1.7036918152829097e-23,-2.0,0.001968016006352204,0.0,-2.0509900824624812e-20,1.048512688211133e-22,0.0009999566282590383,0.0,0.0,0.0,0.7057888087295738,-1.4771879336691795e-18,-2.399212626077828e-19,-7.630926076740572e-20,554.5541273293652,554.5541273293653,554.5541273293652,554.5541273293652
0.032,-8.632015683705969e-22,-2.0,0.010034998247669456,7.498379848309178e-18,-7.350162233872498e-18,1.9613580019213499e-19,-1.7036918152829097e-23,-2.0,0.002520185981773086,0.0,-1.5041419074079393e-20,1.185289632930518e-22,0.0009999623512968805,0.0,0.0,0.0,0.8552677394924664,-1.2892818854453272e-18,3.6806364463386985e-18,-2.551756553068759e-19,558.4816336524722,558.4816336524723,558.4816336524722,558.4816336524722
0.036000000000000004,-5.863372175456657e-22,-2.0,0.010038998135608374,7.958322623029723e-18,-6.6621489615769736e-18,5.1895637866451076e-20,-1.7036918152829097e-23,-2.0,0.0031376391907935734,0.0,5.8218090678675494e-21,1.2966551093383328e-22,0.0009999679241879875,0.0,0.0,0.0,1.0052058474894858,-1.0803641546420325e-18,-5.483800244287605e-18,1.6046784654600636e-19,562.3936509077739,562.393650907774,562.3936509077739,562.3936509077739
0.04000000000000001,-5.854721536915008e-22,-2.0,0.010042998043183387,8.702682464329418e-18,-6.952545499617648e-18,2.2380703592659746e-20,-1.7036918152829097e-23,-2.0,0.0038195700062949468,0.0,1.1004497855286205e-20,1.3983288615497962e-22,0.0009999731565207837,0.0,0.0,0.0,1.1555925076447346,-1.4494951126587418e-18,3.822852158547594e-18,3.23699809242756e-20,566.2902257450827,566.2902257450828,566.2902257450827,566.2902257450828
0.04400000000000001,-5.847060979582565e-22,-2.0,0.010046997968461637,8.990610218852133e-18,-6.710648603687808e-18,-4.161509006565215e-19,-1.7036918152829097e-23,-2.0,0.004565180147490077,0.0,2.2120426807918768e-20,1.479987647676552e-22,0.0009999779379977342,0.0,0.0,0.0,1.3064172055793306,-9.734812883546997e-19,2.397681364273482e-19,5.11376544910079e-19,570.1714051206109,570.171405120611,570.1714051206109,570.1714051206109
0.048000000000000015,7.87850150589575e-15,-2.000000000000008,0.010050997909547606,2.597714330653572e-11,2.5977127747689276e-11,3.818051030157911e-12,-1.7036918152829097e-23,-2.0,0.0053736786205055564,0.0,7.877595359423928e-13,-7.99269901521693e-13,0.000999982250224872,0.0,0.0,0.0,1.4576695369462616,-1.234833605479678e-10,-1.221420630328149e-10,-4.460087820038365e-12,574.0372363262103,574.0372362524738,574.0372362749386,574.0372362753413
0.05200000000000002,2.7977278341436486e-14,-2.0000000000000284,0.010054997864680261,7.204013954148243e-11,7.204012374910118e-11,4.787934421641496e-12,-1.7036918152829097e-23,-2.0,0.006244281659414512,0.0,2.797211387598596e-12,-2.8416544308671487e-12,0.0009999860934379462,0.0,0.0,0.0,1.6093392066568826,-2.072430003162672e-10,-2.046493179506505e-10,-1.2900251806041888e-12,577.8877668161805,577.8877666933547,577.8877667503004,577.8877667510739
0.05600000000000002,4.4981780499190874e-14,-2.0000000000000453,0.01005899783223072,1.1101158174846755e-10,1.1101156586232094e-10,5.623930344949212e-12,-1.7036918152829097e-23,-2.0,0.007176212667716821,0.0,4.496951697845298e-12,-4.528483549781822e-12,0.0009999895099513725,0.0,0.0,0.0,1.7614160281368874,-2.6517271144061133e-11,-3.157893317878304e-11,-1.173784240153015e-12,581.7230443248283,581.7230443076185,581.7230443132848,581.7230443117854
0.060000000000000026,5.929132656701351e-14,-2.00000000000006,0.010062997810812907,1.4380664025526837e-10,1.4380662430233936e-10,6.337971167367024e-12,-1.7036918152829097e-23,-2.0,0.008168702160263464,0.0,4.093173308778951e-12,-4.128119087981837e-12,0.0009999925336307697,0.0,0.0,0.0,1.913889922161595,-3.491719251347513e-11,-2.948935182554413e-11,-1.0660427047926505e-12,585.5431169950493,585.5431169760946,585.5431169814453,585.5431169830429
0.06400000000000003,7.128450639804796e-14,-2.000000000000072,0.010066997799300327,1.7129297836308481e-10,1.7129296228164125e-10,6.94376869423219e-12,-1.7036918152829097e-23,-2.0,0.00922098770562178,0.0,3.4418203882389734e-12,-3.4614091070267605e-12,0.000999995229684393,0.0,0.0,0.0,2.0667509161148505,-2.4300170347824333e-11,-2.8059773084780102e-11,-9.693607068757498e-13,589.3480330079781,589.3480329926681,589.3480329978662,589.3480329967668
0.06800000000000003,-6.203196735220201e-12,-1.9999999999937979,0.010071023259588276,6.123361976092875e-07,6.123361998808063e-07,2.490463911081166e-08,-1.7036918152829097e-23,-2.0,0.010332313868878392,0.0,-6.277315847832696e-10,6.276666133545723e-10,0.001002543935672132,0.0,0.0,0.0,2.2199374660084406,-6.41616693202788e-07,-6.416121228703823e-07,-2.9084732282495102e-08,593.1367980571117,593.1364252371512,593.1365220152303,593.1365220165582
0.07200000000000004,-8.734782727616714e-11,-1.999999999912655,0.010077052511198786,8.651295902828675e-06,8.651472765268959e-06,3.520724797269966e-07,-1.7036918152829097e-23,-2.0,0.011501932154876646,0.0,-8.80135441934502e-09,8.801134269017883e-09,0.0012054707330749741,0.0,0.0,0.0,2.369475641903389,-8.55190787247105e-06,-8.552098076131167e-06,-3.832081780566406e-07,596.8147303998876,596.8097917312641,596.8110874264771,596.8110873715569
0.07599999999999998,-2.3052814731066288e-10,-1.9999999997694828,0.010089961822716017,2.4482241132521736e-05,2.4483264721489862e-05,9.956859177105945e-07,-1.7036918152829097e-23,-2.0,0.012729100951885328,0.0,-2.3547078584804538e-08,2.3546038957647228e-08,0.0020964025772880206,0.0,0.0,0.0,2.509411277206915,-1.8292813801407248e-05,-1.8293738463239908e-05,-7.663258189209949e-07,600.2368240699144,600.226320125019,600.2292385553161,600.2292382898461
0.07999999999999999,-4.289140407263192e-10,-1.999999999668478,0.010114371526754332,4.196264765792353e-05,5.144540854881791e-05,3.9811167270662025e-06,-1.7036918152829097e-23,-2.0,0.014013085475695655,0.0,-4.1457470922610345e-08,3.155915902821146e-08,0.004088433735423486,0.0,0.0,0.0,2.6400987680508137,-2.2478941849539448e-05,-3.241645622420974e-05,-3.528437170782557e-06,603.4188887406937,603.4032113975468,603.4017805174094,603.3989424546926
0.08399999999999999,-7.702616670607312e-10,-1.9999999998513944,0.010154509473177977,4.2770238388752524e-05,0.00010523107587830328,8.678604386541149e-06,-1.7036918152829097e-23,-2.0,0.015353157714143133,0.0,-6.960605379378327e-08,4.389452977981776e-09,0.007215935015571784,0.0,0.0,0.0,2.7621778769767205,-7.084551872502736e-06,-6.454703994812325e-05,-5.651259629424912e-06,606.3755248758405,606.3551675834937,606.3564758043613,606.3401448321595
0.088,-1.0701871700993853e-09,-2.0000000003252962,0.010214243425007116,2.8070908362406e-05,0.00018216216300697468,1.4252693461972572e-05,-1.7036918152829097e-23,-2.0,0.016748596372051533,0.0,-9.927885845784356e-08,-5.579918975770028e-08,0.011378644436565362,0.0,0.0,0.0,2.876235214570661,1.0617601827670878e-05,-9.735043574140214e-05,-6.868768540631529e-06,609.1236892574428,609.0991514033823,609.106080686105,609.0755340812301
0.092,-1.0492259338982336e-09,-2.0000000010331607,0.010297160250298294,3.6305882778643187e-07,0.00027732798501769546,2.0467612563953086e-05,-1.7036918152829097e-23,-2.0,0.018198686816595637,0.0,-1.0086680577737921e-07,-1.2428508592205592e-07,0.01649330062885245,0.0,0.0,0.0,2.982708234096555,2.7208952138529452e-05,-0.00012731736107276763,-7.847244406355244e-06,611.6776321197971,611.6494283113316,611.6618473416055,611.6183105629407
0.096,-3.62198054391363e-10,-2.000000001874727,0.010406489285352254,-3.805157126437701e-05,0.0003862075566225708,2.7123168124168095e-05,-1.7036918152829097e-23,-2.0,0.019702721023079815,0.0,-5.314692315278388e-08,-1.8322515329367127e-07,0.022479472740701893,0.0,0.0,0.0,3.0821989640788705,4.2568468930424415e-05,-0.0001543211552547704,-8.618610953970852e-06,614.0541597543651,614.0227971464059,614.0404503812699,613.985192379656
0.1,1.3900892002846836e-09,-2.0000000027114977,0.010545193913369798,-8.49861776547926e-05,0.0005045438196526815,3.40442356395926e-05,-1.7036918152829097e-23,-2.0,0.02125999752112935,0.0,5.2468290322941724e-08,-2.261864862126092e-07,0.029259719574656805,0.0,0.0,0.0,3.175135055922104,5.665966707456728e-05,-0.00017829441990805368,-9.203962986001597e-06,616.2654987733459,616.231485252297,616.2540427498218,616.1883380917011
0.10400000000000001,4.647556949503482e-09,-2.0000000033728083,0.010716001827111594,-0.00013836601924701412,0.0006283416910013484,4.107987861898887e-05,-1.7036918152829097e-23,-2.0,0.022869821341291532,0.0,2.2250135579217952e-07,-2.478966711238267e-07,0.03676683411208669,0.0,0.0,0.0,3.2618913065497694,6.943309614886312e-05,-0.00019915538245797722,-9.624383285654571e-06,618.322311579974,618.2861570967527,618.3132107931185,618.238349912852
0.10800000000000001,9.87740222498104e-09,-2.0000000036621604,0.010921426891783994,-0.00019623120291932964,0.0007538753535218898,4.8101160415940526e-05,-1.7036918152829097e-23,-2.0,0.02453150396204348,0.0,4.617620046000104e-07,-2.4409577422725655e-07,0.04494318013737142,0.0,0.0,0.0,3.342805741248401,8.084124673179206e-05,-0.0002168336873294421,-9.899381211351319e-06,620.2341302406472,620.1963450062515,620.2274167286349,620.1447044376894
0.11200000000000002,1.7561142125355834e-08,-2.0000000033635006,0.011163799635957075,-0.00025673024546725047,0.0008776807588863458,5.499815882478189e-05,-1.7036918152829097e-23,-2.0,0.026244363257203772,0.0,7.736479518150761e-07,-2.113693685087624e-07,0.05373754639214338,0.0,0.0,0.0,3.418161405990945,9.08314156996691e-05,-0.000231261198425096,-1.0045873080424417e-05,622.008968396816,621.9700615580907,622.0046113134856,621.9153695584496
0.11600000000000002,2.8182533635976373e-08,-2.0000000022472437,0.011445312277452735,-0.00031810028879630315,0.0009965278398494548,6.167954556515191e-05,-1.7036918152829097e-23,-2.0,0.02800772344374488,0.0,1.1604700855438093e-06,-1.4695907443674868e-07,0.06310733398616819,0.0,0.0,0.0,3.4881558963692765,9.933205289237825e-05,-0.00024235258860228975,-1.0081057101776695e-05,623.6526517385698,623.6131315350559,623.6505518955729,623.5561312840409
0.12000000000000002,4.22138443900893e-08,-2.000000000077198,0.011767985684299985,-0.00037871162282821175,0.0011074936044968024,6.807066255217892e-05,-1.7036918152829097e-23,-2.0,0.02982091503000352,0.0,1.623601646640975e-06,-4.867929658878764e-08,0.07301319350975663,0.0,0.0,0.0,3.5530583560215074,0.0001063131861545922,-0.0002500925091830829,-1.002064141417851e-05,625.1725348379837,625.1329015507085,625.1725410610536,625.0742919448065
0.12400000000000003,6.010373126619208e-08,-1.9999999966169026,0.012133671842194499,-0.00043707832525124145,0.0012079762103326644,7.411104805036358e-05,-1.7036918152829097e-23,-2.0,0.03168327476428598,0.0,2.163571730597291e-06,8.513297337729069e-08,0.08341385875235115,0.0,0.0,0.0,3.613138468694629,0.00011176647610845152,-0.0002545082367497737,-9.878123632699851e-06,626.5758367993853,626.5365776580148,626.5777585721338,626.4770151587602
0.12800000000000003,8.226598986458635e-08,-1.999999991635679,0.012544053426699248,-0.0004918688456967752,0.0012957066288866643,7.975347674812848e-05,-1.7036918152829097e-23,-2.0,0.03359414558386553,0.0,2.7801895842087966e-06,2.5568788906268023e-07,0.09426694208499684,0.0,0.0,0.0,3.6686722554190307,0.00011570289462025687,-0.00025566058454919887,-9.666458754454955e-06,627.8697932342769,627.8313791711122,627.8734076407715,627.7714752663011
0.13200000000000003,1.0907143246968496e-07,-1.9999999849132206,0.013000715745616856,-0.0005418697240357914,0.001368708273521628,8.49620624256207e-05,-1.7036918152829097e-23,-2.0,0.03555287656436911,0.0,3.4727103170343716e-06,4.638678127171786e-07,0.10553706509505338,0.0,0.0,0.0,3.7197952115623574,0.00011811257465137753,-0.00025361100349287027,-9.396925625738346e-06,629.0582546304221,629.0211347992635,629.0633055074269,628.9614673117777
0.13600000000000004,1.408382760577094e-07,-1.999999976245061,0.013505122538000956,-0.0005860085409168444,0.001425320672029406,8.971076164502497e-05,-1.7036918152829097e-23,-2.0,0.03755882286955033,0.0,4.239890331547362e-06,7.102737791451546e-07,0.11719487525422123,0.0,0.0,0.0,3.766695137529374,0.00011900553728831352,-0.00024844244516516783,-9.079518280783439e-06,630.1462002079433,630.1108022025913,630.1524072662362,630.0519145273843
0.14000000000000004,1.7782435847763454e-07,-1.9999999654472669,0.014058615896819475,-0.0006233572518362767,0.001464195625849647,9.39810032571035e-05,-1.7036918152829097e-23,-2.0,0.039611345701446074,0.0,5.079982521960655e-06,9.952192702445888e-07,0.12921106818560946,0.0,0.0,0.0,3.8095639505930605,0.00011840884082699284,-0.0002402663354406003,-8.72186400074549e-06,631.1386187188753,631.1053459669325,631.1456889148631,631.0477500237872
0.144,2.2022047352666374e-07,-1.9999999523606993,0.014662408497593695,-0.0006531331061755113,0.0014842806186483952,9.776190171345046e-05,-1.7036918152829097e-23,-2.0,0.04170981225091379,0.0,5.9907502499370155e-06,1.3187257892908178e-06,0.14155442891821224,0.0,0.0,0.0,3.8486133022027795,0.00011636065918626547,-0.00022920075154876356,-8.332144788927934e-06,632.040879466093,632.0101129288565,632.0485082098104,631.9542851974251
0.148,2.6814583339730335e-07,-1.99999993685414,0.015317625232977012,-0.0006746930541630695,0.0014848330347669262,0.0001010508668699921,-1.7036918152829097e-23,-2.0,0.043853595648546885,0.0,6.969443388594014e-06,1.6805395368473371e-06,0.15419694109520202,0.0,0.0,0.0,3.883974555290803,0.0001129113420907663,-0.00021541802947386962,-7.919569831097625e-06,632.8564331539636,632.828520163825,632.8643044660255,632.7748958035437
0.152,3.216441960317054e-07,-1.999999918827184,0.016025319408869945,-0.0006875363043138702,0.0014654316983778299,0.00010384919641125311,-1.7036918152829097e-23,-2.0,0.046042074915965035,0.0,8.012694267510007e-06,2.080118530084628e-06,0.16711661311135698,0.0,0.0,0.0,3.9157490843767273,0.00010812299709961362,-0.00019912745890855675,-7.488540022765705e-06,633.5879805597839,633.5632283473508,633.5957839433967,633.5122123495826
0.156,3.8068086554689466e-07,-1.999999898212985,0.016786441148475613,-0.000691292348916126,0.0014259094408250635,0.00010616281898995676,-1.7036918152829097e-23,-2.0,0.048274634917477195,0.0,9.116547854450105e-06,2.5166298446509194e-06,0.18029204372849447,0.0,0.0,0.0,3.944104753541612,0.000102051958527886,-0.00018048697993319708,-7.044484101357207e-06,634.2397040921077,634.2183926089723,634.2471297094048,634.1703589444419
0.16,4.451413255113537e-07,-1.9999998749799837,0.017601862824910174,-0.0006857264984238341,0.001366381447180447,0.00010800213914513167,-1.7036918152829097e-23,-2.0,0.050550666312114176,0.0,1.0276440346299109e-05,2.9889278235478174e-06,0.19370110844953853,0.0,0.0,0.0,3.969161182916367,9.477868168739483e-05,-0.00015972010945976392,-6.592840220477322e-06,634.8146321837246,634.7970030602719,634.8213771574561,634.7522883655374
0.164,5.148308816770464e-07,-1.99999984913324,0.018472384688396567,-0.0006707383654961593,0.001287238668479622,0.00010938099250750674,-1.7036918152829097e-23,-2.0,0.05286956550602828,0.0,1.148709621165811e-05,3.495516976507817e-06,0.20732387294948573,0.0,0.0,0.0,3.9910291328971264,8.639358491720751e-05,-0.00013707133747787833,-6.138010569088181e-06,635.315549798832,635.3018036087645,635.3213236606128,635.2607077781647
0.168,5.894753509112e-07,-1.999999820715252,0.01939874136543006,-0.0006463659565389269,0.001189155377154839,0.00011031767806091463,-1.7036918152829097e-23,-2.0,0.0552307346052572,0.0,1.2742397655519103e-05,4.0345017291790525e-06,0.2211428194754123,0.0,0.0,0.0,4.009808554611174,7.70052375115075e-05,-0.00011282363193939384,-5.685745038278085e-06,635.7449626920303,635.7352536520896,635.7494881985799,635.6980313004882
0.17200000000000001,6.687228782657457e-07,-1.9999997898062194,0.02038160981335204,-0.0006127928178335651,0.0010731055492947548,0.00011083077248172447,-1.7036918152829097e-23,-2.0,0.05763358136884958,0.0,1.403523001790852e-05,4.603515429191571e-06,0.23514205738156604,0.0,0.0,0.0,4.025585428472231,6.674520332819911e-05,-8.731128267242128e-05,-5.237088562866225e-06,636.1050210936409,636.0994495649683,636.1080537691861,636.0663175479805
0.17600000000000002,7.521481628366813e-07,-1.9999997565233651,0.021421591046492723,-0.0005702932704729802,0.0009402133963213879,0.00011093939105666439,-1.7036918152829097e-23,-2.0,0.060077519162349574,0.0,1.5357651697401517e-05,5.199772114306314e-06,0.249305138528959,0.0,0.0,0.0,4.038484741119351,5.570128802906441e-05,-6.074343947264428e-05,-4.793403570793298e-06,636.3987328877673,636.3973675602917,636.4000480385599,636.3685161364998
0.18000000000000002,8.392567719466566e-07,-1.9999997210199745,0.022519217314547,-0.0005192241530841095,0.000791736050244681,0.00011066385869091877,-1.7036918152829097e-23,-2.0,0.06256196691163772,0.0,1.6701130139158037e-05,5.820146988106051e-06,0.263614457338935,0.0,0.0,0.0,4.048619411801305,4.3961280859425975e-05,-3.3323332523904156e-05,-4.356859785137321e-06,636.6288022155761,636.6316817375449,636.6281924562356,636.6072723400589
0.18400000000000002,9.294890726718411e-07,-1.9999996834844502,0.0236749669432603,-0.0004600620557866912,0.0006291550717754383,0.00011002907280251913,-1.7036918152829097e-23,-2.0,0.0650863490571256,0.0,1.8056402494158104e-05,6.4611114710109865e-06,0.27805403304752996,0.0,0.0,0.0,4.0560745123012625,3.1662314113324946e-05,-5.3689043867364325e-06,-3.933606411171157e-06,636.7972847923501,636.8044000898688,636.7945618510648,636.7845406019429
0.18800000000000003,1.0222244046842154e-06,-1.999999644139197,0.02488927666263167,-0.00039346385612689847,0.00045431537960151017,0.00010906104424282848,-1.7036918152829097e-23,-2.0,0.06765009550830156,0.0,1.941282761077567e-05,7.118453694239153e-06,0.29261091286252594,0.0,0.0,0.0,4.060911892453496,1.9022899296300014e-05,2.2618390188394526e-05,-3.5259414025691422e-06,636.9056910410036,636.9169576956825,636.900718719782,636.9016915474347
0.19200000000000003,1.1167897155114047e-06,-1.9999996032375944,0.026162529416314233,-0.000320185781632395,0.00026922852906553475,0.00010778475901663218,-1.7036918152829097e-23,-2.0,0.07025264159862511,0.0,2.075828427586534e-05,7.78721940135954e-06,0.3072731184570357,0.0,0.0,0.0,4.063219547898129,6.202408079953448e-06,5.0286331046950336e-05,-3.133712401001315e-06,636.956097583287,636.9713801730802,636.9487826947606,636.960709426237
0.19600000000000004,1.2124678944958836e-06,-1.9999995610609278,0.02749505444983162,-0.00024106126227985041,7.601894258973375e-05,0.00010622512257643489,-1.7036918152829097e-23,-2.0,0.07289342804076723,0.0,2.2079584055638905e-05,8.461867097474425e-06,0.32202778685097905,0.0,0.0,0.0,4.063087088141156,-6.655870458631339e-06,7.733001472357763e-05,-2.7578297940516016e-06,636.95059850341,636.9697189518973,636.9408834279408,636.9636055671458
0.20000000000000004,1.308506382401693e-06,-1.9999995179150656,0.028887129754858586,-0.00015699075073212043,-0.0001231004730587941,0.00010440678237690313,-1.7036918152829097e-23,-2.0,0.07557190088219418,0.0,2.3362871100129835e-05,9.136423372480698e-06,0.33686163879657466,0.0,0.0,0.0,4.060600951578063,-1.940969459571343e-05,0.00010345452993728045,-2.398995115825983e-06,636.8911985464061,636.9139384078929,636.8790615425211,636.9123050564134
0.20400000000000004,1.4041264363989659e-06,-1.999999474126717,0.030338984678004558,-6.892006281733458e-05,-0.00032587584136575457,0.00010235268947386526,-1.7036918152829097e-23,-2.0,0.07828751146109224,0.0,2.4593673760910433e-05,9.804496411620853e-06,0.3517620313724853,0.0,0.0,0.0,4.055843993214976,-3.192970967443526e-05,0.00012839878249358788,-2.0562207471039084e-06,636.7798016307286,636.805907593088,636.7652582210327,636.8086458918808
0.20800000000000005,1.498532766849715e-06,-1.9999994300394006,0.031850802569925,2.2187837106222688e-05,-0.000530072771593969,0.00010008679690418848,-1.7036918152829097e-23,-2.0,0.08103971636263092,0.0,2.5757209115996496e-05,1.0459406745656175e-05,0.36671696708965706,0.0,0.0,0.0,4.048895319156011,-4.410966574058917e-05,0.00015195643731990722,-1.7316031457461729e-06,636.6182139856992,636.6474062590111,636.6013019013753,636.6543740507415
0.212,1.5909215230081914e-06,-1.9999993860101064,0.03342272139278702,0.00011530283548266556,-0.0007333748968117071,9.763144778190144e-05,-1.7036918152829097e-23,-2.0,0.08382797737556205,0.0,2.683826829400901e-05,1.1094114764430158e-05,0.38171491995783785,0.0,0.0,0.0,4.039834345200007,-5.578816559431134e-05,0.00017381409531457288,-1.4242304696681037e-06,636.4082413344992,636.4401994024298,636.3890441533132,636.4512143208136
0.216,1.6804906412216686e-06,-1.9999993424046962,0.03505483594316908,0.00020937789720743382,-0.0009334899450956729,9.50108138650659e-05,-1.7036918152829097e-23,-2.0,0.08665176144915253,0.0,2.7821292975604772e-05,1.1701242819186902e-05,0.39674472705782204,0.0,0.0,0.0,4.028737498421054,-6.683994422658185e-05,0.00019374110715811353,-1.1371431178624414e-06,636.1516111306712,636.1859861555868,636.1302372481935,636.2008238838305
0.22,1.766448360420742e-06,-1.9999992995941187,0.03674719473148275,0.00030330778544184503,-0.001128071904414685,9.224587452693335e-05,-1.7036918152829097e-23,-2.0,0.08951054065044775,0.0,2.8690232515634305e-05,1.2272976611795208e-05,0.41179525657998506,0.0,0.0,0.0,4.0156889904738335,-7.709553618880744e-05,0.000211428845067317,-8.675929111737368e-07,635.8502183622735,635.8866237985284,635.8268297271761,635.9050225244175
0.224,1.84802446105618e-06,-1.9999992579489903,0.038499812785630055,0.0003960324991702381,-0.001314918395994929,8.935626729678475e-05,-1.7036918152829097e-23,-2.0,0.092403792121864,0.0,2.9429065258922685e-05,1.2801315315350807e-05,0.42685622678576934,0.0,0.0,0.0,4.000748598086369,-8.647946951818492e-05,0.0002267549950415949,-6.148637698164716e-07,635.5053800646587,635.5434164694768,635.4801610098851,635.5650963257759
0.228,1.924479134678663e-06,-1.9999992178353274,0.04031267378230236,0.00048653769138324785,-0.001491969667329119,8.636093830928524e-05,-1.7036918152829097e-23,-2.0,0.09533099803910688,0.0,3.0022372998819838e-05,1.3278365649091038e-05,0.44191906899492245,0.0,0.0,0.0,3.9839729140895646,-9.492808607357823e-05,0.0002396223963842233,-3.7894571223364567e-07,635.1183329385059,635.1575913901866,635.0914850772392,635.1822554503203
0.232,1.9951109877096873e-06,-1.9999991796106864,0.04218572492891988,0.0005738281043973632,-0.0016572631636462454,8.327825439016037e-05,-1.7036918152829097e-23,-2.0,0.09829164556941344,0.0,3.0455536487514748e-05,1.3696426331918994e-05,0.45697535607105993,0.0,0.0,0.0,3.9654299916296,-0.00010235030479217425,0.00024989149024193474,-1.5993262246403335e-07,634.6905743241468,634.7306321431254,634.662323841949,634.7579584831598
0.23600000000000002,2.0592651244459506e-06,-1.999999143620109,0.04411887518847547,0.0006569305360037457,-0.001808943483878035,8.012647640376243e-05,-1.7036918152829097e-23,-2.0,0.10128522683011582,0.0,3.071461387439162e-05,1.404789850517672e-05,0.47201599984564735,0.0,0.0,0.0,3.945192722331717,-0.00010865357259665402,0.0002574315209166081,4.15511766886294e-08,634.2237084875482,634.2641318129124,634.1943051829084,634.2937713622523
0.24000000000000002,2.116340800156987e-06,-1.999999110192162,0.04611199250933904,0.0007348956419663327,-0.0019452710000100464,7.692199020852802e-05,-1.7036918152829097e-23,-2.0,0.10431123884752388,0.0,3.078633665421303e-05,1.4325243739559502e-05,0.4870312412392649,0.0,0.0,0.0,3.9233409118377023,-0.00011374583927914112,0.0002621254560765925,2.2695096245103223e-07,633.7194917304556,633.7598389061613,633.689215026979,633.7914213131324
0.24400000000000002,2.165798671265808e-06,-1.9999990796348177,0.04816491948846541,0.0008068468428409833,-0.0020646967451735214,7.368075900080574e-05,-1.7036918152829097e-23,-2.0,0.10736918351612454,0.0,3.0658492059669774e-05,1.4521192981349402e-05,0.5020124173562912,0.0,0.0,0.0,3.8999239567362913,-0.00011758777472388904,0.0002639479471570852,3.96091294628154e-07,633.1789739134317,633.2188059536946,633.1481139981547,633.2519490687458
0.24800000000000003,2.2071673297231825e-06,-1.9999990522319733,0.05027745626253177,0.0008719562054115485,-0.002165839193972794,7.0417792870446e-05,-1.7036918152829097e-23,-2.0,0.11045856755809541,0.0,3.0320209600557357e-05,1.4628874619027728e-05,0.5169509601987424,0.0,0.0,0.0,3.8750268561568983,-0.00012011996534735493,0.00026285986980665373,5.494326173991895e-07,632.6040232705482,632.6429053864285,632.5728885827438,632.6772114002662
0.252,2.2400486111092223e-06,-1.9999990282400597,0.05244937629385307,0.0009294760926113326,-0.0022475224763186035,6.714629050147339e-05,-1.7036918152829097e-23,-2.0,0.11357890248313054,0.0,2.976222309061488e-05,1.4641947532122879e-05,0.531838474415712,0.0,0.0,0.0,3.8487039962143563,-0.00012132052054264708,0.00025888501353111507,6.884760939987089e-07,631.9957957461287,632.033304191137,631.9647058904105,632.0683727100175
0.256,2.2641220348474215e-06,-1.999999007885083,0.05468043390891453,0.0009787520994385794,-0.0023087889627952485,6.387906580426933e-05,-1.7036918152829097e-23,-2.0,0.11672970454857585,0.0,2.8977073202670742e-05,1.4554743097695253e-05,0.5466683525880986,0.0,0.0,0.0,3.8209953844507814,-0.00012118941130948482,0.00025207965210890165,8.131298163890927e-07,631.3551141990047,631.3908391022738,631.3243894926028,631.4262683754057
0.26,2.2791493187222242e-06,-1.999998991359848,0.05697034574858275,0.00101921524535641,-0.0023489088432181488,6.0627543248581835e-05,-1.7036918152829097e-23,-2.0,0.11991049471987207,0.0,2.7959386932664987e-05,1.4362406982490676e-05,0.5614338182606334,0.0,0.0,0.0,3.7919793556435133,-0.00011972262295909497,0.0002425197000889859,9.244903919094332e-07,630.6836833977569,630.7172351083495,630.6536495465679,630.7526241986752
0.264,2.284976002336888e-06,-1.9999989788220542,0.05931881573524713,0.0010503947888625543,-0.002367366470949469,5.7402138282421447e-05,-1.7036918152829097e-23,-2.0,0.12312079863130282,0.0,2.6705966117585742e-05,1.4060965588646598e-05,0.5761285540903798,0.0,0.0,0.0,3.7616848443482462,-0.00011694386627141004,0.00023030880177263914,1.0232662957978723e-06,629.982064655912,630.0130737912222,629.9530441028071,630.048028978024
0.268,2.281534319028664e-06,-1.9999989703921575,0.061725517466210446,0.001071922266082171,-0.0023638901751959727,5.421285188148377e-05,-1.7036918152829097e-23,-2.0,0.12636014654704567,0.0,2.5215927765641982e-05,1.3647410272842861e-05,0.5907466818387079,0.0,0.0,0.0,3.7301769925435204,-0.00011288309680370741,0.00021558242552053298,1.1095121820951663e-06,629.2516562133793,629.2797806166715,629.2239646404985,629.3139150777686
0.272,2.2688448908527176e-06,-1.99999896615167,0.06419008299380934,0.0010835428250256262,-0.0023384857701187873,5.10686804474241e-05,-1.7036918152829097e-23,-2.0,0.12962807332252388,0.0,2.349103263111456e-05,1.3119834901177528e-05,0.6052802864301431,0.0,0.0,0.0,3.697544748437271,-0.00010759297460148026,0.00019854155725929228,1.1839883583372207e-06,628.4944056937509,628.5193422047034,628.4683479172403,628.5522841928321
0.276,2.2470153953113785e-06,-1.9999989661426074,0.06671212101434006,0.001085112740698027,-0.0022914023222334588,4.79775929644106e-05,-1.7036918152829097e-23,-2.0,0.13292411836605678,0.0,2.1535888857460606e-05,1.247752585453913e-05,0.6197210974843402,0.0,0.0,0.0,3.663841538046021,-0.0001011421572586323,0.00017939858929740985,1.2475224397933053e-06,627.7114395588675,627.7329229261153,627.6873053093861,627.7643203848402
0.28,2.2162398709339305e-06,-1.9999989703667926,0.06929120963132734,0.0010766109224041327,-0.002223158088759354,4.4947004830781623e-05,-1.7036918152829097e-23,-2.0,0.1362478256008061,0.0,1.935802574515614e-05,1.172105506424692e-05,0.6340618404123165,0.0,0.0,0.0,3.629136286636906,-9.361745899567363e-05,0.00015840520016119334,1.300430164158507e-06,626.9042459957031,626.9220548197555,626.8823034316204,626.951578883652
0.28400000000000003,2.176796623096356e-06,-1.9999989787857795,0.07192689328616268,0.0010581446146775834,-0.002134549413852501,4.19832238196598e-05,-1.7036918152829097e-23,-2.0,0.13959874342701678,0.0,1.696808578378039e-05,1.0852405634020683e-05,0.6482950031171604,0.0,0.0,0.0,3.5935051912040192,-8.512670269378967e-05,0.00013585764120487638,1.3436966890637135e-06,626.0744835497092,626.0884469707768,626.0549753672979,626.1157997518349
0.28800000000000003,2.1290427126710684e-06,-1.9999989913222678,0.07461871017074104,0.0010299163221359137,-0.002026549145788474,3.9091494992975864e-05,-1.7036918152829097e-23,-2.0,0.14297642468454957,0.0,1.4379674788764671e-05,9.874958643252783e-06,0.6624147659349608,0.0,0.0,0.0,3.5569699541402917,-7.57645693449918e-05,0.00011199322110949066,1.378299747747818e-06,625.2225488412604,625.2325342042313,625.205695736186,625.257445318783
0.29200000000000004,2.0734093960143887e-06,-1.9999990078612404,0.07736619651361659,0.0009922136071334351,-0.001900277808059703,3.627648002376707e-05,-1.7036918152829097e-23,-2.0,0.14638042661570333,0.0,1.1608711899028061e-05,8.793297497388051e-06,0.6764189893413867,0.0,0.0,0.0,3.519543844373756,-6.561775672234777e-05,8.702044719891347e-05,1.4047004213769057e-06,624.3486443815785,624.3545516802305,624.3346456576033,624.3767746375377
0.29600000000000004,2.0103982348615244e-06,-1.999999028250903,0.08016887454030078,0.0009454199572625113,-0.0017570338933364377,3.354204404630029e-05,-1.7036918152829097e-23,-2.0,0.14981031082832508,0.0,8.673200506310617e-06,7.613147229592279e-06,0.6903060928653553,0.0,0.0,0.0,3.481264693751427,-5.478966513929203e-05,6.11887535663392e-05,1.4236324142577647e-06,623.4535438252904,623.4553125619703,623.4425735072105,623.4746302465912
0.30000000000000004,1.9405757092061775e-06,-1.9999990523043238,0.08302625104137257,0.0008900142234726766,-0.0015982875205046584,3.08916340980683e-05,-1.7036918152829097e-23,-2.0,0.15326564325920555,0.0,5.593263761164261e-06,6.3413990133665456e-06,0.7040726613864351,0.0,0.0,0.0,3.442173751594466,-4.339816652285209e-05,3.477266558002703e-05,1.4354197892104008e-06,622.5381024598094,622.5357148189253,622.5303039633785,622.551942429638
0.30400000000000005,1.8645685831455168e-06,-1.9999990798008151,0.0859377969453049,0.0008265979588704291,-0.001425747649268571,2.8327826654866485e-05,-1.7036918152829097e-23,-2.0,0.15674599413775814,0.0,2.3917221221011564e-06,4.986362918092782e-06,0.7177131435268918,0.0,0.0,0.0,3.4023542810719465,-3.159764827565546e-05,8.132484298785275e-06,1.4409320873837981e-06,621.604159240699,621.5976540244396,621.5996366940361,621.6106509508687
0.30800000000000005,1.783050301130373e-06,-1.999999110491617,0.08890304346406927,0.0007557247743640771,-0.0012409563475045834,2.5852681644665574e-05,-1.7036918152829097e-23,-2.0,0.16025093794997913,0.0,-9.073355758853867e-07,3.557177301030473e-06,0.7312283684605927,0.0,0.0,0.0,3.3616956235973277,-1.940272283725369e-05,-1.8720485106250563e-05,1.4406608739361964e-06,620.649023300842,620.6384381549115,620.6478789790231,620.6480684052798
0.31200000000000006,1.6967406232587345e-06,-1.9999991440993745,0.09192149350429195,0.0006780474451569979,-0.0010456341189773871,2.3467905695703362e-05,-1.7036918152829097e-23,-2.0,0.16378005340268728,0.0,-4.279308607791234e-06,2.063501990689508e-06,0.744621041662822,0.0,0.0,0.0,3.3202650546395,-6.928772844943043e-06,-4.552589752916116e-05,1.4349280817461377e-06,619.6741634985674,619.6595761732165,619.6764693518904,619.6657357991767
0.31600000000000006,1.606397265103657e-06,-1.9999991803215562,0.09499264600882554,0.0005942674569548647,-0.0008415669538600892,2.1174702430919038e-05,-1.7036918152829097e-23,-2.0,0.16733292338804043,0.0,-7.698815812776034e-06,5.156389172023841e-07,0.7578908629387789,0.0,0.0,0.0,3.278081413222175,5.715517136602172e-06,-7.204930365392373e-05,1.4242449119446004e-06,618.6799135810543,618.6614368540436,618.6857134634403,618.6640528638048
0.32000000000000006,1.5128099864961955e-06,-1.9999992188326379,0.09811597055009147,0.0005051759124160524,-0.0006306903151273355,1.89738529144261e-05,-1.7036918152829097e-23,-2.0,0.17090913494832735,0.0,-1.1138764928913333e-05,-1.0750646528175183e-06,0.7710319825121094,0.0,0.0,0.0,3.2352152902582985,1.8381901217991847e-05,-9.79748062730772e-05,1.4090491624486676e-06,617.6678270082622,617.6456206691641,617.6771252267134,617.6446620434986
0.32400000000000007,1.4167954443998586e-06,-1.9999992592859128,0.10129085724167679,0.0004117375177903935,-0.0004152657610361943,1.686564512646026e-05,-1.7036918152829097e-23,-2.0,0.1745082792410327,0.0,-1.4569610997208139e-05,-2.695831601693777e-06,0.7840344836881933,0.0,0.0,0.0,3.1918399300486135,3.082034467680738e-05,-0.00012277334054341707,1.3898783126850075e-06,616.6418842916742,616.6161867430084,616.6546171156667,616.6116935024303
0.32800000000000007,1.3191854694169665e-06,-1.999999301318781,0.1045166637847103,0.00031499745414307175,-0.00019767301074920216,1.48500585907245e-05,-1.7036918152829097e-23,-2.0,0.17812995150417293,0.0,-1.7958520576329683e-05,-4.332028547229901e-06,0.7968840438260536,0.0,0.0,0.0,3.1480356901663695,4.283538764292641e-05,-0.00014605444120101188,1.367074395652093e-06,615.6038970726374,615.5750023527182,615.6199469406477,615.5670702427374
0.3320000000000001,1.2208157902630608e-06,-1.999999344557987,0.10779275644809223,0.00021599825371285854,1.9765102515028785e-05,1.2926675628776442e-05,-1.7036918152829097e-23,-2.0,0.18177375102190133,0.0,-2.127110761008571e-05,-5.967945408339983e-06,0.8095747522913991,0.0,0.0,0.0,3.1038008526224674,5.431892476659935e-05,-0.00016761818450333234,1.3410957809046296e-06,614.5537498895877,614.5219790852451,614.5729698956449,614.5107358198911
0.3360000000000001,1.1225185516286267e-06,-1.999999388622813,0.11111847074084945,0.0001158369469777764,0.000234671032909162,1.1094762795058535e-05,-1.7036918152829097e-23,-2.0,0.1854392810903802,0.0,-2.4472795446729083e-05,-7.587394191520797e-06,0.822103664965546,0.0,0.0,0.0,3.0592133030536615,6.511530439234049e-05,-0.0001871716399591288,1.3123220485624888e-06,613.4932168210157,613.4589311635286,613.5154168423533,613.4445498234295
0.3400000000000001,1.0251122471164274e-06,-1.9999994331299111,0.11449313530453435,1.5612525114072958e-05,0.0004447188398544811,9.353333540761935e-06,-1.7036918152829097e-23,-2.0,0.18912614898391802,0.0,-2.752923537031956e-05,-9.17388601226327e-06,0.8344669647481601,0.0,0.0,0.0,3.014303477901655,7.510414874394586e-05,-0.00020450436128937596,1.2810725950615248e-06,612.4229574685183,612.3865453269366,612.447913604512,612.3692345907521
0.3440000000000001,9.293928192565601e-07,-1.9999994776975871,0.11791607389152842,-8.358868207733938e-05,0.0006476642471419965,7.701160254961099e-06,-1.7036918152829097e-23,-2.0,0.19283396592137,0.0,-3.040668197882765e-05,-1.071080267716835e-05,0.8466621135952643,0.0,0.0,0.0,2.9690980772740576,8.418375009656566e-05,-0.0002194480517555478,1.2476632129964145e-06,611.3435495144934,611.3054200076028,611.3710090733039,611.2854191570253
0.3480000000000001,8.36125198565393e-07,-1.9999995219500064,0.12138661174251726,-0.00018071190219853077,0.0008413798988792134,6.136916113723705e-06,-1.7036918152829097e-23,-2.0,0.19656234703279937,0.0,-3.3072857084586284e-05,-1.2181821383967665e-05,0.858688533460775,0.0,0.0,0.0,2.9236110731822444,9.227194261263073e-05,-0.00023187707666027423,1.2122539772605067e-06,610.2552728192421,610.2158494568445,610.2849591486513,610.1934226279201
0.3520000000000001,7.460353819911503e-07,-1.9999995655212628,0.12490408565952048,-0.0002747569768905353,0.0010238967689050148,4.6589420655677e-06,-1.7036918152829097e-23,-2.0,0.20031091132639842,0.0,-3.549757574447262e-05,-1.3571247400468768e-05,0.8705472835296406,0.0,0.0,0.0,2.8778360055219956,9.931298658664661e-05,-0.00024171952865690793,1.1752813272149904e-06,609.1579218391873,609.1176349076457,609.1895424573518,609.093064627855
0.3560000000000001,6.598035423274832e-07,-1.99999960805873,0.12846780774407862,-0.0003647426567309259,0.0011933464229006382,3.2655149968458294e-06,-1.7036918152829097e-23,-2.0,0.20407928165566652,0.0,-3.765287190877834e-05,-1.4864052875522156e-05,0.8822374457567284,0.0,0.0,0.0,2.831839697720399,0.000105217350786932,-0.0002488504297892786,1.1368822008028956e-06,608.0530491720954,608.0123414011578,608.0862850575663,607.9859374967313
0.3600000000000001,5.780572115395142e-07,-1.999999649226953,0.13207710078289456,-0.00044975633585815633,0.001348042581320521,1.954634643974178e-06,-1.7036918152829097e-23,-2.0,0.2078670846868438,0.0,-3.951325690676055e-05,-1.6046018722236227e-05,0.8937575894692664,0.0,0.0,0.0,2.78561800261011,0.00010994494324832937,-0.00025324009975790024,1.0974452070745373e-06,606.9405147206278,606.8998282775871,606.9750349682053,606.8719147546625
0.3640000000000001,5.013650036794554e-07,-1.9999996887108376,0.13573125712413614,-0.000528925223734484,0.0014864446560104115,7.241439887323982e-07,-1.7036918152829097e-23,-2.0,0.21167395086659824,0.0,-4.105585497408086e-05,-1.7103772858891843e-05,0.9051050173870145,0.0,0.0,0.0,2.73924995079531,0.00011343079168069557,-0.00025482740363026176,1.0572298346444703e-06,605.8221839386556,605.7819624599804,605.8576380644789,605.7528844144573
0.3680000000000001,4.302316040340365e-07,-1.9999997262188363,0.13942957079490462,-0.000601451483610589,0.001607206656816839,-4.280508094862008e-07,-1.7036918152829097e-23,-2.0,0.21549951438996442,0.0,-4.226081506702755e-05,-1.8025011540705557e-05,0.9162768851615232,0.0,0.0,0.0,2.69275041708314,0.0001156501562813081,-0.0002536258507491215,1.0162452439193768e-06,604.6983897934226,604.6590685102608,604.7344183556396,604.6291800180345
0.3720000000000001,3.6509376044318964e-07,-1.9999997614856304,0.14317135672988882,-0.0006666285730131949,0.0017091934727542382,-1.5041688316831467e-06,-1.7036918152829097e-23,-2.0,0.21934341316853218,0.0,-4.31116012028079e-05,-1.8798717894398867e-05,0.92727411901555,0.0,0.0,0.0,2.6460952541809526,0.00011660483452993169,-0.0002496868566742264,9.747182492358976e-07,603.5685235053354,603.5305258968518,603.6047663076688,603.500183133923
0.3760000000000001,3.0631582839380294e-07,-1.999999794274702,0.14695591721147752,-0.0007238307755716472,0.001791479566457371,-2.506718036905904e-06,-1.7036918152829097e-23,-2.0,0.22320528879888304,0.0,-4.359537072236328e-05,-1.9415415075366713e-05,0.9380980728132888,0.0,0.0,0.0,2.599327814347931,0.00011628880618907739,-0.00024306434304779213,9.330721172778684e-07,602.4336110904474,602.3973459702858,602.4697054176877,602.3669101603713
0.38,2.5418617790134335e-07,-1.999999824380674,0.15078252361682243,-0.0007725177493915106,0.0018533683870432382,-3.438265484723e-06,-1.7036918152829097e-23,-2.0,0.22708478653127284,0.0,-4.370315221382299e-05,-1.9867183161244348e-05,0.9487451440030945,0.0,0.0,0.0,2.552528953083737,0.00011470657628224941,-0.0002338537756759657,8.914737355961515e-07,601.2956030043678,601.261455581951,601.3311857665036,601.2312893020743
0.384,2.089160809105955e-07,-1.9999998516308335,0.15465044456383556,-0.0008122478089202209,0.0018943942434451353,-4.30139500739342e-06,-1.7036918152829097e-23,-2.0,0.23098155523855893,0.0,-4.34300084506354e-05,-2.014772160079504e-05,0.959210900027174,0.0,0.0,0.0,2.5057234432426685,0.00011189069789934496,-0.0002221926767442077,8.500431522141964e-07,600.1551000960958,600.1234276907279,600.1898158063839,600.0938866257691
0.388,1.7063873576778316e-07,-1.9999998758864608,0.1585589481880337,-0.0008426822147165069,0.0019143245967011679,-5.098733494300154e-06,-1.7036918152829097e-23,-2.0,0.234895247385369,0.0,-4.2775177966821214e-05,-2.02525103543837e-05,0.969493778874444,0.0,0.0,0.0,2.4589315791777393,0.00010788566319641937,-0.0002082361217174233,8.08931988656531e-07,599.0125991899284,598.9837293979638,599.046103552632,598.9551589499468
0.392,1.3940910385314676e-07,-1.999999897043776,0.16250730219404955,-0.0008635876810156171,0.0019131600370788056,-5.832940122755333e-06,-1.7036918152829097e-23,-2.0,0.23882551899751148,0.0,-4.1742114004961566e-05,-2.0178929457552338e-05,0.97959366657356,0.0,0.0,0.0,2.4121736200326955,0.00010274849326766402,-0.0001921623083629628,7.68281237780574e-07,597.8686015658373,597.8428289782042,597.9005651360352,597.8155605466877
0.396,1.1520461441228051e-07,-1.9999999150344832,0.16649477395978135,-0.0008748377056601465,0.0018911316605921987,-6.506695438569317e-06,-1.7036918152829097e-23,-2.0,0.24277202963162434,0.0,-4.033848922052607e-05,-1.9926308681007528e-05,0.989510463461159,0.0,0.0,0.0,2.36546968079353,9.654814945573813e-05,-0.00017417099346889983,7.282206483136544e-07,596.7236102072915,596.701193373527,596.7537219173928,596.6755407656177
0.4,9.792671352594115e-08,-1.9999999298259128,0.17052063067961445,-0.0008764127257076755,0.001848695953645752,-7.122690598731453e-06,-1.7036918152829097e-23,-2.0,0.24673444234506112,0.0,-3.857614724503006e-05,-1.949595331469112e-05,0.9992440979908712,0.0,0.0,0.0,2.3188396492011596,8.936462915326485e-05,-0.0001544810045595385,6.888684673298723e-07,595.5781275594366,595.5592863779723,595.6060980205067,595.5355424420778
0.404,8.74037442848271e-08,-1.999999941420545,0.17458414842693934,-0.0008683908754784844,0.0017865046634807633,-7.683381035783915e-06,-1.7036918152829097e-23,-2.0,0.2507124236660122,0.0,-3.647092838114789e-05,-1.889111921968027e-05,1.0087954249369933,0.0,0.0,0.0,2.2722850788590647,8.128095104910714e-05,-0.00013330722812743447,6.500558065463105e-07,594.4322083727353,594.4171257901867,594.4577700588786,594.3955604750216
0.40800000000000003,8.339630398859592e-08,-1.999999949854398,0.17868465194385602,-0.0008509081291936489,0.001705292603846972,-8.191187678576017e-06,-1.7036918152829097e-23,-2.0,0.25470564356385994,0.0,-3.4041728977464664e-05,-1.8116702343487467e-05,1.018170191895616,0.0,0.0,0.0,2.225726538506409,7.235334500942457e-05,-0.00011077734931413796,6.11839327157282e-07,593.2839027165575,593.2727419525062,593.3068031249038,593.2536105434767
0.41200000000000003,8.559716010879924e-08,-1.9999999551976555,0.18282145472207337,-0.0008242071846152129,0.0016060128429901083,-8.64888831036082e-06,-1.7036918152829097e-23,-2.0,0.2587137754197652,0.0,-3.1310132056235504e-05,-1.7179118079643366e-05,1.0273730313864777,0.0,0.0,0.0,2.179204703581745,6.267387419990475e-05,-8.712297633661888e-05,5.747316106793762e-07,592.1342206716521,592.1271053399931,592.1542341346918,592.1106394425747
0.41600000000000004,9.363252697506976e-08,-1.9999999575547402,0.18699381218099106,-0.0007886878705684999,0.0014899613794240635,-9.059288200156308e-06,-1.7036918152829097e-23,-2.0,0.26273649599748444,0.0,-2.8301628912809443e-05,-1.6086775909681572e-05,1.036399312401945,0.0,0.0,0.0,2.132855684993317,5.240625055448504e-05,-6.275150355086941e-05,5.388753314920565e-07,590.9865572062763,590.983540629338,591.003504795578,590.9699259893488
0.42000000000000004,1.070707185508442e-07,-1.9999999570610716,0.1912009812193726,-0.0007448395650253871,0.0013585991236855551,-9.424904737906999e-06,-1.7036918152829097e-23,-2.0,0.26677348541441515,0.0,-2.5046432919294526e-05,-1.4850398665725996e-05,1.0452419224571805,0.0,0.0,0.0,2.0866966345622417,4.168431981817542e-05,-3.7972647199628655e-05,5.040460924736171e-07,589.8413753396767,589.8424597254593,589.8551155078576,589.8318433438847
0.42400000000000004,1.2542830855387324e-07,-1.999999953880859,0.1954422267171867,-0.0006932302191244668,0.0012135197970787892,-9.74854140574096e-06,-1.7036918152829097e-23,-2.0,0.2708244271128678,0.0,-2.1578254689361583e-05,-1.3482575119764433e-05,1.0538990630524863,0.0,0.0,0.0,2.0407315116537847,3.06256302708733e-05,-1.3048029736739371e-05,4.7067834019837855e-07,588.6988083106166,588.703953653492,588.709234477533,588.6964502868194
0.42800000000000005,1.4817425780341606e-07,-1.9999999482057726,0.19971678541472468,-0.0006345469494313073,0.0010565451211432138,-1.0032658116890182e-05,-1.7036918152829097e-23,-2.0,0.27488900783156295,0.0,-1.79337712087364e-05,-1.1997604164047806e-05,1.0623695925102683,0.0,0.0,0.0,1.9950373789482334,1.9392016225613843e-05,1.1658892395094143e-05,4.384829211171036e-07,587.5608192110635,587.5699260552158,587.5678707580955,587.5656027346089
0.43200000000000005,1.7473985174570002e-07,-1.9999999402507966,0.2040239198990703,-0.000569514133645716,0.000889531353725331,-1.0279708079971475e-05,-1.7036918152829097e-23,-2.0,0.2789669175773518,0.0,-1.4152033669410067e-05,-1.041125515164769e-05,1.070652629084431,0.0,0.0,0.0,1.9495826792410644,8.091733181519702e-06,3.592345941150397e-05,4.0755025611882236e-07,586.4266647886295,586.4395988194765,586.4303129201088,586.4384913604289
0.43600000000000005,2.045247153340512e-07,-1.9999999302518716,0.20836290280457023,-0.0004989063068631998,0.000714399277715227,-1.0491951473100352e-05,-1.7036918152829097e-23,-2.0,0.2830578495971584,0.0,-1.0273512128443465e-05,-8.740366118545314e-06,1.0787514704539285,0.0,0.0,0.0,1.904367145724461,-3.16667377064029e-06,5.9520519834155864e-05,3.777530039470856e-07,585.2963780343213,585.3129697521738,585.2966254141973,585.3150817611123
0.44000000000000006,2.3690464232339153e-07,-1.9999999184625574,0.212733033415664,-0.00042351393829673326,0.0005330589588959136,-1.0671596762845779e-05,-1.7036918152829097e-23,-2.0,0.2871615003501418,0.0,-6.338820649323152e-06,-7.002288729076502e-06,1.0866706769248258,0.0,0.0,0.0,1.8593565440580768,-1.429767160676732e-05,8.228151778740915e-05,3.49121137567993e-07,584.1691366793606,584.1891910691985,584.1660113757399,584.1945009832222
0.44400000000000006,2.7124292103802076e-07,-1.9999999051574386,0.21713361154851793,-0.00034472776914837706,0.00034692189022530177,-1.126009276520721e-05,-1.7036918152829097e-23,-2.0,0.2912775694800768,0.0,-2.386980726492008e-06,-5.216473448615932e-06,1.094413794085422,0.0,0.0,0.0,1.814568845925129,-2.4607871584268954e-05,0.00010456023546307706,8.348452530924657e-07,583.0444499072795,583.0680802830014,583.0397940447859,583.0779702418687
0.44800000000000006,3.069469124340271e-07,-1.9999998906789032,0.22156393802786542,-0.00026955700811840213,0.00015188663146313325,-1.3890435929233162e-05,-1.7036918152829097e-23,-2.0,0.29540575978795136,0.0,1.5798455042050421e-06,-3.4398772461498568e-06,1.1019820185263947,0.0,0.0,0.0,1.7700210858094332,-2.801059421721776e-05,0.00013206258392028762,3.2449972572810374e-06,581.918799874926,581.9496123289161,581.9206979777503,581.9680989074748
0.45200000000000007,3.4334202351301327e-07,-1.9999998753022425,0.22602328048123968,-0.00019918946577235613,-5.0132362918348924e-05,-1.7768585638779872e-05,-1.7036918152829097e-23,-2.0,0.29954577720477904,0.0,5.575839357811455e-06,-1.747544978293394e-06,1.109372084436528,0.0,0.0,0.0,1.7257997342859417,-2.9311636665537345e-05,0.00015949206973780511,4.811612707933716e-06,580.800212375977,580.8388361128573,580.8066585076477,580.8626739502173
0.45600000000000007,3.7971713589618267e-07,-1.9999998592682597,0.23051089122654808,-0.0001332227938810269,-0.00025562332169717195,-2.2301062397775354e-05,-1.7036918152829097e-23,-2.0,0.3036973307646254,0.0,9.587647189348162e-06,-1.8852346968878594e-07,1.1165790555911734,0.0,0.0,0.0,1.6819560638698379,-3.061214723957588e-05,0.00018440716911920932,5.736459958432079e-06,579.6903787078546,579.7360958259451,579.6993667806554,579.7632814423439
0.4600000000000001,4.1535517745971264e-07,-1.9999998428014727,0.23502605077844868,-7.13511689958719e-05,-0.0004613199740191476,-2.7289530548423627e-05,-1.7036918152829097e-23,-2.0,0.3078601325778461,0.0,1.3548853881758545e-05,1.2419643820342287e-06,1.1236020230232397,0.0,0.0,0.0,1.6384535846531265,-3.201133154107998e-05,0.00020654278310266463,6.456804998658909e-06,578.587790600712,578.6397704136823,578.5986547674313,578.6696996195493
0.4640000000000001,4.4954332757878025e-07,-1.9999998261113479,0.23956804518335276,-1.3347210515641965e-05,-0.000664115962956824,-3.2568241858753494e-05,-1.7036918152829097e-23,-2.0,0.31203389780453533,0.0,1.7392688191158756e-05,2.5519514640639603e-06,1.1304447756686804,0.0,0.0,0.0,1.5953009527495943,-3.3440216646138534e-05,0.00022576056953575052,7.002602628880929e-06,577.4926716748571,577.550057809998,577.504857598298,577.582197101512
0.4680000000000001,4.815836011588677e-07,-1.9999998093931715,0.24413616601967053,4.0951255452459e-05,-0.0008610821822749363,-3.799701328235599e-05,-1.7036918152829097e-23,-2.0,0.3162183446281833,0.0,2.1057232210704097e-05,3.7478349753978906e-06,1.1371093852528988,0.0,0.0,0.0,1.5525066929055975,-3.483665978967636e-05,0.00024193835568533473,7.396931135472386e-06,576.4052531401153,576.467166188258,576.4182950327776,576.501033551965
0.4720000000000001,5.108026950208464e-07,-1.9999997928287028,0.24872971038388417,9.165232400943413e-05,-0.0010494839439698087,-4.34581198961554e-05,-1.7036918152829097e-23,-2.0,0.32041319422954095,0.0,2.4485242423719452e-05,4.834656954561673e-06,1.143597233999016,0.0,0.0,0.0,1.5100792268262007,-3.614513792534424e-05,0.0002549837663207637,7.66027926696895e-06,575.3257656748441,575.3913100166525,575.3392767946776,575.4264691039463
0.4760000000000001,5.365610387284265e-07,-1.9999997765866384,0.25334798694485505,0.00013882131961840183,-0.0012268084804348705,-4.8854641080585045e-05,-1.7036918152829097e-23,-2.0,0.32461817076069,0.0,2.7624549487144515e-05,5.816349081778375e-06,1.1499103071888435,0.0,0.0,0.0,1.468014557612614,-3.731784875612229e-05,0.0002648487193234652,7.812117832896746e-06,574.254121285722,574.3223960447343,574.2677890130882,574.3584556396378
0.4800000000000001,5.582609449689338e-07,-1.9999997608229394,0.25799032540569666,0.00018249184947113497,-0.0013907974479103907,-5.410557732576752e-05,-1.7036918152829097e-23,-2.0,0.32883300131931786,0.0,3.0428654345905104e-05,6.695977679480976e-06,1.1560521414022884,0.0,0.0,0.0,1.4262891606039116,-3.831560891240507e-05,0.0002715390267608993,7.86706082553552e-06,573.1897337740543,573.2598465199567,573.2033021260183,573.296448041127
0.4840000000000001,5.753538139864928e-07,-1.999999745681039,0.2626560422073182,0.000222667682199278,-0.0015393904205059448,-5.914519479691662e-05,-1.7036918152829097e-23,-2.0,0.3330574159231947,0.0,3.285673862505873e-05,7.475916163777662e-06,1.162024394836387,0.0,0.0,0.0,1.384948489511764,-3.9097973728190644e-05,0.00027501399011999305,7.839604703075596e-06,572.1337822073459,572.2048352454595,572.1470522433747,572.2416521474113
0.4880000000000001,5.873464059168249e-07,-1.9999997312919724,0.2673444734112756,0.0002593360809475873,-0.001670789405907439,-6.392091868724916e-05,-1.7036918152829097e-23,-2.0,0.3372911474848518,0.0,3.4873745247658726e-05,8.158016964709699e-06,1.1678281841334202,0.0,0.0,0.0,1.3439717278927001,-3.9637102142880485e-05,0.0002753244904843806,7.742407295440689e-06,571.0857482536353,571.1568626891269,571.0985688683343,571.1935987479584
0.4920000000000001,5.938069820000733e-07,-1.9999997177743427,0.27205493712115547,0.0002924693892614278,-0.0017834327472898799,-6.839166395576925e-05,-1.7036918152829097e-23,-2.0,0.3415339317864595,0.0,3.6450387780894436e-05,8.743749832025985e-06,1.1734634848656673,0.0,0.0,0.0,1.3034137431271735,-3.9903878877582596e-05,0.0002725030967929557,7.586713151947557e-06,570.0470556391825,570.117366197317,570.0593197384504,570.153750716488
0.4960000000000001,5.943693711902436e-07,-1.999999705234399,0.27678676239253197,0.0003220347765556363,-0.0018760227643474256,-7.252585270355501e-05,-1.7036918152829097e-23,-2.0,0.34578550745490366,0.0,3.75634510239013e-05,9.23435985294731e-06,1.178930120581429,0.0,0.0,0.0,1.2632713444036106,-3.988061381264675e-05,0.00026664784347826473,7.381919742383726e-06,569.0176409061966,569.0863126605989,569.0292763825439,569.1220983036159
0.5000000000000001,5.887362693235557e-07,-1.9999996937660858,0.28153930018281276,0.0003480004001583138,-0.0019475289207158096,-7.630124506051592e-05,-1.7036918152829097e-23,-2.0,0.3500456159370581,0.0,3.819581408857223e-05,9.631003808660113e-06,1.184230650007295,0.0,0.0,0.0,1.2235188110253072,-3.9555979980260355e-05,0.0002578821361699712,7.137615174821429e-06,567.9968564887876,568.0630909945862,568.0078251773101,568.0980565561283
0.5040000000000001,5.766834056524076e-07,-1.9999996834508413,0.2863118847589125,0.00037033871070332643,-0.0019972057873472882,-7.970312500791479e-05,-1.7036918152829097e-23,-2.0,0.35431400147525294,0.0,3.83367138713884e-05,9.934885946139417e-06,1.189366533021952,0.0,0.0,0.0,1.1842080895291793,-3.891947000099272e-05,0.00024635395329793516,6.8616502080403676e-06,566.9860519399149,567.0490945549473,566.996343978265,567.083039694421
0.5080000000000001,5.580605236283135e-07,-1.9999996743577189,0.2911038561516295,0.0003890315484065706,-0.002024584016398298,-8.27230014966476e-05,-1.7036918152829097e-23,-2.0,0.3585904110829363,0.0,3.7981780102538524e-05,1.0147352468581555e-05,1.1943372245396824,0.0,0.0,0.0,1.1453461283535207,-3.7970206697679586e-05,0.0002322521886532056,6.56066622775525e-06,565.9854206290322,566.0445705777762,565.9950478499859,566.0773150907789
0.512,5.327918244469094e-07,-1.9999996665434903,0.29591456753886175,0.0004040730034980439,-0.002029455071865333,-8.535666694557631e-05,-1.7036918152829097e-23,-2.0,0.36287459452052845,0.0,3.713290446854466e-05,1.0269973214604052e-05,1.1991439472263405,0.0,0.0,0.0,1.1069247487972869,-3.671097879455382e-05,0.0002157706870954097,6.2392916632220646e-06,564.99476831617,565.0493795819041,565.0037567776319,565.0807581921574
0.516,5.008754239185887e-07,-1.9999996600528103,0.30074339376740095,0.00041547114294033583,-0.002011847436758313,-8.760595541491199e-05,-1.7036918152829097e-23,-2.0,0.36716630427146685,0.0,3.5797726061677316e-05,1.0304601331817689e-05,1.2037905699998614,0.0,0.0,0.0,1.0689180984689652,-3.5148017289640886e-05,0.00019710309391853705,5.904384367461723e-06,564.0134376053214,564.0629183069844,564.0218338674812,564.0927890876735
0.52,4.623846830561478e-07,-1.999999654918031,0.305589694382077,0.0004232558224769985,-0.001972099459719625,-8.947671202956019e-05,-1.7036918152829097e-23,-2.0,0.3714652955184402,0.0,3.398974128150972e-05,1.025345277380071e-05,1.2082786618299635,0.0,0.0,0.0,1.0313747072450412,-3.329350396557417e-05,0.00017652172676841591,5.56067837614545e-06,563.0426900736837,563.0865249875944,563.050552592391,563.1147643626507
0.524,4.1746519378201276e-07,-1.999999651159583,0.3104528351296102,0.00042747739079725594,-0.0019108027951922747,-9.097767581602198e-05,-1.7036918152829097e-23,-2.0,0.3757713261198112,0.0,3.172836906772249e-05,1.0119172196234737e-05,1.212607871745388,0.0,0.0,0.0,0.9942999901651057,-3.116586403826801e-05,0.00015430254015895344,5.211767817078218e-06,562.0826761029053,562.1204265784676,562.0900697043179,562.1469277387481
0.528,3.6633207262118016e-07,-1.9999996487862577,0.31533218972350174,0.0004282077680550192,-0.00182878646097369,-9.212021175534288e-05,-1.7036918152829097e-23,-2.0,0.3800841565862254,0.0,2.9038662717512997e-05,9.904865836558797e-06,1.2167790105458771,0.0,0.0,0.0,0.9576956220800523,-2.878518918078861e-05,0.00013071828677127095,4.861053256550059e-06,561.1334500925144,561.1647531482581,561.140444868943,561.189426067748
0.532,3.0926625611966557e-07,-1.9999996477956015,0.3202271449357027,0.0004255392352902839,-0.0017270823810181023,-9.291644764090776e-05,-1.7036918152829097e-23,-2.0,0.38440355005740556,0.0,2.595050308772325e-05,9.614089011414799e-06,1.2207945857088638,0.0,0.0,0.0,0.9215527292475967,-2.6173024994130113e-05,0.00010603097463429041,4.5098674397063805e-06,560.1947960981064,560.2193612440058,560.201460244828,560.2421265185387
0.536,2.4662315735951e-07,-1.9999996481609448,0.32513711248911964,0.00042089544954638163,-0.0016081724382643139,-9.395909827603678e-05,-1.7036918152829097e-23,-2.0,0.3887292722791295,0.0,2.2502702705357772e-05,9.255922136469214e-06,1.2246587947952405,0.0,0.0,0.0,0.8858379242002081,-2.4727684413251695e-05,8.183131741119284e-05,4.836901632204805e-06,559.2647556686558,559.2823506674365,559.2729450984597,559.3057775543831
0.54,1.788484274116524e-07,-1.9999996498133532,0.33006150026232733,0.00041909405177445843,-0.0014781248533275951,-9.5102060156176e-05,-1.7036918152829097e-23,-2.0,0.3930610915803907,0.0,1.877596615133325e-05,8.8783840346454e-06,1.2283746605784494,0.0,0.0,0.0,0.8505755027196993,-2.827775767336788e-05,6.221436593259274e-05,5.003455201376258e-06,558.3453398553946,558.3558138235882,558.3529923526905,558.380920418258
0.544,1.0637123066169177e-07,-1.9999996527442534,0.33499971187482724,0.0004195649818732292,-0.0013378295784334715,-9.614261642930632e-05,-1.7036918152829097e-23,-2.0,0.3973987788507399,0.0,1.4858073103174712e-05,8.533154840664487e-06,1.2319423191496743,0.0,0.0,0.0,0.815790762669262,-3.2023167252802755e-05,4.2702620148994994e-05,4.93740232811478e-06,557.4373332193086,557.4406346444313,557.4436237535456,557.4667236660077
0.548,2.9646468698658285e-08,-1.9999996569561884,0.3399511778104816,0.00042143724320830336,-0.0011879284090781982,-9.704223378265335e-05,-1.7036918152829097e-23,-2.0,0.4017421075178062,0.0,1.0806261885749922e-05,8.238485576493234e-06,1.2353636243649915,0.0,0.0,0.0,0.7814460096397258,-3.505132899324747e-05,2.2575137907428973e-05,4.82220399303687e-06,556.5394702884646,556.5356071761097,556.5444549964998,556.5622978765709
0.552,-5.084313777526681e-08,-1.9999996624557737,0.3449153525378713,0.00042394964922556,-0.0010292129001413432,-9.777208049530667e-05,-1.7036918152829097e-23,-2.0,0.40609085352499713,0.0,6.6415499859072615e-06,7.975083686186726e-06,1.2386438996227633,0.0,0.0,0.0,0.7475085741316829,-3.735924482199206e-05,1.991395683312858e-06,4.667601048336808e-06,555.650899301241,555.6399304613041,555.654667643081,555.6668713523917
