Time_s,X,Y,Z,Roll_deg,Pitch_deg,Yaw_deg,Ref_X,Ref_Y,Ref_Z,Ref_Yaw,vx,vy,vz,p,q,r,T_pert,tau_x,tau_y,tau_z,RPM_0,RPM_1,RPM_2,RPM_3
0.0,7.024498392357726,3.322062323878557,0.02499990002790885,-179.9999436735288,-5.7292701029035475e-06,87.87610550459416,7.018176343804604,3.3244724677870665,0.0018,0.0,0.0,0.0,0.0,0.0,0.0,0.0,-0.7399482482051466,1.0,-0.06124795100469845,-0.2,684.8769865276258,890.2800098447495,287.32069553496495,0.0
0.0040000000000048885,7.024498392357726,3.322062323878557,0.02499990002790885,-179.9999436735288,-5.7292701029035475e-06,87.87610550459416,7.016674452662128,3.3250450312145485,0.002227615200000605,0.0,0.0,0.0,0.0,0.0,0.0,0.0,0.1278110097101025,1.0,-1.0,-0.2,810.0646787307791,810.0646787307792,519.3279109914415,0.0
0.0040000000000048885,7.024498392357726,3.322062323878557,0.02499990002790885,-179.9999436735288,-5.7292701029035475e-06,87.87610550459416,7.003300557285104,3.330143538795617,0.006035401786320994,0.0,0.0,0.0,0.0,0.0,0.0,0.0,-0.6054174889205458,1.0,-0.21040335426184398,-0.2,706.1827536229067,877.9689651615001,334.94891688429925,0.0
0.008000000000002672,7.024498392357726,3.322062323878557,0.02499990002790885,-179.9999436735288,-5.7292701029035475e-06,87.87610550459416,7.000405756738543,3.331247118726239,0.006859603141313103,0.0,0.0,0.0,0.0,0.0,0.0,0.0,1.0672368126717586,-0.6339327077259629,-1.0,-0.2,982.4695221492686,634.1210551207334,124.92480920524292,0.0
0.008000000000002672,7.024498392357726,3.322062323878557,0.02499990002790885,-179.9999436735288,-5.7292701029035475e-06,87.87610550459416,6.980499828988636,3.3388358219933107,0.012527175866950985,0.0,0.0,0.0,0.0,0.0,0.0,0.0,-0.3988177211897751,1.0,-0.4481797129866792,-0.2,738.722523109406,857.8440906277497,399.00834772804086,0.0
0.012000000000000455,7.024498392357726,3.322062323878557,0.02499990002790885,-179.9999436735288,-5.7292701029035475e-06,87.87610550459416,6.976568001613538,3.3403347459129513,0.013718637259205127,0.0,0.0,0.0,0.0,0.0,0.0,0.0,2.0192228129457526,-1.0,-1.0,-0.2,1027.7011225840868,605.6956501881168,0.0,0.0
0.012000000000000455,7.024498392357726,3.322062323878557,0.02499990002790885,-179.9999436735288,-5.7292701029035475e-06,87.87610550459416,6.9581315503022365,3.3473632431554345,0.021106159029269416,0.0,0.0,0.0,0.0,0.0,0.0,0.0,-0.12549027844369298,1.0,-0.6975668966472065,-0.2,772.4507225673407,837.2060960494124,458.45044901531173,0.0
0.015999999999998238,7.024498392357726,3.322062323878557,0.02499990002790885,-179.9999436735288,-5.7292701029035475e-06,87.87610550459416,6.954238014787315,3.348847569133795,0.022637173509308186,0.0,0.0,0.0,0.0,0.0,0.0,0.0,2.981713128957528,-1.0,-1.0,-0.2,1041.3055574008868,628.5020979839168,92.25823853574815,92.25823853574784
0.015999999999998238,7.024498392357726,3.322062323878557,0.02499990002790885,-179.9999436735288,-5.7292701029035475e-06,87.87610550459416,6.929679583653863,3.358209938419871,0.03161256810933602,0.0,0.0,0.0,0.0,0.0,0.0,0.0,0.2095186240195959,1.0,-1.0,-0.2,811.538225908516,811.538225908516,521.6234154236904,0.0
0.020000000000003126,7.024498392357726,3.322062323878557,0.02499990002790885,-179.9999436735288,-5.7292701029035475e-06,87.87610550459416,6.924830251139,3.3600586412766784,0.033456968029851895,0.0,0.0,0.0,0.0,0.0,0.0,0.0,3.9527849452545287,-1.0,-1.0,-0.2,1054.8534936798967,650.7023255105958,192.12030562236646,192.12030562236632
0.020000000000003126,7.024498392357726,3.322062323878557,0.02499990002790885,-179.9999436735288,-5.7292701029035475e-06,87.87610550459416,6.902128089646271,3.3687133480180047,0.04389553638503906,0.0,0.0,0.0,0.0,0.0,0.0,0.0,0.6014433273469604,1.0,-1.0,-0.2,818.5694731277865,818.5694731277865,532.4966457586717,0.0
0.02400000000000091,7.024498392357726,3.322062323878557,0.02499990002790885,-179.9999436735288,-5.7292701029035475e-06,87.87610550459416,6.897646547866208,3.370421838633221,0.046028617252712976,0.0,0.0,0.0,0.0,0.0,0.0,0.0,4.930641494538754,-1.0,-1.0,-0.2,1068.3224884567069,672.3173080016193,255.94385721497255,255.94385721497244
0.02400000000000091,7.024498392357726,3.322062323878557,0.02499990002790885,-179.9999436735288,-5.7292701029035475e-06,87.87610550459416,6.876697468159942,3.378408220961462,0.05781267157525849,0.0,0.0,0.0,0.0,0.0,0.0,0.0,1.045784845442914,1.0,-1.0,-0.2,826.4687426356866,826.4687426356866,544.5615465320215,0.0
0.027999999999998693,7.024498392357726,3.322062323878557,0.02499990002790885,-179.9999436735288,-5.7292701029035475e-06,87.87610550459416,6.872563250843257,3.3799843016572266,0.060211119453215424,0.0,0.0,0.0,0.0,0.0,0.0,0.0,5.913605378221995,-1.0,-1.0,-0.2,1081.6928157408825,693.3664045233602,307.0075997906014,307.0075997906013
0.027999999999998693,7.024498392357726,3.322062323878557,0.02499990002790885,-179.9999436735288,-5.7292701029035475e-06,87.87610550459416,6.85326917108219,3.3873397511473233,0.07322963447211137,0.0,0.0,0.0,0.0,0.0,0.0,0.0,1.5382976287694545,1.0,-1.0,-0.2,835.1370745369003,835.1370745369004,557.6294725654182,0.0
0.03200000000000358,7.024498392357726,3.322062323878557,0.02499990002790885,-179.9999436735288,-5.7292701029035475e-06,87.87610550459416,6.849462825173365,3.3887908379791867,0.07587145677300748,0.0,0.0,0.0,0.0,0.0,0.0,0.0,6.900112209938629,-1.0,-1.0,-0.2,1094.947198767314,713.8676287552204,350.8613498123373,350.8613498123373
0.03200000000000358,7.024498392357726,3.322062323878557,0.02499990002790885,-179.9999436735288,-5.7292701029035475e-06,87.87610550459416,6.831730531412373,3.395550890426245,0.09001973727610835,0.0,0.0,0.0,0.0,0.0,0.0,0.0,2.074976946460322,1.0,-1.0,-0.2,844.4814489547329,844.481448954733,571.5291882626988,0.0
0.036000000000001364,7.024498392357726,3.322062323878557,0.02499990002790885,-179.9999436735288,-5.7292701029035475e-06,87.87610550459416,6.828233569808197,3.396884031201387,0.09288419679297753,0.0,0.0,0.0,0.0,0.0,0.0,0.0,7.88870456715304,-1.0,-1.0,-0.2,1100.0,733.8378582866001,389.8906226907724,389.8906226907723
0.036000000000001364,7.024498392357726,3.322062323878557,0.02499990002790885,-179.9999436735288,-5.7292701029035475e-06,87.87610550459416,6.811974488608855,3.403082453307968,0.10806356074515648,0.0,0.0,0.0,0.0,0.0,0.0,0.0,2.652046858865684,1.0,-1.0,-0.2,854.4150687516377,854.4150687516377,586.1073324207778,0.0
0.03999999999999915,7.024498392357726,3.322062323878557,0.02499990002790885,-179.9999436735288,-5.7292701029035475e-06,87.87610550459416,6.808769345024402,3.4043043447915684,0.1111311127739185,0.0,0.0,0.0,0.0,0.0,0.0,0.0,8.878026236663725,-1.0,-1.0,-0.2,1100.0,753.2929984992173,425.37869833299817,425.3786983329983
0.03999999999999915,7.024498392357726,3.322062323878557,0.02499990002790885,-179.9999436735288,-5.7292701029035475e-06,87.87610550459416,6.793899326320063,3.4099732169456716,0.12724858930761143,0.0,0.0,0.0,0.0,0.0,0.0,0.0,3.2659487538744014,1.0,-1.0,-0.2,864.8574675862512,864.8574675862512,601.2280221739816,0.0
0.044000000000004036,7.024498392357726,3.322062323878557,0.02499990002790885,-179.9999436735288,-5.7292701029035475e-06,87.87610550459416,6.7907164302483345,3.4111866270475137,0.1305008217214581,0.0,0.0,0.0,0.0,0.0,0.0,0.0,9.866816740432995,-1.0,-1.0,-0.2,1100.0,772.2481124478824,458.10898549019,458.1089854901901
0.044000000000004036,7.024498392357726,3.322062323878557,0.02499990002790885,-179.9999436735288,-5.7292701029035475e-06,87.87610550459416,6.769645173924003,3.4192195865618227,0.1474688633269694,0.0,0.0,0.0,0.0,0.0,0.0,0.0,3.9133304215330704,1.0,-1.0,-0.2,875.7344757982373,875.7344757982374,616.7718926062923,0.0
0.04800000000000182,7.024498392357726,3.322062323878557,0.02499990002790885,-179.9999436735288,-5.7292701029035475e-06,87.87610550459416,6.765490668390181,3.4208034017003928,0.15088843946913674,0.0,0.0,0.0,0.0,0.0,0.0,0.0,10.19,-1.0,-1.0,-0.2,1100.0,778.3434459107903,468.31102399988123,468.3110239998813
0.04800000000000182,7.024498392357726,3.322062323878557,0.02499990002790885,-179.9999436735288,-5.7292701029035475e-06,87.87610550459416,6.746197599332778,3.428158465881636,0.16862464774181,0.0,0.0,0.0,0.0,0.0,0.0,0.0,4.590532088452682,1.0,-1.0,-0.2,886.9697737816454,886.9697737816454,632.6231698331933,0.0
0.0519999999999996,7.024498392357726,3.322062323878557,0.02499990002790885,-179.9999436735288,-5.7292701029035475e-06,87.87610550459416,6.742395307715586,3.429608007102737,0.17219525200916952,0.0,0.0,0.0,0.0,0.0,0.0,0.0,10.19,-1.0,-1.0,-0.2,1100.0,778.3434459107903,468.31102399988123,468.3110239998813
0.0519999999999996,7.024498392357726,3.322062323878557,0.02499990002790885,-179.9999436735288,-5.7292701029035475e-06,87.87610550459416,6.724778429890952,3.436324059727013,0.1906221163389604,0.0,0.0,0.0,0.0,0.0,0.0,0.0,5.2950019322674455,1.0,-1.0,-0.2,898.5083943171529,898.508394317153,648.7018036555182,0.0
0.05600000000000449,7.024498392357726,3.322062323878557,0.02499990002790885,-179.9999436735288,-5.7292701029035475e-06,87.87610550459416,6.7210552428093235,3.4377434440594214,0.19432840233434343,0.0,0.0,0.0,0.0,0.0,0.0,0.0,10.19,-1.0,-1.0,-0.2,1100.0,778.3434459107903,468.31102399988123,468.3110239998813
0.05600000000000449,7.024498392357726,3.322062323878557,0.02499990002790885,-179.9999436735288,-5.7292701029035475e-06,87.87610550459416,6.697507313807162,3.4467205813220803,0.21337305095052148,0.0,0.0,0.0,0.0,0.0,0.0,0.0,6.023943115967673,1.0,-1.0,-0.2,910.2938782754802,910.2938782754802,664.929800981539,0.0
0.060000000000002274,7.024498392357726,3.322062323878557,0.02499990002790885,-179.9999436735288,-5.7292701029035475e-06,87.87610550459416,6.692613132773041,3.448586381704253,0.2172005920872419,0.0,0.0,0.0,0.0,0.0,0.0,0.0,10.19,-1.0,-1.0,-0.2,1100.0,778.3434459107903,468.31102399988123,468.3110239998813
0.060000000000002274,7.024498392357726,3.322062323878557,0.02499990002790885,-179.9999436735288,-5.7292701029035475e-06,87.87610550459416,6.663587130093163,3.4596519157569356,0.23679455489695939,0.0,0.0,0.0,0.0,0.0,0.0,0.0,6.774726764170039,1.0,-1.0,-0.2,922.2750834945195,922.2750834945195,681.2400641788158,0.0
0.06400000000000006,7.024498392357726,3.322062323878557,0.02499990002790885,-179.9999436735288,-5.7292701029035475e-06,87.87610550459416,6.657864584769063,3.461833512060437,0.24072979734418107,0.0,0.0,0.0,0.0,0.0,0.0,0.0,10.19,-1.0,-1.0,-0.2,1100.0,778.3434459107903,468.31102399988123,468.3110239998813
0.06400000000000006,7.024498392357726,3.322062323878557,0.02499990002790885,-179.9999436735288,-5.7292701029035475e-06,87.87610550459416,6.6312985921726115,3.471961220617535,0.26080878002852353,0.0,0.0,0.0,0.0,0.0,0.0,0.0,7.544883363681195,1.0,-1.0,-0.2,934.4058374726014,934.4058374726014,697.575060126441,0.0
0.06800000000000495,7.024498392357726,3.322062323878557,0.02499990002790885,-179.9999436735288,-5.7292701029035475e-06,87.87610550459416,6.626063307228353,3.4739570594681375,0.2648389978908735,0.0,0.0,0.0,0.0,0.0,0.0,0.0,10.19,-1.0,-1.0,-0.2,1100.0,778.3434459107903,468.31102399988123,468.3110239998813
0.06800000000000495,7.024498392357726,3.322062323878557,0.02499990002790885,-179.9999436735288,-5.7292701029035475e-06,87.87610550459416,6.595494011013862,3.485610940712436,0.2853426667457935,0.0,0.0,0.0,0.0,0.0,0.0,0.0,8.332094572564483,1.0,-1.0,-0.2,946.6445817696577,946.6445817696579,713.8856068036282,0.0
0.07200000000000273,7.024498392357726,3.322062323878557,0.02499990002790885,-179.9999436735288,-5.7292701029035475e-06,87.87610550459416,6.5892160802974855,3.4880042656524424,0.28945591937552057,0.0,0.0,0.0,0.0,0.0,0.0,0.0,10.19,-1.0,-1.0,-0.2,1100.0,778.3434459107903,468.31102399988123,468.3110239998813
0.07200000000000273,7.024498392357726,3.322062323878557,0.02499990002790885,-179.9999436735288,-5.7292701029035475e-06,87.87610550459416,6.553779511458233,3.501513689031391,0.31032769640781044,0.0,0.0,0.0,0.0,0.0,0.0,0.0,9.134185419102378,1.0,-1.0,-0.2,958.9540180215403,958.9540180215404,730.1297857827681,0.0
0.07600000000000051,7.024498392357726,3.322062323878557,0.02499990002790885,-179.9999436735288,-5.7292701029035475e-06,87.87610550459416,6.546794191335312,3.5041766908419243,0.3145127877523179,0.0,0.0,0.0,0.0,0.0,0.0,0.0,10.19,-1.0,-1.0,-0.2,1100.0,778.3434459107903,468.31102399988123,468.3110239998813
0.07600000000000051,7.024498392357726,3.322062323878557,0.02499990002790885,-179.9999436735288,-5.7292701029035475e-06,87.87610550459416,6.5143931205384895,3.5165288964211707,0.33569965556253684,0.0,0.0,0.0,0.0,0.0,0.0,0.0,9.949116872873839,1.0,-1.0,-0.2,971.3007628351648,971.3007628351648,746.2719794362557,0.0
0.0799999999999983,7.024498392357726,3.322062323878557,0.02499990002790885,-179.9999436735288,-5.7292701029035475e-06,87.87610550459416,6.508009032738826,3.518962691447017,0.3399460954542335,0.0,0.0,0.0,0.0,0.0,0.0,0.0,10.19,-1.0,-1.0,-0.2,1100.0,778.3434459107903,468.31102399988123,468.3110239998813
0.0799999999999983,7.024498392357726,3.322062323878557,0.02499990002790885,-179.9999436735288,-5.7292701029035475e-06,87.87610550459416,6.47846866050405,3.530224317737689,0.36139841145931,0.0,0.0,0.0,0.0,0.0,0.0,0.0,10.19,1.0,-1.0,-0.2,974.9203598982722,974.9203598982722,750.976966059353,0.0
0.08400000000000318,7.024498392357726,3.322062323878557,0.02499990002790885,-179.9999436735288,-5.7292701029035475e-06,87.87610550459416,6.472398258078672,3.5325385270172904,0.3656963787591059,0.0,0.0,0.0,0.0,0.0,0.0,0.0,10.19,1.0,-1.0,-0.2,974.9203598982722,974.9203598982722,750.976966059353,0.0
0.08400000000000318,7.024498392357726,3.322062323878557,0.02499990002790885,-179.9999436735288,-5.7292701029035475e-06,87.87610550459416,6.438042208247162,3.545636025957087,0.3873676983272385,0.0,0.0,0.0,0.0,0.0,0.0,0.0,10.19,1.0,-1.0,-0.2,974.9203598982722,974.9203598982722,750.976966059353,0.0
0.08800000000000097,7.024498392357726,3.322062323878557,0.02499990002790885,-179.9999436735288,-5.7292701029035475e-06,87.87610550459416,6.431274565223087,3.548216043094315,0.3917080058367593,0.0,0.0,0.0,0.0,0.0,0.0,0.0,10.19,1.0,-1.0,-0.2,974.9203598982722,974.9203598982722,750.976966059353,0.0
0.08800000000000097,7.024498392357726,3.322062323878557,0.02499990002790885,-179.9999436735288,-5.7292701029035475e-06,87.87610550459416,6.400000544454339,3.560138585291997,0.41355491392626537,0.0,0.0,0.0,0.0,0.0,0.0,0.0,10.19,1.0,-1.0,-0.2,974.9203598982722,974.9203598982722,750.976966059353,0.0
0.09199999999999875,7.024498392357726,3.322062323878557,0.02499990002790885,-179.9999436735288,-5.7292701029035475e-06,87.87610550459416,6.3938432798729625,3.5624859088848466,0.417928974987848,0.0,0.0,0.0,0.0,0.0,0.0,0.0,10.19,1.0,-1.0,-0.2,974.9203598982722,974.9203598982722,750.976966059353,0.0
0.09199999999999875,7.024498392357726,3.322062323878557,0.02499990002790885,-179.9999436735288,-5.7292701029035475e-06,87.87610550459416,6.3654717259417115,3.5733019485447413,0.4399109258998086,0.0,0.0,0.0,0.0,0.0,0.0,0.0,10.19,1.0,-1.0,-0.2,974.9203598982722,974.9203598982722,750.976966059353,0.0
0.09600000000000364,7.024498392357726,3.322062323878557,0.02499990002790885,-179.9999436735288,-5.7292701029035475e-06,87.87610550459416,6.359636349902755,3.575526559111392,0.444310722606685,0.0,0.0,0.0,0.0,0.0,0.0,0.0,10.19,1.0,-1.0,-0.2,974.9203598982722,974.9203598982722,750.976966059353,0.0
0.09600000000000364,7.024498392357726,3.322062323878557,0.02499990002790885,-179.9999436735288,-5.7292701029035475e-06,87.87610550459416,6.326486409804781,3.5881642548714354,0.4663898874786329,0.0,0.0,0.0,0.0,0.0,0.0,0.0,10.19,1.0,-1.0,-0.2,974.9203598982722,974.9203598982722,750.976966059353,0.0
0.10000000000000142,7.024498392357726,3.322062323878557,0.02499990002790885,-179.9999436735288,-5.7292701029035475e-06,87.87610550459416,6.319708228130673,3.5907482896404432,0.47080794042137813,0.0,0.0,0.0,0.0,0.0,0.0,0.0,10.19,1.0,-1.0,-0.2,974.9203598982722,974.9203598982722,750.976966059353,0.0
0.10000000000000142,7.024498392357726,3.322062323878557,0.02499990002790885,-179.9999436735288,-5.7292701029035475e-06,87.87610550459416,6.2821630368570265,3.60506157959411,0.49294906210591294,0.0,0.0,0.0,0.0,0.0,0.0,0.0,10.19,1.0,-1.0,-0.2,974.9203598982722,974.9203598982722,750.976966059353,0.0
0.1039999999999992,7.024498392357726,3.322062323878557,0.02499990002790885,-179.9999436735288,-5.7292701029035475e-06,87.87610550459416,6.274770831134156,3.6078796977157475,0.4973784015845387,0.0,0.0,0.0,0.0,0.0,0.0,0.0,10.19,1.0,-1.0,-0.2,974.9203598982722,974.9203598982722,750.976966059353,0.0
0.1039999999999992,7.024498392357726,3.322062323878557,0.02499990002790885,-179.9999436735288,-5.7292701029035475e-06,87.87610550459416,6.240702219041747,3.6208676172509966,0.5195486565726655,0.0,0.0,0.0,0.0,0.0,0.0,0.0,10.19,1.0,-1.0,-0.2,974.9203598982722,974.9203598982722,750.976966059353,0.0
0.10800000000000409,7.024498392357726,3.322062323878557,0.02499990002790885,-179.9999436735288,-5.7292701029035475e-06,87.87610550459416,6.233998477954518,3.6234232731606033,0.5239827952066881,0.0,0.0,0.0,0.0,0.0,0.0,0.0,10.19,1.0,-1.0,-0.2,974.9203598982722,974.9203598982722,750.976966059353,0.0
0.10800000000000409,7.024498392357726,3.322062323878557,0.02499990002790885,-179.9999436735288,-5.7292701029035475e-06,87.87610550459416,6.203202344767544,3.635163631081387,0.5461516622708831,0.0,0.0,0.0,0.0,0.0,0.0,0.0,10.19,1.0,-1.0,-0.2,974.9203598982722,974.9203598982722,750.976966059353,0.0
0.11200000000000188,7.024498392357726,3.322062323878557,0.02499990002790885,-179.9999436735288,-5.7292701029035475e-06,87.87610550459416,6.19689371356539,3.6375686599158135,0.5505845689429237,0.0,0.0,0.0,0.0,0.0,0.0,0.0,10.19,1.0,-1.0,-0.2,974.9203598982722,974.9203598982722,750.976966059353,0.0
0.11200000000000188,7.024498392357726,3.322062323878557,0.02499990002790885,-179.9999436735288,-5.7292701029035475e-06,87.87610550459416,6.161665942573041,3.6509984836437006,0.572723704189478,0.0,0.0,0.0,0.0,0.0,0.0,0.0,10.19,1.0,-1.0,-0.2,974.9203598982722,974.9203598982722,750.976966059353,0.0
0.11599999999999966,7.024498392357726,3.322062323878557,0.02499990002790885,-179.9999436735288,-5.7292701029035475e-06,87.87610550459416,6.154483115051025,3.6537367808669186,0.5771497792608439,0.0,0.0,0.0,0.0,0.0,0.0,0.0,10.19,1.0,-1.0,-0.2,974.9203598982722,974.9203598982722,750.976966059353,0.0
0.11599999999999966,7.024498392357726,3.322062323878557,0.02499990002790885,-179.9999436735288,-5.7292701029035475e-06,87.87610550459416,6.115184790893981,3.6687184147132688,0.5992328972949401,0.0,0.0,0.0,0.0,0.0,0.0,0.0,10.19,1.0,-1.0,-0.2,974.9203598982722,974.9203598982722,750.976966059353,0.0
0.12000000000000455,7.024498392357726,3.322062323878557,0.02499990002790885,-179.9999436735288,-5.7292701029035475e-06,87.87610550459416,6.107452177330193,3.671666305942041,0.6036469490341803,0.0,0.0,0.0,0.0,0.0,0.0,0.0,10.19,1.0,-1.0,-0.2,974.9203598982722,974.9203598982722,750.976966059353,0.0
0.12000000000000455,7.024498392357726,3.322062323878557,0.02499990002790885,-179.9999436735288,-5.7292701029035475e-06,87.87610550459416,6.0719342351739565,3.6852067511333972,0.625649709954453,0.0,0.0,0.0,0.0,0.0,0.0,0.0,10.19,1.0,-1.0,-0.2,974.9203598982722,974.9203598982722,750.976966059353,0.0
0.12400000000000233,7.024498392357726,3.322062323878557,0.02499990002790885,-179.9999436735288,-5.7292701029035475e-06,87.87610550459416,6.064950182113547,3.6878692699038265,0.6300469321227381,0.0,0.0,0.0,0.0,0.0,0.0,0.0,10.19,1.0,-1.0,-0.2,974.9203598982722,974.9203598982722,750.976966059353,0.0
0.12400000000000233,7.024498392357726,3.322062323878557,0.02499990002790885,-179.9999436735288,-5.7292701029035475e-06,87.87610550459416,6.032988726118822,3.7000538818734285,0.6519468340747792,0.0,0.0,0.0,0.0,0.0,0.0,0.0,10.19,1.0,-1.0,-0.2,974.9203598982722,974.9203598982722,750.976966059353,0.0
0.1280000000000001,7.024498392357726,3.322062323878557,0.02499990002790885,-179.9999436735288,-5.7292701029035475e-06,87.87610550459416,6.0267088367622526,3.7024479535025328,0.6563227846144734,0.0,0.0,0.0,0.0,0.0,0.0,0.0,10.19,1.0,-1.0,-0.2,974.9203598982722,974.9203598982722,750.976966059353,0.0
0.1280000000000001,7.024498392357726,3.322062323878557,0.02499990002790885,-179.9999436735288,-5.7292701029035475e-06,87.87610550459416,5.998091367386395,3.713357743092667,0.6780990616448944,0.0,0.0,0.0,0.0,0.0,0.0,0.0,10.19,1.0,-1.0,-0.2,974.9203598982722,974.9203598982722,750.976966059353,0.0
0.132000000000005,7.024498392357726,3.322062323878557,0.02499990002790885,-179.9999436735288,-5.7292701029035475e-06,87.87610550459416,5.992220624148492,3.715595836636929,0.6824496424198917,0.0,0.0,0.0,0.0,0.0,0.0,0.0,10.19,1.0,-1.0,-0.2,974.9203598982722,974.9203598982722,750.976966059353,0.0
0.132000000000005,7.024498392357726,3.322062323878557,0.02499990002790885,-179.9999436735288,-5.7292701029035475e-06,87.87610550459416,5.959235132368649,3.7281708400419746,0.7040831673841761,0.0,0.0,0.0,0.0,0.0,0.0,0.0,10.19,1.0,-1.0,-0.2,974.9203598982722,974.9203598982722,750.976966059353,0.0
0.13600000000000279,7.024498392357726,3.322062323878557,0.02499990002790885,-179.9999436735288,-5.7292701029035475e-06,87.87610550459416,5.952755548670315,3.7306410408082282,0.7084046049230904,0.0,0.0,0.0,0.0,0.0,0.0,0.0,10.19,1.0,-1.0,-0.2,974.9203598982722,974.9203598982722,750.976966059353,0.0
0.13600000000000279,7.024498392357726,3.322062323878557,0.02499990002790885,-179.9999436735288,-5.7292701029035475e-06,87.87610550459416,5.923266073847448,3.741883263564391,0.7298777972115684,0.0,0.0,0.0,0.0,0.0,0.0,0.0,10.19,1.0,-1.0,-0.2,974.9203598982722,974.9203598982722,750.976966059353,0.0
0.14000000000000057,7.024498392357726,3.322062323878557,0.02499990002790885,-179.9999436735288,-5.7292701029035475e-06,87.87610550459416,5.9174785979859195,3.7440896132271786,0.7341666244070697,0.0,0.0,0.0,0.0,0.0,0.0,0.0,10.19,1.0,-1.0,-0.2,974.9203598982722,974.9203598982722,750.976966059353,0.0
0.14000000000000057,7.024498392357726,3.322062323878557,0.02499990002790885,-179.9999436735288,-5.7292701029035475e-06,87.87610550459416,5.8912737792516525,3.7540796320818735,0.7554633622639705,0.0,0.0,0.0,0.0,0.0,0.0,0.0,10.19,1.0,-1.0,-0.2,974.9203598982722,974.9203598982722,750.976966059353,0.0
0.14399999999999835,7.024498392357726,3.322062323878557,0.02499990002790885,-179.9999436735288,-5.7292701029035475e-06,87.87610550459416,5.886136503155836,3.7560381071844646,0.7597164009834502,0.0,0.0,0.0,0.0,0.0,0.0,0.0,10.19,1.0,-1.0,-0.2,974.9203598982722,974.9203598982722,750.976966059353,0.0
0.14399999999999835,7.024498392357726,3.322062323878557,0.02499990002790885,-179.9999436735288,-5.7292701029035475e-06,87.87610550459416,5.863015831205766,3.7648523619616734,0.7808219382041309,0.0,0.0,0.0,0.0,0.0,0.0,0.0,10.19,1.0,-1.0,-0.2,974.9203598982722,974.9203598982722,750.976966059353,0.0
0.14800000000000324,7.024498392357726,3.322062323878557,0.02499990002790885,-179.9999436735288,-5.7292701029035475e-06,87.87610550459416,5.858488999800628,3.766578118264281,0.7850362827691673,0.0,0.0,0.0,0.0,0.0,0.0,0.0,10.19,1.0,-1.0,-0.2,974.9203598982722,974.9203598982722,750.976966059353,0.0
0.14800000000000324,7.024498392357726,3.322062323878557,0.02499990002790885,-179.9999436735288,-5.7292701029035475e-06,87.87610550459416,5.838262300649809,3.7742891086715793,0.8059371695703215,0.0,0.0,0.0,0.0,0.0,0.0,0.0,10.19,1.0,-1.0,-0.2,974.9203598982722,974.9203598982722,750.976966059353,0.0
0.15200000000000102,7.024498392357726,3.322062323878557,0.02499990002790885,-179.9999436735288,-5.7292701029035475e-06,87.87610550459416,5.834055327454786,3.775892925968148,0.8101101710641226,0.0,0.0,0.0,0.0,0.0,0.0,0.0,10.19,1.0,-1.0,-0.2,974.9203598982722,974.9203598982722,750.976966059353,0.0
0.15200000000000102,7.024498392357726,3.322062323878557,0.02499990002790885,-179.9999436735288,-5.7292701029035475e-06,87.87610550459416,5.809031903643458,3.7854325636286554,0.8307941789310416,0.0,0.0,0.0,0.0,0.0,0.0,0.0,10.19,1.0,-1.0,-0.2,974.9203598982722,974.9203598982722,750.976966059353,0.0
0.1559999999999988,7.024498392357726,3.322062323878557,0.02499990002790885,-179.9999436735288,-5.7292701029035475e-06,87.87610550459416,5.804131031891936,3.78730091470174,0.834923430295101,0.0,0.0,0.0,0.0,0.0,0.0,0.0,10.19,1.0,-1.0,-0.2,974.9203598982722,974.9203598982722,750.976966059353,0.0
0.1559999999999988,7.024498392357726,3.322062323878557,0.02499990002790885,-179.9999436735288,-5.7292701029035475e-06,87.87610550459416,5.782195265284189,3.7956634500134996,0.8553794806189252,0.0,0.0,0.0,0.0,0.0,0.0,0.0,10.19,1.0,-1.0,-0.2,974.9203598982722,974.9203598982722,750.976966059353,0.0
0.1600000000000037,7.024498392357726,3.322062323878557,0.02499990002790885,-179.9999436735288,-5.7292701029035475e-06,87.87610550459416,5.777905480715067,3.7972988373505645,0.8594628025016156,0.0,0.0,0.0,0.0,0.0,0.0,0.0,10.19,1.0,-1.0,-0.2,974.9203598982722,974.9203598982722,750.976966059353,0.0
0.1600000000000037,7.024498392357726,3.322062323878557,0.02499990002790885,-179.9999436735288,-5.7292701029035475e-06,87.87610550459416,5.758865426860701,3.804557444972635,0.8796808988279854,0.0,0.0,0.0,0.0,0.0,0.0,0.0,10.19,1.0,-1.0,-0.2,974.9203598982722,974.9203598982722,750.976966059353,0.0
0.16400000000000148,7.024498392357726,3.322062323878557,0.02499990002790885,-179.9999436735288,-5.7292701029035475e-06,87.87610550459416,5.755148675005838,3.805974376014396,0.8837163261497161,0.0,0.0,0.0,0.0,0.0,0.0,0.0,10.19,1.0,-1.0,-0.2,974.9203598982722,974.9203598982722,750.976966059353,0.0
0.16400000000000148,7.024498392357726,3.322062323878557,0.02499990002790885,-179.9999436735288,-5.7292701029035475e-06,87.87610550459416,5.738822356033589,3.812198431063754,0.9036874898683258,0.0,0.0,0.0,0.0,0.0,0.0,0.0,10.19,1.0,-1.0,-0.2,974.9203598982722,974.9203598982722,750.976966059353,0.0
0.16799999999999926,7.024498392357726,3.322062323878557,0.02499990002790885,-179.9999436735288,-5.7292701029035475e-06,87.87610550459416,5.735389677799858,3.8135070651979883,0.9076732590694856,0.0,0.0,0.0,0.0,0.0,0.0,0.0,10.19,1.0,-1.0,-0.2,974.9203598982722,974.9203598982722,750.976966059353,0.0
0.16799999999999926,7.024498392357726,3.322062323878557,0.02499990002790885,-179.9999436735288,-5.7292701029035475e-06,87.87610550459416,5.71409423939129,3.8216254892702137,0.9273894683817846,0.0,0.0,0.0,0.0,0.0,0.0,0.0,10.19,1.0,-1.0,-0.2,974.9203598982722,974.9203598982722,750.976966059353,0.0
0.17200000000000415,7.024498392357726,3.322062323878557,0.02499990002790885,-179.9999436735288,-5.7292701029035475e-06,87.87610550459416,5.709680553369133,3.8233081113492737,0.931324005321038,0.0,0.0,0.0,0.0,0.0,0.0,0.0,10.19,1.0,-1.0,-0.2,974.9203598982722,974.9203598982722,750.976966059353,0.0
0.17200000000000415,7.024498392357726,3.322062323878557,0.02499990002790885,-179.9999436735288,-5.7292701029035475e-06,87.87610550459416,5.68379751656699,3.8331754578206327,0.9507781373307171,0.0,0.0,0.0,0.0,0.0,0.0,0.0,10.19,1.0,-1.0,-0.2,974.9203598982722,974.9203598982722,750.976966059353,0.0
0.17600000000000193,7.024498392357726,3.322062323878557,0.02499990002790885,-179.9999436735288,-5.7292701029035475e-06,87.87610550459416,5.678731293726418,3.83510684541055,0.9546600458028837,0.0,0.0,0.0,0.0,0.0,0.0,0.0,10.19,1.0,-1.0,-0.2,974.9203598982722,974.9203598982722,750.976966059353,0.0
0.17600000000000193,7.024498392357726,3.322062323878557,0.02499990002790885,-179.9999436735288,-5.7292701029035475e-06,87.87610550459416,5.656131236764484,3.843722627013789,0.973845821580854,0.0,0.0,0.0,0.0,0.0,0.0,0.0,10.19,1.0,-1.0,-0.2,974.9203598982722,974.9203598982722,750.976966059353,0.0
0.17999999999999972,7.024498392357726,3.322062323878557,0.02499990002790885,-179.9999436735288,-5.7292701029035475e-06,87.87610550459416,5.651714726726409,3.845406325687675,0.9776738724250019,0.0,0.0,0.0,0.0,0.0,0.0,0.0,10.19,1.0,-1.0,-0.2,974.9203598982722,974.9203598982722,750.976966059353,0.0
0.17999999999999972,7.024498392357726,3.322062323878557,0.02499990002790885,-179.9999436735288,-5.7292701029035475e-06,87.87610550459416,5.632192634846516,3.8528486998533165,0.9965858049073245,0.0,0.0,0.0,0.0,0.0,0.0,0.0,10.19,1.0,-1.0,-0.2,974.9203598982722,974.9203598982722,750.976966059353,0.0
0.1840000000000046,7.024498392357726,3.322062323878557,0.02499990002790885,-179.9999436735288,-5.7292701029035475e-06,87.87610550459416,5.628385192498315,3.8543002046789137,1.0003589256768595,0.0,0.0,0.0,0.0,0.0,0.0,0.0,10.19,1.0,-1.0,-0.2,974.9203598982722,974.9203598982722,750.976966059353,0.0
0.1840000000000046,7.024498392357726,3.322062323878557,0.02499990002790885,-179.9999436735288,-5.7292701029035475e-06,87.87610550459416,5.605424666788543,3.863053407175002,1.0189922702605425,0.0,0.0,0.0,0.0,0.0,0.0,0.0,10.19,1.0,-1.0,-0.2,974.9203598982722,974.9203598982722,750.976966059353,0.0
0.1880000000000024,7.024498392357726,3.322062323878557,0.02499990002790885,-179.9999436735288,-5.7292701029035475e-06,87.87610550459416,5.60068587162029,3.8648599700655697,1.022709535428547,0.0,0.0,0.0,0.0,0.0,0.0,0.0,10.19,1.0,-1.0,-0.2,974.9203598982722,974.9203598982722,750.976966059353,0.0
0.1880000000000024,7.024498392357726,3.322062323878557,0.02499990002790885,-179.9999436735288,-5.7292701029035475e-06,87.87610550459416,5.573372917045032,3.8752724416781836,1.0410602431362914,0.0,0.0,0.0,0.0,0.0,0.0,0.0,10.19,1.0,-1.0,-0.2,974.9203598982722,974.9203598982722,750.976966059353,0.0
0.19200000000000017,7.024498392357726,3.322062323878557,0.02499990002790885,-179.9999436735288,-5.7292701029035475e-06,87.87610550459416,5.568028117738075,3.8773100305045944,1.0447208648105868,0.0,0.0,0.0,0.0,0.0,0.0,0.0,10.19,1.0,-1.0,-0.2,974.9203598982722,974.9203598982722,750.976966059353,0.0
0.19200000000000017,7.024498392357726,3.322062323878557,0.02499990002790885,-179.9999436735288,-5.7292701029035475e-06,87.87610550459416,5.544218384242522,3.886386975052766,1.062785537901455,0.0,0.0,0.0,0.0,0.0,0.0,0.0,10.19,1.0,-1.0,-0.2,974.9203598982722,974.9203598982722,750.976966059353,0.0
0.19600000000000506,7.024498392357726,3.322062323878557,0.02499990002790885,-179.9999436735288,-5.7292701029035475e-06,87.87610550459416,5.539566870984087,3.8881602636080443,1.0663888570248505,0.0,0.0,0.0,0.0,0.0,0.0,0.0,10.19,1.0,-1.0,-0.2,974.9203598982722,974.9203598982722,750.976966059353,0.0
0.19600000000000506,7.024498392357726,3.322062323878557,0.02499990002790885,-179.9999436735288,-5.7292701029035475e-06,87.87610550459416,5.519041197038707,3.895985231672087,1.0841647069334663,0.0,0.0,0.0,0.0,0.0,0.0,0.0,10.19,1.0,-1.0,-0.2,974.9203598982722,974.9203598982722,750.976966059353,0.0
0.20000000000000284,7.024498392357726,3.322062323878557,0.02499990002790885,-179.9999436735288,-5.7292701029035475e-06,87.87610550459416,5.515039520326133,3.8975107841368604,1.0877101849459572,0.0,0.0,0.0,0.0,0.0,0.0,0.0,10.19,1.0,-1.0,-0.2,974.9203598982722,974.9203598982722,750.976966059353,0.0
0.20000000000000284,7.024498392357726,3.322062323878557,0.02499990002790885,-179.9999436735288,-5.7292701029035475e-06,87.87610550459416,5.497590152761856,3.9041629771070667,1.1051949924382223,0.0,0.0,0.0,0.0,0.0,0.0,0.0,10.19,1.0,-1.0,-0.2,974.9203598982722,974.9203598982722,750.976966059353,0.0
0.20400000000000063,7.024498392357726,3.322062323878557,0.02499990002790885,-179.9999436735288,-5.7292701029035475e-06,87.87610550459416,5.493944244485657,3.905552900570803,1.1086822033789643,0.0,0.0,0.0,0.0,0.0,0.0,0.0,10.19,1.0,-1.0,-0.2,974.9203598982722,974.9203598982722,750.976966059353,0.0
0.20400000000000063,7.024498392357726,3.322062323878557,0.02499990002790885,-179.9999436735288,-5.7292701029035475e-06,87.87610550459416,5.471863925767478,3.9139705432398526,1.1258742808174191,0.0,0.0,0.0,0.0,0.0,0.0,0.0,10.19,1.0,-1.0,-0.2,974.9203598982722,974.9203598982722,750.976966059353,0.0
0.2079999999999984,7.024498392357726,3.322062323878557,0.02499990002790885,-179.9999436735288,-5.7292701029035475e-06,87.87610550459416,5.467556749629565,3.915612560735359,1.1293029038451465,0.0,0.0,0.0,0.0,0.0,0.0,0.0,10.19,1.0,-1.0,-0.2,974.9203598982722,974.9203598982722,750.976966059353,0.0
0.2079999999999984,7.024498392357726,3.322062323878557,0.02499990002790885,-179.9999436735288,-5.7292701029035475e-06,87.87610550459416,5.448714269259819,3.922795847751072,1.1462010594620136,0.0,0.0,0.0,0.0,0.0,0.0,0.0,10.19,1.0,-1.0,-0.2,974.9203598982722,974.9203598982722,750.976966059353,0.0
0.2120000000000033,7.024498392357726,3.322062323878557,0.02499990002790885,-179.9999436735288,-5.7292701029035475e-06,87.87610550459416,5.445047723367185,3.924193638858519,1.14957087177377,0.0,0.0,0.0,0.0,0.0,0.0,0.0,10.19,1.0,-1.0,-0.2,974.9203598982722,974.9203598982722,750.976966059353,0.0
0.2120000000000033,7.024498392357726,3.322062323878557,0.02499990002790885,-179.9999436735288,-5.7292701029035475e-06,87.87610550459416,5.429236463273915,3.9302213388800302,1.1661743758544092,0.0,0.0,0.0,0.0,0.0,0.0,0.0,10.19,1.0,-1.0,-0.2,974.9203598982722,974.9203598982722,750.976966059353,0.0
0.21600000000000108,7.024498392357726,3.322062323878557,0.02499990002790885,-179.9999436735288,-5.7292701029035475e-06,87.87610550459416,5.426169587708933,3.9313905186797404,1.169485245983211,0.0,0.0,0.0,0.0,0.0,0.0,0.0,10.19,1.0,-1.0,-0.2,974.9203598982722,974.9203598982722,750.976966059353,0.0
0.21600000000000108,7.024498392357726,3.322062323878557,0.02499990002790885,-179.9999436735288,-5.7292701029035475e-06,87.87610550459416,5.413193768477696,3.9363372683630593,1.185793798867203,0.0,0.0,0.0,0.0,0.0,0.0,0.0,10.19,1.0,-1.0,-0.2,974.9203598982722,974.9203598982722,750.976966059353,0.0
0.21999999999999886,7.024498392357726,3.322062323878557,0.02499990002790885,-179.9999436735288,-5.7292701029035475e-06,87.87610550459416,5.410687753564065,3.9372926322024813,1.1890456803403187,0.0,0.0,0.0,0.0,0.0,0.0,0.0,10.19,1.0,-1.0,-0.2,974.9203598982722,974.9203598982722,750.976966059353,0.0
0.21999999999999886,7.024498392357726,3.322062323878557,0.02499990002790885,-179.9999436735288,-5.7292701029035475e-06,87.87610550459416,5.400361913044905,3.9412291349702753,1.205059382151665,0.0,0.0,0.0,0.0,0.0,0.0,0.0,10.19,1.0,-1.0,-0.2,974.9203598982722,974.9203598982722,750.976966059353,0.0
0.22400000000000375,7.024498392357726,3.322062323878557,0.02499990002790885,-179.9999436735288,-5.7292701029035475e-06,87.87610550459416,5.398127113929446,3.9420811036683334,1.2082523074918337,0.0,0.0,0.0,0.0,0.0,0.0,0.0,10.19,1.0,-1.0,-0.2,974.9203598982722,974.9203598982722,750.976966059353,0.0
0.22400000000000375,7.024498392357726,3.322062323878557,0.02499990002790885,-179.9999436735288,-5.7292701029035475e-06,87.87610550459416,5.3827652436842675,3.9479374835559007,1.2239716295138645,0.0,0.0,0.0,0.0,0.0,0.0,0.0,10.19,1.0,-1.0,-0.2,974.9203598982722,974.9203598982722,750.976966059353,0.0
0.22800000000000153,7.024498392357726,3.322062323878557,0.02499990002790885,-179.9999436735288,-5.7292701029035475e-06,87.87610550459416,5.379788840517174,3.949072172715935,1.2271057045667535,0.0,0.0,0.0,0.0,0.0,0.0,0.0,10.19,1.0,-1.0,-0.2,974.9203598982722,974.9203598982722,750.976966059353,0.0
0.22800000000000153,7.024498392357726,3.322062323878557,0.02499990002790885,-179.9999436735288,-5.7292701029035475e-06,87.87610550459416,5.367279984228483,3.9538409029041457,1.2425314621812302,0.0,0.0,0.0,0.0,0.0,0.0,0.0,10.19,1.0,-1.0,-0.2,974.9203598982722,974.9203598982722,750.976966059353,0.0
0.23199999999999932,7.024498392357726,3.322062323878557,0.02499990002790885,-179.9999436735288,-5.7292701029035475e-06,87.87610550459416,5.3648678940885315,3.954760459960491,1.2456068607532107,0.0,0.0,0.0,0.0,0.0,0.0,0.0,10.19,1.0,-1.0,-0.2,974.9203598982722,974.9203598982722,750.976966059353,0.0
0.23199999999999932,7.024498392357726,3.322062323878557,0.02499990002790885,-179.9999436735288,-5.7292701029035475e-06,87.87610550459416,5.355024737879196,3.958512949802841,1.2607401878668485,0.0,0.0,0.0,0.0,0.0,0.0,0.0,10.19,1.0,-1.0,-0.2,974.9203598982722,974.9203598982722,750.976966059353,0.0
0.2360000000000042,7.024498392357726,3.322062323878557,0.02499990002790885,-179.9999436735288,-5.7292701029035475e-06,87.87610550459416,5.353139831263791,3.959231529573157,1.2637571466577437,0.0,0.0,0.0,0.0,0.0,0.0,0.0,10.19,1.0,-1.0,-0.2,974.9203598982722,974.9203598982722,750.976966059353,0.0
0.2360000000000042,7.024498392357726,3.322062323878557,0.02499990002790885,-179.9999436735288,-5.7292701029035475e-06,87.87610550459416,5.345784992876379,3.9620354022085125,1.2785994715429423,0.0,0.0,0.0,0.0,0.0,0.0,0.0,10.19,1.0,-1.0,-0.2,974.9203598982722,974.9203598982722,750.976966059353,0.0
0.240000000000002,7.024498392357726,3.322062323878557,0.02499990002790885,-179.9999436735288,-5.7292701029035475e-06,87.87610550459416,5.344139228551285,3.962662814166779,1.2815582853592804,0.0,0.0,0.0,0.0,0.0,0.0,0.0,10.19,1.0,-1.0,-0.2,974.9203598982722,974.9203598982722,750.976966059353,0.0
0.240000000000002,7.024498392357726,3.322062323878557,0.02499990002790885,-179.9999436735288,-5.7292701029035475e-06,87.87610550459416,5.331594410917638,3.9674452538378824,1.2961113078392537,0.0,0.0,0.0,0.0,0.0,0.0,0.0,10.19,1.0,-1.0,-0.2,974.9203598982722,974.9203598982722,750.976966059353,0.0
0.24399999999999977,7.024498392357726,3.322062323878557,0.02499990002790885,-179.9999436735288,-5.7292701029035475e-06,87.87610550459416,5.329176499496562,3.9683670301314136,1.2990123250742125,0.0,0.0,0.0,0.0,0.0,0.0,0.0,10.19,1.0,-1.0,-0.2,974.9203598982722,974.9203598982722,750.976966059353,0.0
0.24399999999999977,7.024498392357726,3.322062323878557,0.02499990002790885,-179.9999436735288,-5.7292701029035475e-06,87.87610550459416,5.3193381055210756,3.972117704475384,1.31327799498596,0.0,0.0,0.0,0.0,0.0,0.0,0.0,10.19,1.0,-1.0,-0.2,974.9203598982722,974.9203598982722,750.976966059353,0.0
0.24800000000000466,7.024498392357726,3.322062323878557,0.02499990002790885,-179.9999436735288,-5.7292701029035475e-06,87.87610550459416,5.317455424641843,3.972835435732052,1.3161216133527054,0.0,0.0,0.0,0.0,0.0,0.0,0.0,10.19,1.0,-1.0,-0.2,974.9203598982722,974.9203598982722,750.976966059353,0.0
0.24800000000000466,7.024498392357726,3.322062323878557,0.02499990002790885,-179.9999436735288,-5.7292701029035475e-06,87.87610550459416,5.310143163180408,3.9756230768377194,1.3301021102243744,0.0,0.0,0.0,0.0,0.0,0.0,0.0,10.19,1.0,-1.0,-0.2,974.9203598982722,974.9203598982722,750.976966059353,0.0
0.25200000000000244,7.024498392357726,3.322062323878557,0.02499990002790885,-179.9999436735288,-5.7292701029035475e-06,87.87610550459416,5.308759977103879,3.9761503865330923,1.3328887727302465,0.0,0.0,0.0,0.0,0.0,0.0,0.0,10.19,1.0,-1.0,-0.2,974.9203598982722,974.9203598982722,750.976966059353,0.0
0.25200000000000244,7.024498392357726,3.322062323878557,0.02499990002790885,-179.9999436735288,-5.7292701029035475e-06,87.87610550459416,5.30380316711792,3.9780400628449577,1.346586486612396,0.0,0.0,0.0,0.0,0.0,0.0,0.0,10.19,1.0,-1.0,-0.2,974.9203598982722,974.9203598982722,750.976966059353,0.0
0.2560000000000002,7.024498392357726,3.322062323878557,0.02499990002790885,-179.9999436735288,-5.7292701029035475e-06,87.87610550459416,5.302632764550679,3.9784862534419196,1.3493166777619892,0.0,0.0,0.0,0.0,0.0,0.0,0.0,10.19,1.0,-1.0,-0.2,974.9203598982722,974.9203598982722,750.976966059353,0.0
0.2560000000000002,7.024498392357726,3.322062323878557,0.02499990002790885,-179.9999436735288,-5.7292701029035475e-06,87.87610550459416,5.292359502996547,3.982402711619544,1.3627341911550983,0.0,0.0,0.0,0.0,0.0,0.0,0.0,10.19,1.0,-1.0,-0.2,974.9203598982722,974.9203598982722,750.976966059353,0.0
0.2600000000000051,7.024498392357726,3.322062323878557,0.02499990002790885,-179.9999436735288,-5.7292701029035475e-06,87.87610550459416,5.290391863513465,3.983152831501485,1.3654084333706984,0.0,0.0,0.0,0.0,0.0,0.0,0.0,10.19,1.0,-1.0,-0.2,974.9203598982722,974.9203598982722,750.976966059353,0.0
0.2600000000000051,7.024498392357726,3.322062323878557,0.02499990002790885,-179.9999436735288,-5.7292701029035475e-06,87.87610550459416,5.282704653818952,3.986083413489742,1.3785485041939696,0.0,0.0,0.0,0.0,0.0,0.0,0.0,10.19,1.0,-1.0,-0.2,974.9203598982722,974.9203598982722,750.976966059353,0.0
0.2640000000000029,7.024498392357726,3.322062323878557,0.02499990002790885,-179.9999436735288,-5.7292701029035475e-06,87.87610550459416,5.281248365757904,3.986638591731395,1.3811673544424956,0.0,0.0,0.0,0.0,0.0,0.0,0.0,10.19,1.0,-1.0,-0.2,974.9203598982722,974.9203598982722,750.976966059353,0.0
0.2640000000000029,7.024498392357726,3.322062323878557,0.02499990002790885,-179.9999436735288,-5.7292701029035475e-06,87.87610550459416,5.275972736894916,3.9886498108260993,1.3940328999915763,0.0,0.0,0.0,0.0,0.0,0.0,0.0,10.19,1.0,-1.0,-0.2,974.9203598982722,974.9203598982722,750.976966059353,0.0
0.2680000000000007,7.024498392357726,3.322062323878557,0.02499990002790885,-179.9999436735288,-5.7292701029035475e-06,87.87610550459416,5.274740337613062,3.9891196363260226,1.3965969466076735,0.0,0.0,0.0,0.0,0.0,0.0,0.0,10.19,1.0,-1.0,-0.2,974.9203598982722,974.9203598982722,750.976966059353,0.0
0.2680000000000007,7.024498392357726,3.322062323878557,0.02499990002790885,-179.9999436735288,-5.7292701029035475e-06,87.87610550459416,5.264200794684494,3.993137608502971,1.4091910284513902,0.0,0.0,0.0,0.0,0.0,0.0,0.0,10.19,1.0,-1.0,-0.2,974.9203598982722,974.9203598982722,750.976966059353,0.0
0.27199999999999847,7.024498392357726,3.322062323878557,0.02499990002790885,-179.9999436735288,-5.7292701029035475e-06,87.87610550459416,5.262181551715326,3.993907401094889,1.411700888146683,0.0,0.0,0.0,0.0,0.0,0.0,0.0,10.19,1.0,-1.0,-0.2,974.9203598982722,974.9203598982722,750.976966059353,0.0
0.27199999999999847,7.024498392357726,3.322062323878557,0.02499990002790885,-179.9999436735288,-5.7292701029035475e-06,87.87610550459416,5.254277194916811,3.9969207657074115,1.4240266979152336,0.0,0.0,0.0,0.0,0.0,0.0,0.0,10.19,1.0,-1.0,-0.2,974.9203598982722,974.9203598982722,750.976966059353,0.0
0.27600000000000335,7.024498392357726,3.322062323878557,0.02499990002790885,-179.9999436735288,-5.7292701029035475e-06,87.87610550459416,5.25277902197653,3.9974919116509406,1.4264830129643773,0.0,0.0,0.0,0.0,0.0,0.0,0.0,10.19,1.0,-1.0,-0.2,974.9203598982722,974.9203598982722,750.976966059353,0.0
0.27600000000000335,7.024498392357726,3.322062323878557,0.02499990002790885,-179.9999436735288,-5.7292701029035475e-06,87.87610550459416,5.247332156590564,3.9995684109565297,1.4385438589836703,0.0,0.0,0.0,0.0,0.0,0.0,0.0,10.19,1.0,-1.0,-0.2,974.9203598982722,974.9203598982722,750.976966059353,0.0
0.28000000000000114,7.024498392357726,3.322062323878557,0.02499990002790885,-179.9999436735288,-5.7292701029035475e-06,87.87610550459416,5.246066952032661,4.000050742756519,1.4409472945781578,0.0,0.0,0.0,0.0,0.0,0.0,0.0,10.19,1.0,-1.0,-0.2,974.9203598982722,974.9203598982722,750.976966059353,0.0
0.28000000000000114,7.024498392357726,3.322062323878557,0.02499990002790885,-179.9999436735288,-5.7292701029035475e-06,87.87610550459416,5.2353990303536815,4.004117656547991,1.4527465893071354,0.0,0.0,0.0,0.0,0.0,0.0,0.0,10.19,1.0,-1.0,-0.2,974.9203598982722,974.9203598982722,750.976966059353,0.0
0.2839999999999989,7.024498392357726,3.322062323878557,0.02499990002790885,-179.9999436735288,-5.7292701029035475e-06,87.87610550459416,5.233355456606948,4.00489672472121,1.455097831068365,0.0,0.0,0.0,0.0,0.0,0.0,0.0,10.19,1.0,-1.0,-0.2,974.9203598982722,974.9203598982722,750.976966059353,0.0
0.2839999999999989,7.024498392357726,3.322062323878557,0.02499990002790885,-179.9999436735288,-5.7292701029035475e-06,87.87610550459416,5.225362688639473,4.0079437941745795,1.4666390792981887,0.0,0.0,0.0,0.0,0.0,0.0,0.0,10.19,1.0,-1.0,-0.2,974.9203598982722,974.9203598982722,750.976966059353,0.0
0.2880000000000038,7.024498392357726,3.322062323878557,0.02499990002790885,-179.9999436735288,-5.7292701029035475e-06,87.87610550459416,5.223848086574432,4.008521203365635,1.4689388309415499,0.0,0.0,0.0,0.0,0.0,0.0,0.0,10.19,1.0,-1.0,-0.2,974.9203598982722,974.9203598982722,750.976966059353,0.0
0.2880000000000038,7.024498392357726,3.322062323878557,0.02499990002790885,-179.9999436735288,-5.7292701029035475e-06,87.87610550459416,5.218350042143953,4.010617213572056,1.4802256187174871,0.0,0.0,0.0,0.0,0.0,0.0,0.0,10.19,1.0,-1.0,-0.2,974.9203598982722,974.9203598982722,750.976966059353,0.0
0.2920000000000016,7.024498392357726,3.322062323878557,0.02499990002790885,-179.9999436735288,-5.7292701029035475e-06,87.87610550459416,5.2170757679629745,4.011103002969156,1.4824745998597373,0.0,0.0,0.0,0.0,0.0,0.0,0.0,10.19,1.0,-1.0,-0.2,974.9203598982722,974.9203598982722,750.976966059353,0.0
0.2920000000000016,7.024498392357726,3.322062323878557,0.02499990002790885,-179.9999436735288,-5.7292701029035475e-06,87.87610550459416,5.2063913111212035,4.0151762204328545,1.4935105840884448,0.0,0.0,0.0,0.0,0.0,0.0,0.0,10.19,1.0,-1.0,-0.2,974.9203598982722,974.9203598982722,750.976966059353,0.0
0.2959999999999994,7.024498392357726,3.322062323878557,0.02499990002790885,-179.9999436735288,-5.7292701029035475e-06,87.87610550459416,5.204345514304195,4.015956136103405,1.495709528191009,0.0,0.0,0.0,0.0,0.0,0.0,0.0,10.19,1.0,-1.0,-0.2,974.9203598982722,974.9203598982722,750.976966059353,0.0
0.2959999999999994,7.024498392357726,3.322062323878557,0.02499990002790885,-179.9999436735288,-5.7292701029035475e-06,87.87610550459416,5.196368406854498,4.018997235323992,1.5064984268976949,0.0,0.0,0.0,0.0,0.0,0.0,0.0,10.19,1.0,-1.0,-0.2,974.9203598982722,974.9203598982722,750.976966059353,0.0
0.30000000000000426,7.024498392357726,3.322062323878557,0.02499990002790885,-179.9999436735288,-5.7292701029035475e-06,87.87610550459416,5.194857943101915,4.019573066873169,1.5086480793387702,0.0,0.0,0.0,0.0,0.0,0.0,0.0,10.19,1.0,-1.0,-0.2,974.9203598982722,974.9203598982722,750.976966059353,0.0
0.30000000000000426,7.024498392357726,3.322062323878557,0.02499990002790885,-179.9999436735288,-5.7292701029035475e-06,87.87610550459416,5.189405439869111,4.0216517154856,1.5191936625404074,0.0,0.0,0.0,0.0,0.0,0.0,0.0,10.19,1.0,-1.0,-0.2,974.9203598982722,974.9203598982722,750.976966059353,0.0
0.30400000000000205,7.024498392357726,3.322062323878557,0.02499990002790885,-179.9999436735288,-5.7292701029035475e-06,87.87610550459416,5.188141206634474,4.022133676989658,1.5212947788091984,0.0,0.0,0.0,0.0,0.0,0.0,0.0,10.19,1.0,-1.0,-0.2,974.9203598982722,974.9203598982722,750.976966059353,0.0
0.30400000000000205,7.024498392357726,3.322062323878557,0.02499990002790885,-179.9999436735288,-5.7292701029035475e-06,87.87610550459416,5.177529983345708,4.026178975749445,1.5316008599715927,0.0,0.0,0.0,0.0,0.0,0.0,0.0,10.19,1.0,-1.0,-0.2,974.9203598982722,974.9203598982722,750.976966059353,0.0
0.30799999999999983,7.024498392357726,3.322062323878557,0.02499990002790885,-179.9999436735288,-5.7292701029035475e-06,87.87610550459416,5.175499696486573,4.0269529785849105,1.5336542039783216,0.0,0.0,0.0,0.0,0.0,0.0,0.0,10.19,1.0,-1.0,-0.2,974.9203598982722,974.9203598982722,750.976966059353,0.0
0.30799999999999983,7.024498392357726,3.322062323878557,0.02499990002790885,-179.9999436735288,-5.7292701029035475e-06,87.87610550459416,5.167621447074918,4.029956390322367,1.543724632026373,0.0,0.0,0.0,0.0,0.0,0.0,0.0,10.19,1.0,-1.0,-0.2,974.9203598982722,974.9203598982722,750.976966059353,0.0
0.3120000000000047,7.024498392357726,3.322062323878557,0.02499990002790885,-179.9999436735288,-5.7292701029035475e-06,87.87610550459416,5.165878670619078,4.030620786051638,1.5457309745219172,0.0,0.0,0.0,0.0,0.0,0.0,0.0,10.19,1.0,-1.0,-0.2,974.9203598982722,974.9203598982722,750.976966059353,0.0
0.3120000000000047,7.024498392357726,3.322062323878557,0.02499990002790885,-179.9999436735288,-5.7292701029035475e-06,87.87610550459416,5.153038330473083,4.035515887271759,1.5555696263738947,0.0,0.0,0.0,0.0,0.0,0.0,0.0,10.19,1.0,-1.0,-0.2,974.9203598982722,974.9203598982722,750.976966059353,0.0
0.3160000000000025,7.024498392357726,3.322062323878557,0.02499990002790885,-179.9999436735288,-5.7292701029035475e-06,87.87610550459416,5.150568451822464,4.036457474944573,1.5575297434732949,0.0,0.0,0.0,0.0,0.0,0.0,0.0,10.19,1.0,-1.0,-0.2,974.9203598982722,974.9203598982722,750.976966059353,0.0
0.3160000000000025,7.024498392357726,3.322062323878557,0.02499990002790885,-179.9999436735288,-5.7292701029035475e-06,87.87610550459416,5.140646559111028,4.040239981370839,1.567140517071355,0.0,0.0,0.0,0.0,0.0,0.0,0.0,10.19,1.0,-1.0,-0.2,974.9203598982722,974.9203598982722,750.976966059353,0.0
0.3200000000000003,7.024498392357726,3.322062323878557,0.02499990002790885,-179.9999436735288,-5.7292701029035475e-06,87.87610550459416,5.138500929835121,4.04105795600134,1.569055188875716,0.0,0.0,0.0,0.0,0.0,0.0,0.0,10.19,1.0,-1.0,-0.2,974.9203598982722,974.9203598982722,750.976966059353,0.0
0.3200000000000003,7.024498392357726,3.322062323878557,0.02499990002790885,-179.9999436735288,-5.7292701029035475e-06,87.87610550459416,5.123791821401504,4.046665484604293,1.5784419966862298,0.0,0.0,0.0,0.0,0.0,0.0,0.0,10.19,1.0,-1.0,-0.2,974.9203598982722,974.9203598982722,750.976966059353,0.0
0.3240000000000052,7.024498392357726,3.322062323878557,0.02499990002790885,-179.9999436735288,-5.7292701029035475e-06,87.87610550459416,5.120953727011572,4.047747446542451,1.580312005997709,0.0,0.0,0.0,0.0,0.0,0.0,0.0,10.19,1.0,-1.0,-0.2,974.9203598982722,974.9203598982722,750.976966059353,0.0
0.3240000000000052,7.024498392357726,3.322062323878557,0.02499990002790885,-179.9999436735288,-5.7292701029035475e-06,87.87610550459416,5.109327873577721,4.052179551041393,1.589478768956252,0.0,0.0,0.0,0.0,0.0,0.0,0.0,10.19,1.0,-1.0,-0.2,974.9203598982722,974.9203598982722,750.976966059353,0.0
0.32800000000000296,7.024498392357726,3.322062323878557,0.02499990002790885,-179.9999436735288,-5.7292701029035475e-06,87.87610550459416,5.107099551077869,4.053029050670205,1.5913049000811765,0.0,0.0,0.0,0.0,0.0,0.0,0.0,10.19,1.0,-1.0,-0.2,974.9203598982722,974.9203598982722,750.976966059353,0.0
0.32800000000000296,7.024498392357726,3.322062323878557,0.02499990002790885,-179.9999436735288,-5.7292701029035475e-06,87.87610550459416,5.098352094285712,4.056363828871514,1.6002555419582543,0.0,0.0,0.0,0.0,0.0,0.0,0.0,10.19,1.0,-1.0,-0.2,974.9203598982722,974.9203598982722,750.976966059353,0.0
0.33200000000000074,7.024498392357726,3.322062323878557,0.02499990002790885,-179.9999436735288,-5.7292701029035475e-06,87.87610550459416,5.096440056148189,4.057092751946253,1.6020385795936534,0.0,0.0,0.0,0.0,0.0,0.0,0.0,10.19,1.0,-1.0,-0.2,974.9203598982722,974.9203598982722,750.976966059353,0.0
0.33200000000000074,7.024498392357726,3.322062323878557,0.02499990002790885,-179.9999436735288,-5.7292701029035475e-06,87.87610550459416,5.08286668085129,4.062267306920775,1.6107770217583994,0.0,0.0,0.0,0.0,0.0,0.0,0.0,10.19,1.0,-1.0,-0.2,974.9203598982722,974.9203598982722,750.976966059353,0.0
0.3359999999999985,7.024498392357726,3.322062323878557,0.02499990002790885,-179.9999436735288,-5.7292701029035475e-06,87.87610550459416,5.080254480634238,4.063263151604351,1.612517749957369,0.0,0.0,0.0,0.0,0.0,0.0,0.0,10.19,1.0,-1.0,-0.2,974.9203598982722,974.9203598982722,750.976966059353,0.0
0.3359999999999985,7.024498392357726,3.322062323878557,0.02499990002790885,-179.9999436735288,-5.7292701029035475e-06,87.87610550459416,5.06972695913464,4.067276540872206,1.621047906517569,0.0,0.0,0.0,0.0,0.0,0.0,0.0,10.19,1.0,-1.0,-0.2,974.9203598982722,974.9203598982722,750.976966059353,0.0
0.3400000000000034,7.024498392357726,3.322062323878557,0.02499990002790885,-179.9999436735288,-5.7292701029035475e-06,87.87610550459416,5.067717092657913,4.068042758879724,1.622747107729232,0.0,0.0,0.0,0.0,0.0,0.0,0.0,10.19,1.0,-1.0,-0.2,974.9203598982722,974.9203598982722,750.976966059353,0.0
0.3400000000000034,7.024498392357726,3.322062323878557,0.02499990002790885,-179.9999436735288,-5.7292701029035475e-06,87.87610550459416,5.060031823387039,4.070972601123549,1.6310728810270816,0.0,0.0,0.0,0.0,0.0,0.0,0.0,10.19,1.0,-1.0,-0.2,974.9203598982722,974.9203598982722,750.976966059353,0.0
0.3440000000000012,7.024498392357726,3.322062323878557,0.02499990002790885,-179.9999436735288,-5.7292701029035475e-06,87.87610550459416,5.0583310530334735,4.071620982937288,1.6327313352070187,0.0,0.0,0.0,0.0,0.0,0.0,0.0,10.19,1.0,-1.0,-0.2,974.9203598982722,974.9203598982722,750.976966059353,0.0
0.3440000000000012,7.024498392357726,3.322062323878557,0.02499990002790885,-179.9999436735288,-5.7292701029035475e-06,87.87610550459416,5.04578493442398,4.07640391857722,1.6408566116510415,0.0,0.0,0.0,0.0,0.0,0.0,0.0,10.19,1.0,-1.0,-0.2,974.9203598982722,974.9203598982722,750.976966059353,0.0
0.347999999999999,7.024498392357726,3.322062323878557,0.02499990002790885,-179.9999436735288,-5.7292701029035475e-06,87.87610550459416,5.043377055071232,4.077321870362261,1.64247509543836,0.0,0.0,0.0,0.0,0.0,0.0,0.0,10.19,1.0,-1.0,-0.2,974.9203598982722,974.9203598982722,750.976966059353,0.0
0.347999999999999,7.024498392357726,3.322062323878557,0.02499990002790885,-179.9999436735288,-5.7292701029035475e-06,87.87610550459416,5.033843031316863,4.08095651016012,1.650403741652867,0.0,0.0,0.0,0.0,0.0,0.0,0.0,10.19,1.0,-1.0,-0.2,974.9203598982722,974.9203598982722,750.976966059353,0.0
0.35200000000000387,7.024498392357726,3.322062323878557,0.02499990002790885,-179.9999436735288,-5.7292701029035475e-06,87.87610550459416,5.032030771815995,4.081647394793472,1.651983027610156,0.0,0.0,0.0,0.0,0.0,0.0,0.0,10.19,1.0,-1.0,-0.2,974.9203598982722,974.9203598982722,750.976966059353,0.0
0.35200000000000387,7.024498392357726,3.322062323878557,0.02499990002790885,-179.9999436735288,-5.7292701029035475e-06,87.87610550459416,5.025306373020413,4.0842109260063975,1.659718886884556,0.0,0.0,0.0,0.0,0.0,0.0,0.0,10.19,1.0,-1.0,-0.2,974.9203598982722,974.9203598982722,750.976966059353,0.0
0.35600000000000165,7.024498392357726,3.322062323878557,0.02499990002790885,-179.9999436735288,-5.7292701029035475e-06,87.87610550459416,5.023796720788979,4.0847864481807346,1.6612597427972489,0.0,0.0,0.0,0.0,0.0,0.0,0.0,10.19,1.0,-1.0,-0.2,974.9203598982722,974.9203598982722,750.976966059353,0.0
0.35600000000000165,7.024498392357726,3.322062323878557,0.02499990002790885,-179.9999436735288,-5.7292701029035475e-06,87.87610550459416,5.018501986805644,4.08680495068825,1.6688066318183914,0.0,0.0,0.0,0.0,0.0,0.0,0.0,10.19,1.0,-1.0,-0.2,974.9203598982722,974.9203598982722,750.976966059353,0.0
0.35999999999999943,7.024498392357726,3.322062323878557,0.02499990002790885,-179.9999436735288,-5.7292701029035475e-06,87.87610550459416,5.017527963241137,4.08717627604917,1.6703098200502229,0.0,0.0,0.0,0.0,0.0,0.0,0.0,10.19,1.0,-1.0,-0.2,974.9203598982722,974.9203598982722,750.976966059353,0.0
0.35999999999999943,7.024498392357726,3.322062323878557,0.02499990002790885,-179.9999436735288,-5.7292701029035475e-06,87.87610550459416,5.014756325874158,4.08823290268854,1.6776715259017894,0.0,0.0,0.0,0.0,0.0,0.0,0.0,10.19,1.0,-1.0,-0.2,974.9203598982722,974.9203598982722,750.976966059353,0.0
0.3640000000000043,7.024498392357726,3.322062323878557,0.02499990002790885,-179.9999436735288,-5.7292701029035475e-06,87.87610550459416,5.0140281191027105,4.088510515727982,1.6791378028031283,0.0,0.0,0.0,0.0,0.0,0.0,0.0,10.19,1.0,-1.0,-0.2,974.9203598982722,974.9203598982722,750.976966059353,0.0
0.3640000000000043,7.024498392357726,3.322062323878557,0.02499990002790885,-179.9999436735288,-5.7292701029035475e-06,87.87610550459416,5.006092921969719,4.0915356375492085,1.6863180802168898,0.0,0.0,0.0,0.0,0.0,0.0,0.0,10.19,1.0,-1.0,-0.2,974.9203598982722,974.9203598982722,750.976966059353,0.0
0.3680000000000021,7.024498392357726,3.322062323878557,0.02499990002790885,-179.9999436735288,-5.7292701029035475e-06,87.87610550459416,5.004597589613175,4.09210570058179,1.6877481955829605,0.0,0.0,0.0,0.0,0.0,0.0,0.0,10.19,1.0,-1.0,-0.2,974.9203598982722,974.9203598982722,750.976966059353,0.0
0.3680000000000021,7.024498392357726,3.322062323878557,0.02499990002790885,-179.9999436735288,-5.7292701029035475e-06,87.87610550459416,4.999387438259882,4.094091957795893,1.6947507644274717,0.0,0.0,0.0,0.0,0.0,0.0,0.0,10.19,1.0,-1.0,-0.2,974.9203598982722,974.9203598982722,750.976966059353,0.0
0.3719999999999999,7.024498392357726,3.322062323878557,0.02499990002790885,-179.9999436735288,-5.7292701029035475e-06,87.87610550459416,4.998430816346819,4.094456649154578,1.696145461003627,0.0,0.0,0.0,0.0,0.0,0.0,0.0,10.19,1.0,-1.0,-0.2,974.9203598982722,974.9203598982722,750.976966059353,0.0
0.3719999999999999,7.024498392357726,3.322062323878557,0.02499990002790885,-179.9999436735288,-5.7292701029035475e-06,87.87610550459416,4.995758154173832,4.095475543647653,1.7029740039966572,0.0,0.0,0.0,0.0,0.0,0.0,0.0,10.19,1.0,-1.0,-0.2,974.9203598982722,974.9203598982722,750.976966059353,0.0
0.3760000000000048,7.024498392357726,3.322062323878557,0.02499990002790885,-179.9999436735288,-5.7292701029035475e-06,87.87610550459416,4.995050188834899,4.095745440079913,1.7043340170279377,0.0,0.0,0.0,0.0,0.0,0.0,0.0,10.19,1.0,-1.0,-0.2,974.9203598982722,974.9203598982722,750.976966059353,0.0
0.3760000000000048,7.024498392357726,3.322062323878557,0.02499990002790885,-179.9999436735288,-5.7292701029035475e-06,87.87610550459416,4.987227206571964,4.098727782415465,1.7109921776596233,0.0,0.0,0.0,0.0,0.0,0.0,0.0,10.19,1.0,-1.0,-0.2,974.9203598982722,974.9203598982722,750.976966059353,0.0
0.38000000000000256,7.024498392357726,3.322062323878557,0.02499990002790885,-179.9999436735288,-5.7292701029035475e-06,87.87610550459416,4.985754727039497,4.099289133304462,1.7123182344820478,0.0,0.0,0.0,0.0,0.0,0.0,0.0,10.19,1.0,-1.0,-0.2,974.9203598982722,974.9203598982722,750.976966059353,0.0
0.38000000000000256,7.024498392357726,3.322062323878557,0.02499990002790885,-179.9999436735288,-5.7292701029035475e-06,87.87610550459416,4.980668942535685,4.1012279783542684,1.718809615136413,0.0,0.0,0.0,0.0,0.0,0.0,0.0,10.19,1.0,-1.0,-0.2,974.9203598982722,974.9203598982722,750.976966059353,0.0
0.38400000000000034,7.024498392357726,3.322062323878557,0.02499990002790885,-179.9999436735288,-5.7292701029035475e-06,87.87610550459416,4.979737569377925,4.101583044172549,1.72010243480757,0.0,0.0,0.0,0.0,0.0,0.0,0.0,10.19,1.0,-1.0,-0.2,974.9203598982722,974.9203598982722,750.976966059353,0.0
0.38400000000000034,7.024498392357726,3.322062323878557,0.02499990002790885,-179.9999436735288,-5.7292701029035475e-06,87.87610550459416,4.977200400277137,4.102550284870203,1.726430595070684,0.0,0.0,0.0,0.0,0.0,0.0,0.0,10.19,1.0,-1.0,-0.2,974.9203598982722,974.9203598982722,750.976966059353,0.0
0.3879999999999981,7.024498392357726,3.322062323878557,0.02499990002790885,-179.9999436735288,-5.7292701029035475e-06,87.87610550459416,4.976772758390536,4.102713314065464,1.7276908880372521,0.0,0.0,0.0,0.0,0.0,0.0,0.0,10.19,1.0,-1.0,-0.2,974.9203598982722,974.9203598982722,750.976966059353,0.0
0.3879999999999981,7.024498392357726,3.322062323878557,0.02499990002790885,-179.9999436735288,-5.7292701029035475e-06,87.87610550459416,4.976605794594081,4.102776965392021,1.733859343180892,0.0,0.0,0.0,0.0,0.0,0.0,0.0,10.19,1.0,-1.0,-0.2,974.9203598982722,974.9203598982722,750.976966059353,0.0
0.392000000000003,7.024498392357726,3.322062323878557,0.02499990002790885,-179.9999436735288,-5.7292701029035475e-06,87.87610550459416,4.9763936447392965,4.102857842923394,1.7350878109809222,0.0,0.0,0.0,0.0,0.0,0.0,0.0,10.19,1.0,-1.0,-0.2,974.9203598982722,974.9203598982722,750.976966059353,0.0
0.392000000000003,7.024498392357726,3.322062323878557,0.02499990002790885,-179.9999436735288,-5.7292701029035475e-06,87.87610550459416,4.970917786141542,4.10494539526222,1.7411000306111744,0.0,0.0,0.0,0.0,0.0,0.0,0.0,10.19,1.0,-1.0,-0.2,974.9203598982722,974.9203598982722,750.976966059353,0.0
0.3960000000000008,7.024498392357726,3.322062323878557,0.02499990002790885,-179.9999436735288,-5.7292701029035475e-06,87.87610550459416,4.969656803442326,4.1054261175701425,1.7422973656090095,0.0,0.0,0.0,0.0,0.0,0.0,0.0,10.19,1.0,-1.0,-0.2,974.9203598982722,974.9203598982722,750.976966059353,0.0
