Time_s,X,Y,Z,Roll_deg,Pitch_deg,Yaw_deg,Ref_X,Ref_Y,Ref_Z,Ref_Yaw,vx,vy,vz,p,q,r,T_pert,tau_x,tau_y,tau_z,RPM_0,RPM_1,RPM_2,RPM_3
0.0040000000000000036,3.540239794309915e-22,6.0,0.010006999594037988,1.030927412343402e-18,1.9273866450044995e-18,-5.1486728461073835e-21,2.3111489085355726e-22,6.0,7.200000000000012e-05,0.0,2.453515573794988e-19,1200.0,2.0013999188075973,0.0,0.0,0.0,-10.19,-1.2038473377160515e-18,-3.682924215251166e-18,6.014464043099446e-21,0.0,0.0,0.0,0.0
0.008000000000000007,2.463424419293038e-22,6.0,0.010010999365392528,-6.049892775711399e-19,8.292770768298355e-19,2.077115276712925e-20,2.3111489085355726e-22,6.0,0.00021513340800000038,0.0,1.2433464212901758e-19,666.6666666666666,1.1123332628213918,0.0,0.0,0.0,-0.034338475932384316,1.83909593154603e-18,3.7322593574647986e-18,-3.006667449383035e-20,534.6826504237879,534.682650423788,534.6826504237879,534.682650423788
0.01200000000000001,3.5954728654889722e-22,6.0,0.01001499913738627,-1.9454571916535454e-18,1.469303538974356e-18,8.161334934260819e-21,2.3111489085355726e-22,6.0,0.00042854147030131276,0.0,2.848467212914656e-20,-7.043049079798053e-24,0.0009999429025551315,0.0,0.0,0.0,0.11268126795424338,1.6063810505885313e-18,-3.2910117433485094e-18,1.387624018908551e-20,538.6882898857357,538.6882898857358,538.6882898857357,538.6882898857358
0.016000000000000014,4.581276912995195e-22,6.0,0.010018998918163225,-4.0804427613750004e-18,1.3990146853642064e-18,-1.0857224334089168e-19,2.3111489085355726e-22,6.0,0.0007113732083620786,0.0,2.104458875764129e-20,-3.9001474784751314e-23,0.0009999438447967288,0.0,0.0,0.0,0.26021500567542344,2.6271876176443114e-18,5.304867740191163e-20,1.360264873893899e-19,542.6782123982766,542.6782123982767,542.6782123982766,542.6782123982766
0.020000000000000018,6.99335091705615e-22,6.0,0.010022998716742462,-5.5807762505662604e-18,3.2701403157929963e-18,-3.047527279096778e-20,2.3111489085355726e-22,6.0,0.0010627853561306145,0.0,5.134506877507972e-20,-7.144562821915798e-23,0.0009999465672663743,0.0,0.0,0.0,0.4082515376313835,2.0349278869380315e-18,-4.032181084869668e-18,-8.676536602227809e-20,546.6524625312177,546.6524625312178,546.6524625312177,546.6524625312177
0.023999999999999994,7.20539373568353e-22,6.0,0.010026998537345124,-6.340198059266518e-18,3.744705083882156e-18,1.4013484795953174e-20,2.3111489085355726e-22,6.0,0.001481942297853104,0.0,2.257147204601887e-20,-9.871347916258576e-23,0.000999951136014185,0.0,0.0,0.0,0.5567797919767445,1.2762337945580801e-18,1.5717700606422376e-18,-5.071044416845545e-20,550.6110856194592,550.6110856194593,550.6110856194592,550.6110856194593
0.027999999999999997,7.484786556052751e-22,6.0,0.010030998381149596,-7.030089669545572e-18,4.267326266424542e-18,3.202034973875414e-20,2.3111489085355726e-22,6.0,0.001968016006352204,0.0,1.4538307643314265e-20,-1.131370241657495e-22,0.0009999566282590383,0.0,0.0,0.0,0.7057888087295738,1.2513984873140536e-18,-9.796559892881762e-19,-2.1603235857987593e-20,554.5541273293652,554.5541273293653,554.5541273293652,554.5541273293652
0.032,7.852768293106452e-22,6.0,0.010034998247616826,-7.669824120980087e-18,4.627789416646902e-18,-1.0543254665222359e-19,2.3111489085355726e-22,6.0,0.002520185981773086,0.0,5.3749493587519904e-21,-1.2212659490162922e-22,0.000999962346033903,0.0,0.0,0.0,0.8552677395992794,1.2449127013008179e-18,-8.598912268091934e-19,1.5925669294594445e-19,558.4816336552688,558.4816336552689,558.4816336552688,558.4816336552688
0.036000000000000004,7.845157464418737e-22,6.0,0.01003899813551591,-7.927915961443986e-18,4.2800023651851595e-18,1.0671465598409699e-20,2.3111489085355726e-22,6.0,0.0031376391907935734,0.0,1.3720866332855782e-20,-1.331796857493409e-22,0.0009999679149415644,0.0,0.0,0.0,1.0052058475720083,8.483573673088351e-19,4.721431457030989e-19,-1.312862524380401e-19,562.3936509099195,562.3936509099196,562.3936509099195,562.3936509099195
0.04000000000000001,8.033620327359881e-22,6.0,0.010042998043109617,-8.044234260082392e-18,4.480337426217031e-18,2.082445444128148e-19,2.3111489085355726e-22,6.0,0.0038195700062949468,0.0,1.493433169455168e-21,-1.3992800881744948e-22,0.000999973149143872,0.0,0.0,0.0,1.155592507609741,7.059874713006726e-19,-7.822181120775276e-19,-2.312233542457385e-19,566.2902257441791,566.2902257441792,566.2902257441791,566.2902257441791
0.04400000000000001,8.30839684081449e-22,6.0,0.010046997968404144,-8.047812575514607e-18,4.898290988556763e-18,3.2197311655715374e-19,2.3111489085355726e-22,6.0,0.004565180147490077,0.0,1.7665354889164096e-20,-1.40127990865035e-22,0.0009999779425208521,0.0,0.0,0.0,1.3064172055486525,5.879073966712152e-19,-9.419137221527528e-19,-1.4140723674686138e-19,570.1714051198242,570.1714051198243,570.1714051198242,570.1714051198242
0.048000000000000015,7.623245937838284e-22,6.0,0.010050997909453099,-8.094471412225253e-18,4.37292986253708e-18,4.2619992827631525e-19,2.3111489085355726e-22,6.0,0.0053736786205055564,0.0,-5.049415958237137e-21,-1.4101381224288056e-22,0.000999982249055148,0.0,0.0,0.0,1.4576695370232156,6.440770437997722e-19,1.3391011447193079e-18,-1.3500021716883606e-19,574.0372362842013,574.0372362842014,574.0372362842013,574.0372362842013
0.05200000000000002,7.608567116118867e-22,6.0,0.010054997864542402,-8.120415272152338e-18,4.406168683092838e-18,7.646229046405057e-12,2.3111489085355726e-22,6.0,0.006244281659414512,0.0,-8.964838808854257e-21,-1.4184120764029812e-22,0.0009999860861855878,0.0,0.0,0.0,1.609339206747878,6.287291433483281e-19,-1.0995812781685117e-18,-8.932004142912862e-12,577.887766769156,577.8877667691561,577.8877667409037,577.8877667409037
0.05600000000000002,9.98494958453616e-22,6.0,0.010058997832088492,-8.140466121124758e-18,4.3259392861698e-18,9.590952130055444e-12,2.3111489085355726e-22,6.0,0.007176212667716821,0.0,2.0727722324271747e-20,-1.4245750870048597e-22,0.0009999895007509196,0.0,0.0,0.0,1.7614160281501525,6.292909055534193e-19,-3.0330475663460035e-18,-2.5862566579355782e-12,581.7230443187759,581.7230443187761,581.7230443106494,581.7230443106495
0.060000000000000026,5.238926154281656e-22,6.0,0.010062997810667001,-8.059887501315756e-18,4.3980692395160206e-18,1.1251959464300134e-11,2.3111489085355726e-22,6.0,0.008168702160263464,0.0,-2.3077588875406644e-20,-1.4180432533821803e-22,0.000999992532578313,0.0,0.0,0.0,1.9138899221735957,5.188368569005686e-19,7.675208726408406e-18,-2.335357961335195e-12,585.5431169878528,585.543116987853,585.5431169805626,585.5431169805626
0.06400000000000003,1.8569505359038143e-22,6.0,0.01006699779907604,-8.212824872186635e-18,4.3001578763135605e-18,1.2660814026196842e-11,2.3111489085355726e-22,6.0,0.00922098770562178,0.0,-8.204613061525747e-20,-1.419621905543998e-22,0.000999995221269423,0.0,0.0,0.0,2.066750916278578,7.916377500958445e-19,-1.4251875732138356e-18,-2.109795491517163e-12,589.3480330061539,589.348033006154,589.3480329996102,589.3480329996103
0.06800000000000003,1.2784860576724222e-22,6.0,0.010071017890273197,-4.216672070148695e-18,4.620001577781099e-18,6.057039145526481e-08,2.3111489085355726e-22,6.0,0.010332313868878392,0.0,-7.487870884687316e-20,-1.289054255694549e-22,0.0010020070185788946,0.0,0.0,0.0,2.2199483626733656,-4.037197406734044e-18,-3.694099111566086e-18,-7.07415281401826e-08,593.1369444647813,593.1369444647813,593.1367264586524,593.1367264586524
0.07200000000000004,-2.7410249089003104e-22,6.0,0.01007697662475263,2.640511057429894e-17,3.1631851226092234e-17,8.563486582703772e-07,2.3111489085355726e-22,6.0,0.011501932154876646,0.0,-6.444121231138942e-20,9.08620447429476e-23,0.0011978821032125261,0.0,0.0,0.0,2.3696189287637375,-3.5399130563452205e-17,-2.784295622425443e-17,-9.320862986053686e-07,596.8166122196048,596.816612219605,596.8137574870916,596.8137574870916
0.07599999999999998,-6.355976965492425e-22,6.0,0.010089746999113249,9.138383027460723e-17,6.086652786643377e-17,2.4218645840398227e-06,2.3111489085355726e-22,6.0,0.012729100951885328,0.0,-8.490711649562525e-20,1.6970885320588405e-21,0.0020749202464668756,0.0,0.0,0.0,2.5096956719115506,-7.763126338497243e-17,-3.649707802667083e-17,-1.8639986035965312e-06,600.2401716039125,600.2401716039126,600.2344952202639,600.234495220264
0.07999999999999999,-1.0361503778451218e-21,6.0,0.010113975158212472,1.626499284614882e-16,1.0894528852087377e-16,4.603873778393944e-06,2.3111489085355726e-22,6.0,0.014013085475695655,0.0,-1.0662432467181709e-19,7.558397045804506e-21,0.0040519233604907265,0.0,0.0,0.0,2.6404740659100594,-8.948043587192237e-17,-5.964433537533801e-17,-2.6486144270173174e-06,603.4188119668796,603.4188119668798,603.4107886869677,603.4107886869679
0.08399999999999999,-1.4505821299044735e-21,6.0,0.010153966897202108,2.575612556036696e-16,1.8620758101830486e-16,7.26408749619064e-06,2.3111489085355726e-22,6.0,0.015353157714143133,0.0,-1.1666390107252313e-19,2.268279881767305e-20,0.007175435515354225,0.0,0.0,0.0,2.762487245748453,-1.220786316605534e-16,-9.734081900348073e-17,-3.297154658973573e-06,606.3692584134579,606.369258413458,606.3593191348449,606.359319134845
0.088,-1.6226814472353541e-21,6.0,0.010213654691302457,3.6024369083562797e-16,2.893416116609776e-16,1.0281171544932272e-05,2.3111489085355726e-22,6.0,0.016748596372051533,0.0,-1.2016137444926834e-19,5.3161961270908524e-20,0.011350389720803968,0.0,0.0,0.0,2.8763461938636397,-1.3782327970209037e-16,-1.3593238384056945e-16,-3.82377970206497e-06,609.1095157538393,609.1095157538394,609.0980408056905,609.0980408056905
0.092,-1.7182274187065132e-21,6.0,0.010296614124980924,5.150523791021153e-16,4.652484027971259e-16,1.3550674558680746e-05,2.3111489085355726e-22,6.0,0.018198686816595637,0.0,-1.3636989145859825e-19,1.0920296538577802e-19,0.01648677465451876,0.0,0.0,0.0,2.9826405348941454,-2.0596596011041934e-16,-2.264319337014451e-16,-4.243253909248088e-06,611.6565268779216,611.6565268779216,611.6438461241634,611.6438461241634
0.096,-1.5915817564577469e-21,6.0,0.010406059653239692,7.59268641398487e-16,7.493883668113306e-16,1.6981073003512986e-05,2.3111489085355726e-22,6.0,0.019702721023079815,0.0,-1.979300824451345e-19,2.1287395816992117e-19,0.022494286841795965,0.0,0.0,0.0,3.081979958323042,-3.2131584051061194e-16,-3.6693172870393586e-16,-4.566407545554668e-06,614.0272319335394,614.0272319335393,614.0136381294773,614.0136381294774
0.1,-2.030006806251209e-22,6.0,0.010544937215949393,1.0718933139295573e-15,1.1240531602403322e-15,2.04936939498578e-05,2.3111489085355726e-22,6.0,0.02125999752112935,0.0,-2.5079475310554225e-19,3.972782084237073e-19,0.0292918044073635,0.0,0.0,0.0,3.174797789337296,-4.184287141631261e-16,-5.04895941880672e-16,-4.804505130729695e-06,616.2339647039196,616.2339647039195,616.2197133142918,616.2197133142919
0.10400000000000001,3.8199352834188436e-21,6.0,0.01071586861071989,1.4543449028506652e-15,1.571851924733534e-15,2.4021587675038084e-05,2.3111489085355726e-22,6.0,0.022869821341291532,0.0,-1.756121272072999e-19,6.965794061425575e-19,0.03680313937760617,0.0,0.0,0.0,3.261648895120935,-5.220942059674397e-16,-6.337639669746518e-16,-4.968016400773113e-06,618.2916188884881,618.2916188884878,618.276931520322,618.276931520322
0.10800000000000001,1.2209775307940277e-20,6.0,0.010921338862901135,1.9006728409343088e-15,2.0676727531119622e-15,2.750514947390503e-05,2.3111489085355726e-22,6.0,0.02453150396204348,0.0,1.0403134825299179e-19,1.1462026037804852e-18,0.04496915400214706,0.0,0.0,0.0,3.3427182919494536,-6.238529594027433e-16,-7.440005773967775e-16,-5.06277339281073e-06,620.2060489439082,620.206048943908,620.1911276365123,620.1911276365123
0.11200000000000002,2.65972967137255e-20,6.0,0.01116371343484099,2.3917101965776022e-15,2.618528005301295e-15,3.089472298980572e-05,2.3111489085355726e-22,6.0,0.026244363257203772,0.0,5.848878696416354e-19,1.7776387761028928e-18,0.05374735265065868,0.0,0.0,0.0,3.418160515843242,-7.079094778272115e-16,-8.663803128379263e-16,-5.0979466950651246e-06,621.9822238953222,621.9822238953219,621.9672418291948,621.9672418291948
0.11600000000000002,4.8966837023106436e-20,6.0,0.011445226065320387,2.938894781626622e-15,3.2170306170289625e-15,3.414999454450402e-05,2.3111489085355726e-22,6.0,0.02800772344374488,0.0,1.2915480755825139e-18,2.6238081835712216e-18,0.06310888278245781,0.0,0.0,0.0,3.4881586801402977,-8.087224444615776e-16,-9.898562705467995e-16,-5.082404421866962e-06,623.625631580097,623.6256315800966,623.6107345528416,623.6107345528416
0.12000000000000002,8.198466024348964e-20,6.0,0.011767897873826497,3.4841892288860764e-15,3.808113387710427e-15,3.7238158553485904e-05,2.3111489085355726e-22,6.0,0.02982091503000352,0.0,2.2903855959576355e-18,3.707146270774233e-18,0.0730131001376328,0.0,0.0,0.0,3.553064361990419,-8.459847848612568e-16,-1.0624328533801215e-15,-5.023252428535395e-06,625.1455530052593,625.145553005259,625.13086515892,625.1308651589198
0.12400000000000003,1.2804927389868573e-19,6.0,0.01213359010826055,3.995514781342783e-15,4.36958309727619e-15,4.0133155428317024e-05,2.3111489085355726e-22,6.0,0.03168327476428598,0.0,3.656052035701164e-18,5.014356516293424e-18,0.08341428414724486,0.0,0.0,0.0,3.613128949671303,-8.460391566950402e-16,-1.108272151046147e-15,-4.927012336060027e-06,626.5487632688383,626.5487632688379,626.5343890942293,626.5343890942293
0.12800000000000003,1.8932689610834063e-19,6.0,0.012544017755169334,4.464694385631879e-15,4.894808220736296e-15,4.28148902057889e-05,2.3111489085355726e-22,6.0,0.03359414558386553,0.0,5.4193365632322675e-18,6.5038037259352235e-18,0.09427205803441749,0.0,0.0,0.0,3.6685813910445066,-8.34579017380094e-16,-1.144241250590701e-15,-4.799568193720048e-06,627.8413856598993,627.8413856598988,627.8274121270088,627.8274121270088
0.13200000000000003,2.677889986251133e-19,6.0,0.013000753904811368,4.903551823132512e-15,5.3863345260196265e-15,4.52680241081058e-05,2.3111489085355726e-22,6.0,0.03555287656436911,0.0,7.516898780692717e-18,8.152949174432982e-18,0.10554979225486252,0.0,0.0,0.0,3.719646522670698,-8.3437139987318295e-16,-1.1808614871733687e-15,-4.645635925815164e-06,629.0293353284818,629.0293353284814,629.0158355048723,629.0158355048723
0.13600000000000004,3.653743953996147e-19,6.0,0.01350522829734237,5.317638784048049e-15,5.839356950422885e-15,4.748243351377789e-05,2.3111489085355726e-22,6.0,0.03755882286955033,0.0,9.943235865795188e-18,9.954677870160824e-18,0.11721180950143122,0.0,0.0,0.0,3.766556739934611,-8.388795494676195e-16,-1.2114625730460248e-15,-4.470661840654841e-06,630.1186051004393,630.1186051004387,630.1056362002064,630.1056362002062
0.14000000000000004,4.835692600652951e-19,6.0,0.014058781522626497,5.718025546557056e-15,6.2812245523554344e-15,4.94513972104442e-05,2.3111489085355726e-22,6.0,0.039611345701446074,0.0,1.2642397165008653e-17,1.191581750966384e-17,0.1292275216274558,0.0,0.0,0.0,3.809439093219731,-8.549100448148363e-16,-1.2683506544362446e-15,-4.2781881155343196e-06,631.1126547078676,631.1126547078671,631.1002637062514,631.1002637062513
0.144,6.243530882160324e-19,6.0,0.0146626332098052,6.13829834357089e-15,6.685328354101561e-15,5.1172333132688865e-05,2.3111489085355726e-22,6.0,0.04170981225091379,0.0,1.5610792443536533e-17,1.405930780390763e-17,0.141569600511518,0.0,0.0,0.0,3.848488118863145,-9.09502943031041e-16,-1.3010555889908504e-15,-4.072756798657002e-06,632.0164408178475,632.0164408178471,632.0046616852595,632.0046616852594
0.148,7.896649941197013e-19,6.0,0.015317930411883519,6.59733205115035e-15,7.019162664400304e-15,5.2645708821865144e-05,2.3111489085355726e-22,6.0,0.043853595648546885,0.0,1.892472896422329e-17,1.644962259017416e-17,0.1542137992964377,0.0,0.0,0.0,3.8838040958187743,-9.877899054754514e-16,-1.2950718165912524e-15,-3.857806969442849e-06,632.83267219315,632.8326721931494,632.8215291301564,632.8215291301564
0.152,9.809378701765696e-19,6.0,0.016025723993720164,7.090677297601969e-15,7.277557516566475e-15,5.3873552690806605e-05,2.3111489085355726e-22,6.0,0.046042074915965035,0.0,2.264943274293819e-17,1.9153444438275997e-17,0.16713777412524963,0.0,0.0,0.0,3.915537621014092,-1.0638522214431801e-15,-1.2746224990345318e-15,-3.6351638883891352e-06,633.5651655610109,633.5651655610104,633.5546777353181,633.5546777353181
0.156,1.199159153733893e-18,6.0,0.016786960260932255,7.635356095074197e-15,7.471575932944252e-15,5.486018267094741e-05,2.3111489085355726e-22,6.0,0.048274634917477195,0.0,2.6744385373319546e-17,2.221690215852502e-17,0.18031772328080795,0.0,0.0,0.0,3.9438594299900482,-1.1624824168237784e-15,-1.2585735821737867e-15,-3.407568227066114e-06,634.2181514446925,634.2181514446919,634.2083303834997,634.2083303834997
0.16,1.4453032365253146e-18,6.0,0.017602508331997672,8.235388336919235e-15,7.589065734512786e-15,5.5611981290918064e-05,2.3111489085355726e-22,6.0,0.050550666312114176,0.0,3.1181734586684024e-17,2.5697196991316304e-17,0.1937303820960298,0.0,0.0,0.0,3.968888122004236,-1.2696973394255996e-15,-1.2252176309328381e-15,-3.177592229726953e-06,634.7946108121854,634.7946108121849,634.7854608936913,634.7854608936913
0.164,1.7200342109989683e-18,6.0,0.018473169181941827,8.870134783622041e-15,7.621837626173116e-15,5.6137711090804215e-05,2.3111489085355726e-22,6.0,0.05286956550602828,0.0,3.597916265258758e-17,2.963279104649231e-17,0.20735630457320262,0.0,0.0,0.0,3.9907264848178428,-1.3570152547701586e-15,-1.1748435605975958e-15,-2.9482618189447314e-06,635.2971221527296,635.2971221527291,635.2886393137873,635.2886393137875
0.168,2.023464710202768e-18,6.0,0.019399687562646543,9.545081184821832e-15,7.583962529219265e-15,5.6447203997622414e-05,2.3111489085355726e-22,6.0,0.0552307346052572,0.0,4.1130828072676774e-17,3.4046142033569976e-17,0.22117933779742213,0.0,0.0,0.0,4.009455367762805,-1.4535560339780416e-15,-1.1297741272139615e-15,-2.7211702432691736e-06,635.7277227244994,635.7277227244988,635.719898588388,635.7198985883881
0.17200000000000001,2.3553416799905773e-18,6.0,0.02038273653501399,1.0280558496931353e-14,7.497204590568049e-15,5.6550161542509274e-05,2.3111489085355726e-22,6.0,0.05763358136884958,0.0,4.6527219466318566e-17,3.89727806979117e-17,0.235183502189484,0.0,0.0,0.0,4.025188885905507,-1.5770580993655827e-15,-1.1016196785960654e-15,-2.4965538140721248e-06,636.0891821710708,636.0891821710702,636.0820079536687,636.0820079536688
0.17600000000000002,2.7154120044625963e-18,6.0,0.021422912795022214,1.1079522145893046e-14,7.363049181365775e-15,5.6456657712735074e-05,2.3111489085355726e-22,6.0,0.060077519162349574,0.0,5.2103601001151914e-17,4.449534807122981e-17,0.2493510436694324,0.0,0.0,0.0,4.038053006301373,-1.708664018673144e-15,-1.0721116638796143e-15,-2.2752315762134206e-06,636.3845138557894,636.3845138557888,636.3779786781765,636.3779786781768
0.18000000000000002,3.1034782745749758e-18,6.0,0.022520747359083642,1.1926456971336046e-14,7.15856356350298e-15,5.617857022975873e-05,2.3111489085355726e-22,6.0,0.06256196691163772,0.0,5.7883384150618e-17,5.0679022108329983e-17,0.26366402213375517,0.0,0.0,0.0,4.048154524604104,-1.8270515107433453e-15,-1.0134545064059196e-15,-2.0597105311932672e-06,636.6162663825469,636.6162663825463,636.6103524054632,636.6103524054635
0.18400000000000002,3.519336488577339e-18,6.0,0.023676728651157074,1.2771088544039582e-14,6.837973281253904e-15,5.572881290611412e-05,2.3111489085355726e-22,6.0,0.0650863490571256,0.0,6.4012196253057e-17,5.747761074216033e-17,0.2781079370321383,0.0,0.0,0.0,4.05555555440237,-1.8906035779943663e-15,-8.96678957930332e-16,-1.8516758483193349e-06,636.7859378833691,636.7859378833684,636.7806226483509,636.7806226483511
0.18800000000000003,3.962015793840653e-18,6.0,0.024891290027591318,1.3637044150941109e-14,6.389482924379711e-15,5.511985560491992e-05,2.3111489085355726e-22,6.0,0.06765009550830156,0.0,7.065940810521217e-17,6.482987140940511e-17,0.2926698953340672,0.0,0.0,0.0,4.060344964889558,-1.98217815583143e-15,-7.493882555313995e-16,-1.6511272223560376e-06,636.8956183005345,636.8956183005339,636.8908795586448,636.8908795586451
0.19200000000000003,4.429539547169224e-18,6.0,0.026164809389618862,1.4488877972349106e-14,5.8514723737701374e-15,5.4364188836748006e-05,2.3111489085355726e-22,6.0,0.07025264159862511,0.0,7.775052330949201e-17,7.26706426914926e-17,0.30733681274301083,0.0,0.0,0.0,4.062614245969365,-2.0344242408007085e-15,-6.258456127919327e-16,-1.4585897112458e-06,636.9474397025268,636.9474397025263,636.9432538864821,636.9432538864826
0.19600000000000004,4.919144580266424e-18,6.0,0.027497611709055805,1.5266785469496426e-14,5.302925185238299e-15,5.347422364602528e-05,2.3111489085355726e-22,6.0,0.07289342804076723,0.0,8.497565011793447e-17,8.087265828282246e-17,0.32209497541260773,0.0,0.0,0.0,4.0624516077168265,-2.0164636394044457e-15,-5.777193040300036e-16,-1.2744731442704246e-06,636.9434418416377,636.9434418416371,636.9397843762338,636.9397843762341
0.20000000000000004,5.428506259738027e-18,6.0,0.028889971358577612,1.5992837110135392e-14,4.766109130719669e-15,5.246220150989095e-05,2.3111489085355726e-22,6.0,0.07557190088219418,0.0,9.204493402830511e-17,8.924856760883392e-17,0.3369312907041292,0.0,0.0,0.0,4.059942295982793,-2.019763262674333e-15,-5.577548583199388e-16,-1.0990797016480538e-06,636.8855812702558,636.8855812702552,636.882426861223,636.8824268612234
0.20400000000000004,5.955418118786058e-18,6.0,0.030342114630383107,1.6668559694394544e-14,4.254294702021267e-15,5.133949280960799e-05,2.3111489085355726e-22,6.0,0.07828751146109224,0.0,9.873299409539721e-17,9.768660050154107e-17,0.3518332744340439,0.0,0.0,0.0,4.055168135271239,-2.0218066331070673e-15,-5.535710754362342e-16,-9.31885958910683e-07,636.7757214971855,636.7757214971849,636.7730464814224,636.7730464814227
0.20800000000000005,6.497918505010391e-18,6.0,0.03185422231020599,1.73087301459369e-14,3.765265290755452e-15,5.011791792880792e-05,2.3111489085355726e-22,6.0,0.08103971636263092,0.0,1.050328239065965e-16,1.0621256208104366e-16,0.3667890659965599,0.0,0.0,0.0,4.04820733561464,-2.0381356191148097e-15,-5.495475852458653e-16,-7.738767670477307e-07,636.6156334108651,636.6156334108646,636.6134114089494,636.6134114089499
0.212,7.054102695112491e-18,6.0,0.03342642921462857,1.7826820085336126e-14,3.2990648961961485e-15,4.8809037923015774e-05,2.3111489085355726e-22,6.0,0.08382797737556205,0.0,1.1095869382795113e-16,1.1472106890635716e-16,0.38178715759391785,0.0,0.0,0.0,4.039140573036845,-1.951438397376359e-15,-5.461715722536566e-16,-6.252276706513139e-07,636.4071330015906,636.40713300159,636.4053372224348,636.4053372224352
0.216,7.621653285887538e-18,6.0,0.03505882483347919,1.8153382741966703e-14,2.905176178906457e-15,4.742457747438925e-05,2.3111489085355726e-22,6.0,0.08665176144915253,0.0,1.1638335446299412e-16,1.2280366480667364e-16,0.396816135358347,0.0,0.0,0.0,4.028048761015711,-1.7756594717536069e-15,-5.957382323831262e-16,-4.865984505980502e-07,636.1520334597612,636.1520334597608,636.1506352914942,636.1506352914944
0.22,8.199097038348377e-18,6.0,0.0367514566938658,1.8304682278864218e-14,2.57102057488911e-15,4.597458512344533e-05,2.3111489085355726e-22,6.0,0.08951054065044775,0.0,1.2119024686945116e-16,1.2997619665366716e-16,0.41186500499752476,0.0,0.0,0.0,4.015007505899423,-1.6060036300274677e-15,-6.434777850470427e-16,-3.5650728507216716e-07,635.8520152462567,635.8520152462562,635.8509903925676,635.8509903925678
0.224,8.785415325526566e-18,6.0,0.03850433931098489,1.8263737494835938e-14,2.2648502139974442e-15,4.446858044592848e-05,2.3111489085355726e-22,6.0,0.092403792121864,0.0,1.2541897279891775e-16,1.3596608058937707e-16,0.42692394798475314,0.0,0.0,0.0,4.000075660707618,-1.4046390086680483e-15,-6.623243914236685e-16,-2.3474430999388534e-07,635.5083685832021,635.5083685832017,635.5076933975685,635.5076933975687
0.228,9.379560918620036e-18,6.0,0.040317455956567855,1.80555975323972e-14,1.97039858665448e-15,4.291572751115408e-05,2.3111489085355726e-22,6.0,0.09533099803910688,0.0,1.292919838004556e-16,1.4065193247802295e-16,0.4419846409972873,0.0,0.0,0.0,3.9833096159781727,-1.2193503749806196e-15,-6.629350868231426e-16,-1.2128123165349122e-07,635.1223208823391,635.1223208823387,635.1219718340575,635.1219718340577
0.232,9.980980063990438e-18,6.0,0.042190753528649545,1.7669111221609116e-14,1.6293152037424345e-15,4.132488946112867e-05,2.3111489085355726e-22,6.0,0.09829164556941344,0.0,1.33078676053281e-16,1.4390509990421616e-16,0.45703868323956,0.0,0.0,0.0,3.9647772438321534,-1.0094616468838079e-15,-6.011067495187448e-16,-1.6139554919041608e-08,634.695358465532,634.6953584655316,634.6953119845375,634.6953119845376
0.23600000000000002,1.0588682416618572e-17,6.0,0.04412414076425546,1.7093215783248672e-14,1.2142072626412329e-15,3.970485706289957e-05,2.3111489085355726e-22,6.0,0.10128522683011582,0.0,1.3711065814713852e-16,1.4560147284713755e-16,0.47207700966304944,0.0,0.0,0.0,3.9445512764962496,-7.74188988388126e-16,-4.98530023648855e-16,8.040396833575422e-08,634.2290759622058,634.2290759622056,634.229307691222,634.2293076912221
0.24000000000000002,1.120064813706098e-17,6.0,0.046117482600491824,1.629535529676498e-14,7.723716016484213e-16,3.806384686470368e-05,2.3111489085355726e-22,6.0,0.10431123884752388,0.0,1.4146654558718764e-16,1.454566357974887e-16,0.48708959560331905,0.0,0.0,0.0,3.922717179658018,-4.875454304629444e-16,-4.332112084141043e-16,1.6866117744925575e-07,633.7253581318416,633.7253581318415,633.7258446096539,633.7258446096539
0.24400000000000002,1.181495519337608e-17,6.0,0.04817061548273117,1.525990040338895e-14,3.267642119791458e-16,3.640891829561627e-05,2.3111489085355726e-22,6.0,0.10736918351612454,0.0,1.4589836902716804e-16,1.431252296389656e-16,0.502067189685379,0.0,0.0,0.0,3.8993308192786404,-1.6691545574962315e-16,-3.9219242913071653e-16,2.4964783719288476e-07,633.1854042935122,633.1854042935121,633.1861249790835,633.1861249790835
0.24800000000000003,1.2429791495777718e-17,6.0,0.05028336693687609,1.4037827780130185e-14,-1.1299327411938603e-16,3.474676722024195e-05,2.3111489085355726e-22,6.0,0.11045856755809541,0.0,1.5014879977574682e-16,1.383647253571061e-16,0.5170039814611741,0.0,0.0,0.0,3.874409319045927,1.1115755479305069e-16,-3.6166073815588776e-16,3.2349973716957086e-07,632.6095172667603,632.6095172667605,632.6104519986334,632.6104519986333
0.252,1.3043624242653341e-17,6.0,0.05245552434410467,1.2686091358388631e-14,-5.624603412489777e-16,3.308386044142443e-05,2.3111489085355726e-22,6.0,0.11357890248313054,0.0,1.5421675017197687e-16,1.3132059619249137e-16,0.531893902538251,0.0,0.0,0.0,3.8480335302342974,3.363381452280439e-16,-3.1490784722834063e-16,3.90210008215868e-07,631.9994694581387,631.999469458139,632.0005980332396,632.0005980332394
0.256,1.3654701253890394e-17,6.0,0.05468685429635171,1.1175852437394675e-14,-1.017953024586474e-15,3.142610758692018e-05,2.3111489085355726e-22,6.0,0.11672970454857585,0.0,1.581380733270363e-16,1.2216976401358805e-16,0.5467303244139694,0.0,0.0,0.0,3.820246372213159,6.050050289879947e-16,-2.6772918399280065e-16,4.501640239630737e-07,631.3561553064611,631.3561553064613,631.3574586085127,631.3574586085125
0.26,1.4261261330914348e-17,6.0,0.05697708232834728,9.524870676414181e-15,-1.476483381993373e-15,2.977921752876837e-05,2.3111489085355726e-22,6.0,0.11991049471987207,0.0,1.6192018052121827e-16,1.108785316698923e-16,0.5615048449829969,0.0,0.0,0.0,3.791132631305608,8.648265058281215e-16,-2.2179968927463641e-16,5.03353270690003e-07,630.6814387946339,630.6814387946341,630.6828976475394,630.6828976475392
0.264,1.4861424200387348e-17,6.0,0.05932590344416734,7.775247952638432e-15,-1.9240593268310815e-15,2.8148312665812575e-05,2.3111489085355726e-22,6.0,0.12312079863130282,0.0,1.6548160337686607e-16,9.743077086504694e-17,0.5762094737777029,0.0,0.0,0.0,3.7607571084743263,1.086261188686481e-15,-1.8885161841510725e-16,5.502276588049168e-07,629.9767224611181,629.9767224611185,629.9783189523091,629.9783189523089
0.268,1.545349365514767e-17,6.0,0.06173298689764232,5.967685983134356e-15,-2.361307620573042e-15,2.6538063111674933e-05,2.3111489085355726e-22,6.0,0.12636014654704567,0.0,1.687829901574503e-16,8.207403688359187e-17,0.5908362739302169,0.0,0.0,0.0,3.729175945145089,1.2681339280501228e-15,-1.5618016077953615e-16,5.911040708089087e-07,629.2432096632563,629.2432096632567,629.2449267569052,629.2449267569049
0.272,1.6035400530188155e-17,6.0,0.06419797270231582,4.174509878073554e-15,-2.7482701034406626e-15,2.4952849977766818e-05,2.3111489085355726e-22,6.0,0.12962807332252388,0.0,1.7164343251476806e-16,6.523470939713666e-17,0.6053784229616236,0.0,0.0,0.0,3.6964532553184233,1.3707742325685217e-15,-1.6477427622739162e-16,6.261268950778621e-07,628.4822910467055,628.4822910467061,628.4841120798352,628.4841120798349
0.276,1.6605252762506373e-17,6.0,0.06672046097850678,2.420135402175469e-15,-3.0458535325068597e-15,2.3396576536600637e-05,2.3111489085355726e-22,6.0,0.13292411836605678,0.0,1.7372394695330063e-16,4.743184956845352e-17,0.6198277322557303,0.0,0.0,0.0,3.6626757735521496,1.44517159118973e-15,-2.224563326549267e-16,6.556726726016377e-07,627.6958868990845,627.6958868990848,627.6977962524093,627.6977962524088
0.28,1.716228958537604e-17,6.0,0.06930003072183487,7.66667477549423e-16,-3.2954082183946455e-15,2.187266558434573e-05,2.3111489085355726e-22,6.0,0.1362478256008061,0.0,1.748704111616617e-16,2.921650084650401e-17,0.6341764265729342,0.0,0.0,0.0,3.627893482774617,1.4456184572809614e-15,-2.4925826072224367e-16,6.801403744250206e-07,626.8850665968043,626.8850665968047,626.8870497629803,626.8870497629798
0.28400000000000003,1.770592116128929e-17,6.0,0.07193624182186019,-7.718481689012094e-16,-3.5316671856484446e-15,2.0384126264983193e-05,2.3111489085355726e-22,6.0,0.13959874342701678,0.0,1.7534342484838624e-16,1.1072263646405599e-17,0.6484186914944013,0.0,0.0,0.0,3.592153009627644,1.4239177820714695e-15,-2.3984544533675454e-16,6.998704013615193e-07,626.050823808916,626.0508238089164,626.0528672234998,626.0528672234993
0.28800000000000003,1.8235310407151477e-17,6.0,0.07462863563282375,-2.1968114401697558e-15,-3.75684734545818e-15,1.8933576980696307e-05,2.3111489085355726e-22,6.0,0.14297642468454957,0.0,1.7550330431809738e-16,-6.625269024161113e-18,0.6625497883567033,0.0,0.0,0.0,3.555500498133421,1.3970651960208295e-15,-2.250793421266186e-16,7.151931670779315e-07,625.1941435265002,625.1941435265005,625.1962345402616,625.1962345402611
0.29200000000000004,1.8749325427942442e-17,6.0,0.07737673557676045,-3.5326013120179105e-15,-3.940315235060871e-15,1.7523267742215092e-05,2.3111489085355726e-22,6.0,0.14638042661570333,0.0,1.7530458300260229e-16,-2.380401574639135e-17,0.6765651219706931,0.0,0.0,0.0,3.5179815252852684,1.3919105610141987e-15,-2.4240151521358535e-16,7.264288388209972e-07,624.3160003899278,624.3160003899283,624.3181272407709,624.3181272407704
0.29600000000000004,1.9247972609771862e-17,6.0,0.08018005309345067,-4.790725762578139e-15,-4.148821584888238e-15,1.615505830266172e-05,2.3111489085355726e-22,6.0,0.14981031082832508,0.0,1.748347985662447e-16,-4.053439541333063e-17,0.6904607814971084,0.0,0.0,0.0,3.479630229812729,1.3950288335617613e-15,-1.966516743171189e-16,7.339380972218781e-07,623.4171039007065,623.4171039007068,623.4192558356144,623.419255835614
0.30000000000000004,1.9730650731757408e-17,6.0,0.08303809659862918,-5.970745650131741e-15,-4.392412675193592e-15,1.4830539540834282e-05,2.3111489085355726e-22,6.0,0.15326564325920555,0.0,1.7443365344095175e-16,-5.688868861862574e-17,0.7042343773902394,0.0,0.0,0.0,3.4404630166676062,1.3932016969202467e-15,-1.3006029641942753e-16,7.379557234399127e-07,622.4977491577912,622.4977491577916,622.4999160680511,622.4999160680508
0.30400000000000005,2.0196320521025893e-17,6.0,0.08595034218852345,-7.0910665849937294e-15,-4.650065332839244e-15,1.3550986061232303e-05,2.3111489085355726e-22,6.0,0.15674599413775814,0.0,1.742916647988572e-16,-7.294105677548323e-17,0.7178820503325885,0.0,0.0,0.0,3.400555907339296,1.4083502217174508e-15,-7.965679413454542e-17,7.387827990806869e-07,621.5596333611552,621.5596333611558,621.5618059741673,621.561805974167
0.30800000000000005,2.06437154287302e-17,6.0,0.08891627131439095,-8.117309863023664e-15,-4.8851680623050516e-15,1.2317390927247314e-05,2.3111489085355726e-22,6.0,0.16025093794997913,0.0,1.7415187456837334e-16,-8.863442890403847e-17,0.7314004573220874,0.0,0.0,0.0,3.359909556597693,1.3800533955051352e-15,-6.714541633326279e-17,7.366927301471078e-07,620.6026864567216,620.602686456722,620.6048562638696,620.6048562638692
0.31200000000000006,2.1071846408930975e-17,6.0,0.09193537005783867,-9.014755876439282e-15,-5.0832897307670724e-15,1.1130506145676671e-05,2.3111489085355726e-22,6.0,0.16378005340268728,0.0,1.7365835993431088e-16,-1.0363622005213131e-16,0.7447894208339996,0.0,0.0,0.0,3.3185259827425835,1.305496558122301e-15,-7.481491739812446e-17,7.319231219831195e-07,619.6268684751784,619.6268684751789,619.6290276292357,619.6290276292353
0.31600000000000006,2.1480111828131584e-17,6.0,0.09500712706593438,-9.771131779858867e-15,-5.254408293426303e-15,9.990863821330791e-06,2.3111489085355726e-22,6.0,0.16733292338804043,0.0,1.7264302950790657e-16,-1.175196554143264e-16,0.7580498818718375,0.0,0.0,0.0,3.27641131010059,1.2084273946251182e-15,-7.666632804095741e-17,7.2469671406573e-07,618.6322345446472,618.6322345446476,618.634375818218,618.6343758182178
0.32000000000000006,2.1867711473317466e-17,6.0,0.09813099719865771,-1.0281418841718568e-14,-5.377861812237117e-15,8.898756313099967e-06,2.3111489085355726e-22,6.0,0.17090913494832735,0.0,1.710809893293692e-16,-1.296473221952038e-16,0.771179010248664,0.0,0.0,0.0,3.2336454216529504,9.796057972913715e-16,-1.0129524493424096e-16,7.152684194591173e-07,617.6205846335328,617.6205846335331,617.6227015109304,617.6227015109301
0.32400000000000007,2.2233940134775233e-17,6.0,0.1013063764534854,-1.0584368687676024e-14,-5.426289028385741e-15,7.854226479047467e-06,2.3111489085355726e-22,6.0,0.1745082792410327,0.0,1.687411021188558e-16,-1.3929838492197553e-16,0.7841677471935663,0.0,0.0,0.0,3.1903602303536425,7.795638374848409e-16,-1.612112145254062e-16,7.039143708297346e-07,616.5949628502702,616.5949628502706,616.5970495900065,616.5970495900062
0.32800000000000007,2.2579108113275692e-17,6.0,0.10453262763081303,-1.0735367559347085e-14,-5.445476350543724e-15,6.857169704636432e-06,2.3111489085355726e-22,6.0,0.17812995150417293,0.0,1.6557272718627406e-16,-1.462944055239416e-16,0.7970043453404226,0.0,0.0,0.0,3.1466374988238024,6.302314745645076e-16,-1.8371141709981044e-16,6.908017580561007e-07,615.5572413487758,615.557241348776,615.5592926688387,615.5592926688383
0.3320000000000001,2.2903195093129573e-17,6.0,0.10780912140062242,-1.0729220374856817e-14,-5.433574949196978e-15,5.9072720450714425e-06,2.3111489085355726e-22,6.0,0.18177375102190133,0.0,1.6180602250391094e-16,-1.5100003889754286e-16,0.8096833251563934,0.0,0.0,0.0,3.10247676368746,4.645472952670847e-16,-2.064682491500397e-16,6.761760935463144e-07,614.5073474392384,614.5073474392386,614.5093587592894,614.5093587592893
0.3360000000000001,2.3206424848971977e-17,6.0,0.1111351971548015,-1.0576994132070336e-14,-5.402361645477892e-15,5.0040561800572475e-06,2.3111489085355726e-22,6.0,0.1854392810903802,0.0,1.5766730422554813e-16,-1.5353971786751622e-16,0.8222015830666438,0.0,0.0,0.0,3.057956822192938,3.0103609627217465e-16,-2.201385502780341e-16,6.602378249749808e-07,613.4470965628898,613.4470965628898,613.4490638681423,613.4490638681422
0.3400000000000001,2.3489039318312197e-17,6.0,0.11451018693029218,-1.029157920281637e-14,-5.3563116187601625e-15,4.146915411871372e-06,2.3111489085355726e-22,6.0,0.18912614898391802,0.0,1.532190242579768e-16,-1.539166222279707e-16,0.8345551688492824,0.0,0.0,0.0,3.013108976492368,1.424818955727535e-16,-2.300273794213092e-16,6.431544269387889e-07,612.3771821061941,612.3771821061941,612.379101856495,612.3791018564949
0.3440000000000001,2.3751509531589152e-17,6.0,0.11793341745328906,-9.893270245931444e-15,-5.3171980314205745e-15,3.3351187044730613e-06,2.3111489085355726e-22,6.0,0.19283396592137,0.0,1.4866826297602229e-16,-1.5224507770668672e-16,0.8467414283655813,0.0,0.0,0.0,2.967960674194757,-1.6805900609728362e-18,-2.1811394006343109e-16,6.25092842567333e-07,611.2982096287262,611.2982096287263,611.3000787604136,611.3000787604136
0.3480000000000001,2.3994309825866067e-17,6.0,0.12140421656862242,-9.39498409551707e-15,-5.307925479393883e-15,2.567887551704117e-06,2.3111489085355726e-22,6.0,0.19656234703279937,0.0,1.4425856196140232e-16,-1.486783657059373e-16,0.8587596807878004,0.0,0.0,0.0,2.9225265428922094,-1.3875770357368508e-16,-1.7914726141423368e-16,6.061353775438808e-07,610.2104814752871,610.2104814752871,610.2122971518395,610.2122971518395
0.3520000000000001,2.4217696468638893e-17,6.0,0.12492192335135248,-8.807733178441391e-15,-5.3385050828081896e-15,1.8442700492473914e-06,2.3111489085355726e-22,6.0,0.20031091132639842,0.0,1.4028715503793494e-16,-1.4337508763784775e-16,0.8706108949532261,0.0,0.0,0.0,2.8768007115681637,-2.7015979647959976e-16,-1.2402471430334378e-16,5.865134450429261e-07,609.1138094532959,609.1138094532959,609.1155695156777,609.1155695156779
0.3560000000000001,2.4421702396490796e-17,6.0,0.12848584543213795,-8.15297126338956e-15,-5.410777914250725e-15,1.1632163426691504e-06,2.3111489085355726e-22,6.0,0.20407928165566652,0.0,1.3692331601906093e-16,-1.3648072131112685e-16,0.8822934271060525,0.0,0.0,0.0,2.8308636182034226,-3.8300322892898083e-16,-6.133392040858083e-17,5.663775097367439e-07,608.0100794328141,608.0100794328141,608.0117821549197,608.0117821549198
0.3600000000000001,2.46061551206423e-17,6.0,0.1320952842240636,-7.454693217360123e-15,-5.521025594829683e-15,5.23619629743989e-07,2.3111489085355726e-22,6.0,0.2078670846868438,0.0,1.3417553610774028e-16,-1.2825484785190977e-16,0.8938034667272499,0.0,0.0,0.0,2.784745562667247,-4.729007500729266e-16,2.5667253124651997e-18,5.458342345390732e-07,606.8999827740671,606.8999827740671,606.9016267377503,606.9016267377506
0.3640000000000001,2.477062469273479e-17,6.0,0.13574954382133808,-6.7221341452278975e-15,-5.653769619587404e-15,-7.561587550832388e-08,2.3111489085355726e-22,6.0,0.21167395086659824,0.0,1.3193438958667182e-16,-1.1895545173067242e-16,0.9051392756918325,0.0,0.0,0.0,2.7384590402482294,-5.554773663725346e-16,5.449897939150049e-17,5.249133053504278e-07,605.7837860410648,605.7837860410648,605.7853699074075,605.7853699074076
0.3680000000000001,2.4914572005391334e-17,6.0,0.1394479414090602,-5.9692972093003726e-15,-5.792036042650211e-15,-6.357266579773997e-07,2.3111489085355726e-22,6.0,0.21549951438996442,0.0,1.2999536067669616e-16,-1.0882614505213816e-16,0.9163022339266996,0.0,0.0,0.0,2.6919953907244505,-6.245576769887025e-16,9.016904288060864e-17,5.03821259500352e-07,604.6612457125852,604.6612457125852,604.6627687584071,604.6627687584072
0.3720000000000001,2.5037604585653918e-17,6.0,0.1431897703289213,-5.193602973777142e-15,-5.936554286342947e-15,-1.1579299320859498e-06,2.3111489085355726e-22,6.0,0.21934341316853218,0.0,1.2816170958171615e-16,-9.798903715146121e-17,0.9272917300436889,0.0,0.0,0.0,2.6454205515173292,-6.985623061119293e-16,1.2621446820476882e-16,4.825836286638741e-07,603.5339238757643,603.5339238757642,603.5353854454752,603.5353854454754
0.3760000000000001,2.5139646923976592e-17,6.0,0.14697434284946143,-4.413199938581593e-15,-6.120505071179983e-15,-1.6434723777973918e-06,2.3111489085355726e-22,6.0,0.22320528879888304,0.0,1.2648549991773486e-16,-8.653613320005587e-17,0.9381073087174286,0.0,0.0,0.0,2.5987144730013165,-7.534789170315539e-16,1.9848705495564093e-16,4.6128216954973914e-07,602.4013068906863,602.4013068906863,602.4027065728213,602.4027065728216
0.38,2.5220283855967397e-17,6.0,0.1508009654751942,-3.619991569618263e-15,-6.3538905674126974e-15,-2.0936548876311335e-06,2.3111489085355726e-22,6.0,0.22708478653127284,0.0,1.253327675851154e-16,-7.457713809991538e-17,0.9487496171832476,0.0,0.0,0.0,2.55190666795755,-8.187169361026617e-16,2.8960998124268335e-16,4.4002884427840003e-07,601.2640823934122,601.2640823934122,601.2654201113883,601.2654201113887
0.384,2.527819217620234e-17,6.0,0.15466893106691337,-2.8364714747924663e-15,-6.574656688671444e-15,-2.509882288271902e-06,2.3111489085355726e-22,6.0,0.23098155523855893,0.0,1.2455166329714419e-16,-6.223260128566698e-17,0.9592174835071965,0.0,0.0,0.0,2.5050428796484385,-8.591178635177235e-16,3.2307416558969885e-16,4.1899601463385495e-07,600.1233384868832,600.1233384868831,600.1246146849294,600.1246146849298
0.388,2.5312983879899258e-17,6.0,0.15857750271323806,-2.048975152195793e-15,-6.8112544855012016e-15,-2.8935614390114702e-06,2.3111489085355726e-22,6.0,0.234895247385369,0.0,1.2386221571699782e-16,-4.955819011987552e-17,0.9695061763389884,0.0,0.0,0.0,2.458202073575002,-9.153597655407973e-16,3.7961201713617844e-16,3.9824137121313196e-07,598.9809826824384,598.9809826824383,598.9821979784193,598.9821979784198
0.392,2.5323680608613748e-17,6.0,0.16252592880954675,-1.3302447247914084e-15,-7.037165906352369e-15,-3.246186496221221e-06,2.3111489085355726e-22,6.0,0.23882551899751148,0.0,1.231012848034494e-16,-3.689974788874619e-17,0.9796102462864468,0.0,0.0,0.0,2.411433615361125,-8.87480014032031e-16,4.140027698463961e-16,3.7792238868271096e-07,597.8382129166234,597.8382129166233,597.8393684106157,597.8393684106162
0.396,2.5309198949549377e-17,6.0,0.16651346013265134,-6.741016742861615e-16,-7.213976369541939e-15,-3.5689982414651553e-06,2.3111489085355726e-22,6.0,0.24277202963162434,0.0,1.2195833959093587e-16,-2.470385979624137e-17,0.9895272813821325,0.0,0.0,0.0,2.3647527392547874,-8.626145119567501e-16,4.0538761602421504e-16,3.5780227208548497e-07,596.6954004965047,596.6954004965046,596.6964965687145,596.6964965687148
0.4,2.5269014063937e-17,6.0,0.17053939563072437,-7.728163695896487e-17,-7.343486379686517e-15,-3.863304652527896e-06,2.3111489085355726e-22,6.0,0.24673444234506112,0.0,1.200148051445529e-16,-1.3345637704751008e-17,0.9992612871075444,0.0,0.0,0.0,2.31808172525556,-8.377391141183201e-16,3.904414711591186e-16,3.380083863548567e-07,595.5506367567064,595.5506367567064,595.5516741837519,595.5516741837523
0.404,2.5203189536367273e-17,6.0,0.17460303035773678,4.849658783184744e-16,-7.468864301498857e-15,-4.1304321289665586e-06,2.3111489085355726e-22,6.0,0.2507124236660122,0.0,1.1738319254068305e-16,-2.738902226520121e-18,1.0088180818737245,0.0,0.0,0.0,2.2714470380607628,-8.3812567722167e-16,4.1676269941590682e-16,3.186139707632463e-07,594.4045613405656,594.4045613405656,594.4055411271426,594.4055411271429
0.40800000000000003,2.5110995932177995e-17,6.0,0.17870365437939978,9.713265288048942e-16,-7.549153865124945e-15,-4.37170024391119e-06,2.3111489085355726e-22,6.0,0.25470564356385994,0.0,1.1418548518903e-16,7.155991884681301e-18,1.0181983666687793,0.0,0.0,0.0,2.2248775388836566,-7.882965156165238e-16,4.0467807470119926e-16,2.9966361975090987e-07,593.2578779341488,593.2578779341488,593.2588012266982,593.2588012266986
0.41200000000000003,2.4991965052654944e-17,6.0,0.1828405471240921,1.3654677864935047e-15,-7.557332915027916e-15,-4.5884865223651045e-06,2.3111489085355726e-22,6.0,0.2587137754197652,0.0,1.1018104616746817e-16,1.6040975578732505e-17,1.0274002844170098,0.0,0.0,0.0,2.1784137643659727,-7.145455519032797e-16,3.5601490049637203e-16,2.812774108647989e-07,592.1115838809578,592.1115838809577,592.1124522016319,592.1124522016323
0.41600000000000004,2.484655047838742e-17,6.0,0.18701296129364994,1.6832727102717586e-15,-7.533230506348537e-15,-4.782134398652653e-06,2.3111489085355726e-22,6.0,0.26273649599748444,0.0,1.0518192981221201e-16,2.3542199470541333e-17,1.0364198625262748,0.0,0.0,0.0,2.132129294677246,-6.53310732277442e-16,3.3903725074485374e-16,2.634703772559769e-07,590.9675020206923,590.9675020206923,590.9683169445949,590.9683169445952
0.42000000000000004,2.4674860734585342e-17,6.0,0.19122015755191946,1.958662363781887e-15,-7.468798181112334e-15,-4.953872173000681e-06,2.3111489085355726e-22,6.0,0.26677348541441515,0.0,9.934423172730244e-17,2.983905687184556e-17,1.0452543726118813,0.0,0.0,0.0,2.0860282117668563,-6.266884476860894e-16,3.145326162742001e-16,2.461615744636917e-07,589.8257465469264,589.8257465469266,589.8265094079316,589.8265094079319
0.42400000000000004,2.4477162424935733e-17,6.0,0.19546141694757535,2.205324937435599e-15,-7.3588009795958e-15,-5.104977030646372e-06,2.3111489085355726e-22,6.0,0.2708244271128678,0.0,9.281510695244927e-17,3.530684777099599e-17,1.0539056199014656,0.0,0.0,0.0,2.040089181736104,-6.13342107938173e-16,2.7963288952082527e-16,2.2945701625646563e-07,588.6858009206571,588.6858009206572,588.6865133908176,588.6865133908178
0.42800000000000005,2.4253859455895345e-17,6.0,0.19973599686544477,2.3951426691120503e-15,-7.196574993325145e-15,-5.2367022912638255e-06,2.3111489085355726e-22,6.0,0.27488900783156295,0.0,8.548127752295357e-17,4.0119150373208083e-17,1.06237411800941,0.0,0.0,0.0,1.994379668115105,-5.653695235450247e-16,2.3239004757823795e-16,2.1337982876920688e-07,587.5493546040915,587.5493546040915,587.550018435696,587.5500184356964
0.43200000000000005,2.4005773171696628e-17,6.0,0.20404315668553652,2.556556280734805e-15,-6.999865374113215e-15,-5.350247245911721e-06,2.3111489085355726e-22,6.0,0.2789669175773518,0.0,7.736334035189001e-17,4.4220012438622694e-17,1.0706580942025645,0.0,0.0,0.0,1.9489158627890812,-5.468534241568141e-16,1.9743395721169028e-16,1.9791701042341975e-07,586.4168317069791,586.4168317069791,586.4174486224027,586.417448622403
0.43600000000000005,2.3733752637963174e-17,6.0,0.20838216641592688,2.701369758772961e-15,-6.77603985828415e-15,-5.446715091556857e-06,2.3111489085355726e-22,6.0,0.2830578495971584,0.0,6.86424412398508e-17,4.7711669738797e-17,1.0787578174313166,0.0,0.0,0.0,1.9036964224180755,-5.402915690267925e-16,1.6802116904449122e-16,1.8300428564979404e-07,585.2882215441504,585.2882215441504,585.2887930759846,585.2887930759847
0.44000000000000006,2.3438661828237927e-17,6.0,0.2127523167290828,2.8270002548290487e-15,-6.525820843315924e-15,-5.527241965054187e-06,2.3111489085355726e-22,6.0,0.2871615003501418,0.0,5.95075689448323e-17,5.0830633209037643e-17,1.0866766303062962,0.0,0.0,0.0,1.8586993444578193,-5.296795805156474e-16,1.3699222641967678e-16,1.6872424205686283e-07,584.1629959144952,584.1629959144951,584.163523864026,584.1635238640263
0.44400000000000006,2.312161092685797e-17,6.0,0.2171528821732167,2.939325673951771e-15,-6.2654791985103974e-15,-5.592879229474428e-06,2.3111489085355726e-22,6.0,0.2912775694800768,0.0,5.0078663480092454e-17,5.3649207867001785e-17,1.0944158407390907,0.0,0.0,0.0,1.8139766787435796,-5.247073409722053e-16,1.1981577045164048e-16,1.550233910048814e-07,583.0424798737126,583.0424798737126,583.0429658846188,583.042965884619
0.44800000000000006,2.2783715957049086e-17,6.0,0.22158316279731713,3.060159364808453e-15,-6.0079377865446275e-15,-5.644637035069892e-06,2.3111489085355726e-22,6.0,0.29540575978795136,0.0,4.0592695850359194e-17,5.629986587087407e-17,1.101976806648214,0.0,0.0,0.0,1.7694965580525106,-5.443758405551068e-16,1.16269418256405e-16,1.4189572226509864e-07,581.9258998952104,581.9258998952103,581.9263456033972,581.9263456033974
0.45200000000000007,2.2425936031622538e-17,6.0,0.22604245351039565,3.184684533391268e-15,-5.75134642495484e-15,-5.68355623692911e-06,2.3111489085355726e-22,6.0,0.29954577720477904,0.0,3.124400521541323e-17,5.897387257952219e-17,1.109361265506606,0.0,0.0,0.0,1.7252885352272709,-5.590857873623441e-16,1.1186393080398913e-16,1.2941761499253278e-07,580.814022568856,580.8140225688559,580.8144298603202,580.8144298603203
0.45600000000000007,2.2049221068843838e-17,6.0,0.2305300265422291,3.308841957452261e-15,-5.494244899831038e-15,-5.7106287116747664e-06,2.3111489085355726e-22,6.0,0.3036973307646254,0.0,2.2081951121180992e-17,6.176203866685936e-17,1.116567534843807,0.0,0.0,0.0,1.6814179698572147,-5.693950158178189e-16,1.0532447269961239e-16,1.175736991498606e-07,579.7085235816655,579.7085235816655,579.7088943046555,579.7088943046557
0.4600000000000001,2.1654543989692585e-17,6.0,0.2350451583594501,3.433382905893237e-15,-5.238109498912998e-15,-5.726789630644634e-06,2.3111489085355726e-22,6.0,0.3078601325778461,0.0,1.3093183287361915e-17,6.459389757478883e-17,1.123593095310635,0.0,0.0,0.0,1.6378963642179116,-5.806430562992172e-16,9.959925174880113e-17,1.063376365858842e-07,578.6097302142127,578.6097302142127,578.6100661453858,578.610066145386
0.4640000000000001,2.1242839159808703e-17,6.0,0.23958713165981113,3.559793675624591e-15,-4.981828533649675e-15,-5.732931487523132e-06,2.3111489085355726e-22,6.0,0.31203389780453533,0.0,4.260186764765695e-18,6.744434251229284e-17,1.1304381542462774,0.0,0.0,0.0,1.5947310840521376,-5.937398661245583e-16,9.245252289350304e-17,9.569721242704638e-08,577.5178672554666,577.5178672554666,577.5181701440542,577.5181701440545
0.4680000000000001,2.0815036107992423e-17,6.0,0.24415523522515334,3.691396675180709e-15,-4.7242989061272965e-15,-5.729904769365182e-06,2.3111489085355726e-22,6.0,0.3162183446281833,0.0,-4.4254909831012496e-18,7.03639498650459e-17,1.137104263544389,0.0,0.0,0.0,1.5519296403544742,-6.109324742104954e-16,8.34441813821006e-17,8.563930548780577e-08,576.4331646389202,576.4331646389201,576.4334362035698,576.4334362035701
0.4720000000000001,2.0372167660245728e-17,6.0,0.24874876382599687,3.820792694900872e-15,-4.475108488705845e-15,-5.718518584696198e-06,2.3111489085355726e-22,6.0,0.32041319422954095,0.0,-1.2902757346488472e-17,7.334922019813514e-17,1.1435929397872164,0.0,0.0,0.0,1.5094995888603462,-6.199317186859231e-16,8.37129503855676e-17,7.614986275053578e-08,575.3558549088543,575.3558549088542,575.3560968343603,575.3560968343605
0.4760000000000001,1.9915154084645106e-17,6.0,0.25336702420665247,3.942765481694188e-15,-4.236112132474589e-15,-5.699504895978145e-06,2.3111489085355726e-22,6.0,0.32461817076069,0.0,-2.1075638010475643e-17,7.631848989554888e-17,1.1499062819603503,0.0,0.0,0.0,1.4674361921419932,-6.227791923862641e-16,8.730495638195812e-17,6.717140641291164e-08,574.2858591388537,574.2858591388535,574.2860729377206,574.2860729377209
0.4800000000000001,1.9444598942816642e-17,6.0,0.2580093444882919,4.075068189772641e-15,-3.981879648199679e-15,-5.673601536625472e-06,2.3111489085355726e-22,6.0,0.32883300131931786,0.0,-2.906053404472444e-17,7.928624158122619e-17,1.1560479236307097,0.0,0.0,0.0,1.4257152915615146,-6.459351341906782e-16,6.495155233964963e-17,5.874031890968577e-08,573.2226019669283,573.2226019669282,573.2227892774116,573.2227892774117
0.4840000000000001,1.8961338102800142e-17,6.0,0.26267503981778323,4.200774198299933e-15,-3.706860127160216e-15,-5.641479529716624e-06,2.3111489085355726e-22,6.0,0.3330574159231947,0.0,-3.711082219528222e-17,8.228486275194174e-17,1.162019605333708,0.0,0.0,0.0,1.384381806969302,-6.501240617191883e-16,3.1973725442064857e-17,5.0808372028266396e-08,572.1672690103838,572.1672690103837,572.1674313263978,572.1674313263981
0.4880000000000001,1.8466700960628863e-17,6.0,0.2673634452082202,4.3168923592077756e-15,-3.4490378548091072e-15,-5.603802471708826e-06,2.3111489085355726e-22,6.0,0.3372911474848518,0.0,-4.514790517865933e-17,8.527594837152737e-17,1.1678225134510443,0.0,0.0,0.0,1.3434144647808737,-6.504567901319753e-16,3.556631284765354e-17,4.339401052412961e-08,571.1193595023486,571.1193595023485,571.1194983862847,571.1194983862849
0.4920000000000001,1.7960749514123097e-17,6.0,0.2720738779270588,4.3628174521436654e-15,-3.124964724699142e-15,-5.561200332689326e-06,2.3111489085355726e-22,6.0,0.3415339317864595,0.0,-5.334267272217719e-17,8.783881923135018e-17,1.1734566831394952,0.0,0.0,0.0,1.3028677348868425,-5.794442653543609e-16,-4.337129327426253e-17,3.648481507003924e-08,570.0803115303778,570.0803115303777,570.0804285140429,570.0804285140431
0.4960000000000001,1.7444495389195187e-17,6.0,0.27680566059799183,4.3292965876885265e-15,-2.7320432105558136e-15,-5.514257279058857e-06,2.3111489085355726e-22,6.0,0.34578550745490366,0.0,-6.226121106698416e-17,8.931676728814963e-17,1.1789214114405588,0.0,0.0,0.0,1.262749809818658,-4.928589351102479e-16,-1.4096345609231972e-16,3.0052804480707677e-08,569.0503841963741,569.0503841963741,569.0504807310648,569.050480731065
0.5000000000000001,1.6919286699573064e-17,6.0,0.2815581231127467,4.2506250423515394e-15,-2.2776457554907715e-15,-5.463521402216283e-06,2.3111489085355726e-22,6.0,0.3500456159370581,0.0,-7.239540240799946e-17,8.937379522039063e-17,1.1842172442972143,0.0,0.0,0.0,1.2230648734994634,-4.4086520528839535e-16,-2.3945107005107044e-16,2.4079522148638964e-08,568.0297348447264,568.0297348447262,568.029812331205,568.0298123312051
0.5040000000000001,1.6386819213799207e-17,6.0,0.2863306025256201,4.151569369035728e-15,-1.7857725024581184e-15,-5.409506006532814e-06,2.3111489085355726e-22,6.0,0.35431400147525294,0.0,-8.343026329251961e-17,8.83504257276622e-17,1.18934599463732,0.0,0.0,0.0,1.1838171339572514,-4.146497478765474e-16,-3.193863140463232e-16,1.8546572932235684e-08,567.0185221239043,567.0185221239042,567.018581912116,567.018581912116
0.5080000000000001,1.5848899439175766e-17,6.0,0.2911224485694792,4.049118185640759e-15,-1.2782271589292148e-15,-5.3526691183770055e-06,2.3111489085355726e-22,6.0,0.3585904110829363,0.0,-9.499847061103881e-17,8.678192571143177e-17,1.1943100083663116,0.0,0.0,0.0,1.1449994174220657,-4.0680938102531724e-16,-3.792735522378444e-16,1.3410232358961069e-08,566.0166113562262,566.0166113562261,566.0166546630437,566.0166546630437
0.512,1.530739478746472e-17,6.0,0.2959330323285578,3.926663601916555e-15,-7.775162024333345e-16,-5.293463930559418e-06,2.3111489085355726e-22,6.0,0.36287459452052845,0.0,-1.0656737323300046e-16,8.490942857332755e-17,1.1991130455460464,0.0,0.0,0.0,1.1065865852928358,-3.79271725240731e-16,-4.1635242549599157e-16,8.683465128018235e-09,565.0234014392546,565.0234014392545,565.0234295308095,565.0234295308095
0.516,1.476396517886672e-17,6.0,0.3007616981923143,3.803376696321368e-15,-2.8770281067577e-16,-5.232341063381594e-06,2.3111489085355726e-22,6.0,0.36716630427146685,0.0,-1.1776458855024383e-16,8.280561351629939e-17,1.2037554843839282,0.0,0.0,0.0,1.0686503692192268,-3.726673894535581e-16,-4.475693846690632e-16,4.381710358738252e-09,564.0407979010141,564.0407979010141,564.0408121008165,564.0408121008165
0.52,1.4219979740893314e-17,6.0,0.3056077923355348,3.683353594720647e-15,2.1111942266947762e-16,-5.1696711981613316e-06,2.3111489085355726e-22,6.0,0.3714652955184402,0.0,-1.2855014873539696e-16,8.053480042643538e-17,1.208235372600963,0.0,0.0,0.0,1.031205591207999,-3.7070324589814215e-16,-4.995136550974514e-16,4.29956717753482e-10,563.0692413023297,563.0692413023296,563.0692426980941,563.0692426980941
0.524,1.3677032107274959e-17,6.0,0.31047068812158246,3.562540112135769e-15,7.167630265411465e-16,-5.105811655005831e-06,2.3111489085355726e-22,6.0,0.3757713261198112,0.0,-1.3908419784290232e-16,7.82627519090547e-17,1.2125540813901492,0.0,0.0,0.0,0.9942154998747479,-3.6414429392949273e-16,-5.535393819623625e-16,-3.1722904348135274e-09,562.1078328990003,562.1078328990001,562.1078225832108,562.1078225832107
0.528,1.3136800265281392e-17,6.0,0.3153497657439773,3.4375964687456507e-15,1.219963490212586e-15,-5.0410924978173725e-06,2.3111489085355726e-22,6.0,0.3800841565862254,0.0,-1.4939815189276595e-16,7.594554804827388e-17,1.2167159683201199,0.0,0.0,0.0,0.9576838342146792,-3.5354698101830997e-16,-5.998171593609115e-16,-6.442280998070141e-09,561.1567223073572,561.156722307357,561.1567013225654,561.1567013225653
0.532,1.2600892588922887e-17,6.0,0.32024441231381723,3.3214671274712843e-15,1.7166862824578326e-15,-4.975817587042053e-06,2.3111489085355726e-22,6.0,0.38440355005740556,0.0,-1.5938507212179293e-16,7.359474890344774e-17,1.2207233382196037,0.0,0.0,0.0,0.9216139770406475,-3.5769567950239173e-16,-6.421229885579602e-16,-9.39713127880775e-09,560.2160503003576,560.2160503003573,560.2160196391735,560.2160196391734
0.536,1.2071275299880424e-17,6.0,0.3251540219069618,3.247024041929764e-15,2.1655228569556982e-15,-4.910265776360088e-06,2.3111489085355726e-22,6.0,0.3887292722791295,0.0,-1.6870010362451036e-16,7.146298322332908e-17,1.2245779226746303,0.0,0.0,0.0,0.8860090334759332,-4.007516924704572e-16,-6.414844184916367e-16,-1.2053614445082157e-08,559.285950758124,559.2859507581238,559.2859113638988,559.2859113638988
0.54,1.1549537447431181e-17,6.0,0.3300779956125265,3.2408921999527087e-15,2.5494373421953395e-15,-4.84469209584771e-06,2.3111489085355726e-22,6.0,0.3930610915803907,0.0,-1.7682080691011186e-16,7.009961593637144e-17,1.2282814659418773,0.0,0.0,0.0,0.8508718264078092,-4.776972002571418e-16,-6.15262240465993e-16,-1.4428128935380485e-08,558.3665504655911,558.3665504655909,558.3665032332141,558.3665032332141
0.544,1.1036852868302314e-17,6.0,0.33501574658017336,3.299042093079609e-15,2.8721101669214088e-15,-4.7793193475220985e-06,2.3111489085355726e-22,6.0,0.3973987788507399,0.0,-1.8335039767242566e-16,6.998244064220486e-17,1.2318362242408065,0.0,0.0,0.0,0.8161947494253554,-5.546043245176979e-16,-5.857088935754722e-16,-1.6547851390085115e-08,557.457702886472,557.4577028864718,557.4576486265862,557.4576486265862
0.548,1.0534142533651141e-17,6.0,0.33996671447445714,3.405584852212016e-15,3.142028371053402e-15,-4.714344491246727e-06,2.3111489085355726e-22,6.0,0.4017421075178062,0.0,-1.8834452195099954e-16,7.117904070057567e-17,1.2352464063877855,0.0,0.0,0.0,0.7819405137501594,-6.173938354047916e-16,-5.602145306276985e-16,-1.8433806535638638e-08,556.5584800750373,556.5584800750371,556.5584195335052,556.5584195335051
0.552,1.0042152865085263e-17,6.0,0.34493039041145807,3.563861327950235e-15,3.3680295006395553e-15,-4.649925361380208e-06,2.3111489085355726e-22,6.0,0.40609085352499713,0.0,-1.9198257904339507e-16,7.357000732172831e-17,1.238520662587933,0.0,0.0,0.0,0.74802041303129,-6.874681656185434e-16,-5.404516246616564e-16,-2.012358356471697e-08,555.6665945255976,555.6665945255972,555.6665283283058,555.6665283283058
0.556,9.561378818176265e-18,6.0,0.34990625244939466,3.751720836555418e-15,3.56857653304041e-15,-4.586262732652339e-06,2.3111489085355726e-22,6.0,0.41044479530937483,0.0,-1.9454822874391554e-16,7.694522439814511e-17,1.2416640159578498,0.0,0.0,0.0,0.71447506001952,-7.353245969140732e-16,-5.372065968381261e-16,-2.1560501349928084e-08,554.7831519550333,554.783151955033,554.7830809180055,554.7830809180055
0.56,9.092434804299049e-18,6.0,0.35489371287935273,3.978038953815197e-15,3.740695887757301e-15,-4.523520208108142e-06,2.3111489085355726e-22,6.0,0.41480371377970887,0.0,-1.9629652294852604e-16,8.116507156439122e-17,1.2446719817858,0.0,0.0,0.0,0.6814524942126166,-7.956994342338526e-16,-5.308156146296369e-16,-2.2779685026813455e-08,553.9121008169205,553.9121008169202,553.9120256449293,553.9120256449293
0.5640000000000001,8.635862743498284e-18,6.0,0.35989219684111784,4.244306303069983e-15,3.879937541217305e-15,-4.461833682091409e-06,2.3111489085355726e-22,6.0,0.41916739229470285,0.0,-1.9729204456300813e-16,8.617811083920175e-17,1.2475361865500303,0.0,0.0,0.0,0.6489433356217709,-8.606028114597296e-16,-5.172054161403414e-16,-2.380672043709171e-08,553.0532517027308,553.0532517027303,553.0531730195665,553.0531730195667
0.5680000000000001,8.192129920467597e-18,6.0,0.364901152390728,4.5413000151666e-15,3.979265365046195e-15,-4.401328587274709e-06,2.3111489085355726e-22,6.0,0.4235356166413943,0.0,-1.9743495466523086e-16,9.202452336171682e-17,1.2502583034152805,0.0,0.0,0.0,0.6169173980934655,-9.17654058513747e-16,-4.929544184513742e-16,-2.4648174485390225e-08,552.2058622335804,552.2058622335801,552.2057806443302,552.2057806443304
0.5720000000000001,7.761504221866901e-18,6.0,0.3699200232346541,4.875311569401802e-15,4.039403820473928e-15,-4.34211139135512e-06,2.3111489085355726e-22,6.0,0.4279081750137263,0.0,-1.966663527819983e-16,9.866218653549157e-17,1.252841227949664,0.0,0.0,0.0,0.5853991366405542,-9.843605520671339e-16,-4.651096281214055e-16,-2.532096811338159e-08,551.3706338194677,551.3706338194672,551.3705498762,551.3705498762002
