Time_s,X,Y,Z,Roll_deg,Pitch_deg,Yaw_deg,Ref_X,Ref_Y,Ref_Z,Ref_Yaw,vx,vy,vz,p,q,r,T_pert,tau_x,tau_y,tau_z,RPM_0,RPM_1,RPM_2,RPM_3
0.0040000000000000036,3.540239794309915e-22,6.0,0.010006999594037988,1.030927412343402e-18,1.9273866450044995e-18,-5.1486728461073835e-21,2.3110657071748654e-22,6.0,0.010074639714689831,1.7916199615202707e-22,2.453515573794988e-19,1200.0,2.0013999188075973,0.0,0.0,0.0,0.13727673356390743,-1.2038473377160515e-18,-3.683021169308074e-18,1.800587151680914e-20,539.3555031529193,539.3555031529194,539.3555031529193,539.3555031529194
0.008000000000000007,1.9812678274751357e-22,6.0,0.01001099936604295,6.771774911299838e-19,3.7479884741046936e-19,6.830176131541204e-20,2.3109003058650283e-22,6.0,0.01021705724096241,1.7914917365687059e-22,1.1897873311512525e-19,666.6666666666666,1.112333262893661,0.0,0.0,0.0,0.2830776344539661,3.4258798127161217e-19,4.8269216329353696e-18,-8.516963572556546e-20,543.2938902409245,543.2938902409246,543.2938902409245,543.2938902409246
0.01200000000000001,4.1282677668008204e-22,6.0,0.010014999147004025,-8.730816344528117e-19,2.0968901764490858e-19,1.5490512893026194e-19,2.310653696959898e-22,6.0,0.010429397942859043,1.7913005566140433e-22,3.382073056399102e-20,8.21011795282499e-24,0.000999943864330756,0.0,0.0,0.0,0.42940121619331495,1.7639808005409475e-18,-4.021943964425495e-18,-1.0355090458712153e-19,547.2178991675321,547.2178991675322,547.2178991675321,547.2178991675321
0.016000000000000014,5.814271723077881e-22,6.0,0.010018998946059194,-3.560641930655805e-19,1.839580682576601e-18,1.4697450939672103e-19,2.310326863828539e-22,6.0,0.010710815098006973,1.7910471839987987e-22,3.3499126627351736e-20,-3.2186627504741442e-24,0.0009999466343935809,0.0,0.0,0.0,0.5762362185818668,-5.440346225788557e-19,-1.5603021324952552e-18,3.3230668477638948e-21,551.1275382973164,551.1275382973165,551.1275382973164,551.1275382973165
0.01999999999999999,5.501544121713818e-22,6.0,0.010022998767494386,-5.766656151084166e-19,1.5190583032491881e-18,2.4664279759618973e-19,2.3099207809276586e-22,6.0,0.011060469657949597,1.790732374156313e-22,2.1117835026656314e-20,-8.94546582791302e-24,0.0009999512801435115,0.0,0.0,0.0,0.7235715096159999,2.8195194136016116e-19,2.4342340428368917e-18,-1.220442860394943e-19,555.0228180200033,555.0228180200035,555.0228180200033,555.0228180200033
0.023999999999999994,5.765596554659242e-22,6.0,0.010026998612513159,9.84222572159677e-20,9.192389166515232e-19,2.482139384878261e-19,2.309436413873475e-22,6.0,0.011477530186265227,1.7903568756664676e-22,1.726165998555386e-20,-2.5305436980788312e-24,0.0009999568604687759,0.0,0.0,0.0,0.8713960695425604,-7.488882162345776e-19,-5.297959254355644e-20,-1.154448679861376e-20,558.9037502651213,558.9037502651214,558.9037502651213,558.9037502651213
0.027999999999999997,6.259307615433795e-22,6.0,0.010030998480558986,-6.054138439538968e-19,1.1991920813502903e-18,3.1427401372429197e-19,2.308874719513042e-22,6.0,0.011961172797154362,1.789921430310976e-22,2.8568853061022646e-21,-3.781206144557662e-24,0.0009999626717297969,0.0,0.0,0.0,1.0196989907191487,8.151618696635774e-19,-6.828937688588287e-19,-8.694276541246226e-20,562.7703484481243,562.7703484481243,562.7703484481243,562.7703484481243
0.032,5.864476443555826e-22,6.0,0.010034998370366355,-5.320128776709837e-19,1.0353828529749763e-18,3.823574775921699e-19,2.308236645995032e-22,6.0,0.012510581094492131,1.7894267731282594e-22,-7.803174315061461e-23,-5.865033931951182e-24,0.0009999683290691508,0.0,0.0,0.0,1.1684694771388004,-4.431305148558504e-20,1.0996412405526322e-18,-9.201954131742053e-20,566.6226274106335,566.6226274106336,566.6226274106335,566.6226274106336
0.036000000000000004,6.567113217598408e-22,6.0,0.010038998280157672,-3.0598293248818823e-19,1.051235298588251e-18,5.722924898308236e-19,2.307523132839982e-22,6.0,0.013124946111342446,1.7888736324679027e-22,1.581848761371131e-21,-8.37135541967046e-24,0.000999973643027799,0.0,0.0,0.0,1.317696845154244,-2.275621869652862e-19,-1.339225537546734e-18,-2.3715765211101245e-19,570.4606033943966,570.4606033943966,570.4606033943966,570.4606033943966
0.04000000000000001,7.0835696683279135e-22,6.0,0.010042998207963352,-3.951180027137119e-19,1.272220611006055e-18,5.636577673475184e-19,2.3067351110100106e-22,6.0,0.013803466249930549,1.7882627300447015e-22,1.1665718908583034e-20,-6.97054861937526e-24,0.0009999785126791824,0.0,0.0,0.0,1.467370522253404,1.2500974791089958e-19,-1.75708556701204e-19,-1.2996661703092126e-20,574.2842939671956,574.2842939671957,574.2842939671956,574.2842939671956
0.04400000000000001,7.916962371579475e-22,6.0,0.010046998151851966,-7.0675833358397025e-19,1.740727545054146e-18,6.91127233872755e-19,2.3058735029780027e-22,6.0,0.014545347222070596,1.787594780992297e-22,1.551669229228434e-20,-8.734622772471665e-24,0.0009999828973695363,0.0,0.0,0.0,1.6174800462711885,3.909316166739919e-19,-1.0512475206179752e-18,-1.71633832654312e-19,578.0937179632374,578.0937179632375,578.0937179632374,578.0937179632374
0.048000000000000015,7.572331093761277e-22,6.0,0.010050998110025229,-6.359670543488583e-19,1.566902989232357e-18,5.361824590059663e-19,2.3049392227962713e-22,6.0,0.01534980199004497,1.7868704939164056e-22,7.016968045743229e-21,-1.0279662506798235e-23,0.000999986810212329,0.0,0.0,0.0,1.7680150647033681,-3.433545877237685e-20,1.3817260350455854e-18,1.5303581869962109e-19,581.888895428922,581.8888954289221,581.888895428922,581.888895428922
0.05200000000000002,7.582009487988067e-22,6.0,0.010054998080862864,-5.294602175814985e-19,1.4509080388691625e-18,5.007137924036592e-19,2.3039331761647e-22,6.0,0.016216050707932007,1.786090570947644e-22,8.154328078224838e-22,-1.0005016318276033e-23,0.0009999902858369783,0.0,0.0,0.0,1.9189653338596968,-8.08825479578913e-20,-3.615866204831679e-19,1.9830819790044517e-20,585.6698475671559,585.669847567156,585.6698475671559,585.669847567156
0.05600000000000002,7.255667759411019e-22,6.0,0.010058998062937143,-6.854105742323805e-19,1.2793860398370532e-18,7.048109646372818e-20,2.302856260498366e-22,6.0,0.017143320663378918,1.7852557077939534e-22,-3.724287988229716e-21,-1.044018501242231e-23,0.0009999933687752233,0.0,0.0,0.0,2.070320717985911,2.1831402931514574e-19,4.862148385774868e-19,4.824335364053487e-19,589.4365966834603,589.4365966834605,589.4365966834603,589.4365966834604
0.060000000000000026,7.279461474122281e-22,6.0,0.010062998055009811,-7.16988864210862e-19,1.2742774252364496e-18,7.30194715621304e-20,2.30170936499465e-22,6.0,0.01813084621981658,1.7843665937926265e-22,-3.508564251059186e-21,-1.1218324554016554e-23,0.0009999961064653326,0.0,0.0,0.0,2.222071188368173,8.374499317835122e-20,-4.678116244028938e-19,-5.44532914847795e-21,593.1891661340997,593.1891661340998,593.1891661340997,593.1891661340998
0.06400000000000003,6.442595427276725e-22,6.0,0.010067357852645493,-5.288196920774046e-19,7.825676887885736e-18,-6.63381866832769e-19,2.3004933706998385e-22,6.0,0.01917786875911308,1.783423911961939e-22,-9.864345062428064e-21,-1.195004577578338e-23,0.0010359782078193588,0.0,0.0,0.0,2.37347660927915,-1.7070183897693142e-19,-6.741851698737942e-18,8.57648303066573e-19,596.9096927393823,596.9096927393824,596.9096927393823,596.9096927393823
0.06800000000000003,5.42351446382498e-23,6.0,0.010075901138529386,1.1228341340149637e-17,6.537795925766919e-17,-5.008965928867581e-18,2.2992091505752197e-22,6.0,0.02028363662466269,1.7824283390523892e-22,-6.78433115521761e-20,6.861098561177706e-23,0.0014903080745438252,0.0,0.0,0.0,2.5174856768061047,-1.369305588188915e-17,-6.177569412343444e-17,5.1039828766618615e-18,600.4270748281346,600.4270748281347,600.4270748281346,600.4270748281346
0.07199999999999998,-1.4721479931390015e-21,6.0,0.010093773752432124,7.878046372191739e-17,2.275055464125179e-16,-1.4731856806189586e-17,2.2978575695626755e-22,6.0,0.021447405064907204,1.781380545597548e-22,-2.248761133407662e-19,1.7177989181975394e-21,0.0028775697984916374,0.0,0.0,0.0,2.651283428863298,-7.965062236574933e-17,-1.8239069312539942e-16,1.1563970631384292e-17,603.6766825172361,603.676682517236,603.6766825172361,603.676682517236
0.07599999999999998,-3.9892283019849596e-21,6.0,0.010125523339566499,2.069306648851993e-16,5.39303795680283e-16,-2.887079064952057e-17,2.296439484649778e-22,6.0,0.022668436177286463,1.7802811959645234e-22,-4.774497067101462e-19,1.0558184099127918e-20,0.005475193709531326,0.0,0.0,0.0,2.7759102229785877,-1.5503233648847255e-16,-3.6682814176225504e-16,1.712185971961365e-17,606.6878939249035,606.6878939249034,606.6878939249035,606.6878939249035
0.07999999999999999,-6.6022713059106376e-21,6.0,0.010175410390117285,4.07878031976007e-16,9.963131977297441e-16,-4.8982740512304634e-17,2.2949557449343874e-22,6.0,0.023945998852614787,1.7791309484040405e-22,-7.037462762321603e-19,3.907149686739481e-20,0.009203323190268287,0.0,0.0,0.0,2.891794310680652,-2.4880316025144625e-16,-5.672974252934436e-16,2.467987646529729e-17,609.4745171877727,609.4745171877726,609.4745171877727,609.4745171877727
0.08399999999999999,-7.213071241668767e-21,6.0,0.010247329510184068,6.838542488561811e-16,1.523578659657985e-15,-7.457722065800258e-17,2.293407191688764e-22,6.0,0.025279368719880478,1.7779304551001407e-22,-7.066710358392203e-19,1.0788645068168745e-19,0.013968987647987319,0.0,0.0,0.0,2.9995329640352764,-3.501580364487432e-16,-7.049336008181659e-16,3.191019956136066e-17,612.0538893023712,612.0538893023711,612.0538893023712,612.0538893023712
0.088,-4.211096760198449e-21,6.0,0.010344808628147484,1.033709427263308e-15,2.1292024253647755e-15,-1.058052920192105e-16,2.2917946584231875e-22,6.0,0.026667828091465066,1.7766803622195042e-22,-4.2404325710831525e-19,2.450252495733033e-19,0.019686105256308366,0.0,0.0,0.0,3.099736814769873,-4.553008015964687e-16,-8.529113627532776e-16,3.954211604243605e-17,614.4431521763571,614.4431521763568,614.4431521763571,614.443152176357
0.092,4.3422846615313175e-21,6.0,0.010471008735911122,1.4685438887655574e-15,2.8157542752457188e-15,-1.3943115694066946e-16,2.2901189709490944e-22,6.0,0.028110665908779347,1.7753813099603955e-22,1.7603805442139514e-19,4.859095817600445e-19,0.02626219908213115,0.0,0.0,0.0,3.1930287946273634,-5.784577904892576e-16,-1.0144424355276508e-15,4.3625442562593556e-17,616.6592868384234,616.6592868384231,616.6592868384234,616.6592868384233
0.096,2.063532886174217e-20,6.0,0.010628832113041333,1.9724768071367373e-15,3.592872212791487e-15,-1.7836236137127703e-16,2.2883809474417365e-22,6.0,0.02960717768831314,1.7740339326012374e-22,1.0297541392945989e-18,8.702388653252457e-19,0.03361612376944004,0.0,0.0,0.0,3.279823976396373,-6.888813090761691e-16,-1.1973332682092896e-15,5.120370363317814e-17,618.713963330698,618.7139633306975,618.713963330698,618.7139633306979
0.1,4.78416669023454e-20,6.0,0.010820985475888958,2.5015612092508256e-15,4.40840233590279e-15,-2.1739641382940504e-16,2.286581398502359e-22,6.0,0.03115666546809575,1.7726388585488156e-22,2.2492616276243235e-18,1.4320122536087227e-18,0.0416852251376474,0.0,0.0,0.0,3.3604176045553236,-7.527116398118278e-16,-1.33888915538997e-15,5.292248628950898e-17,620.6157415815592,620.6157415815587,620.6157415815591,620.615741581559
0.10400000000000001,8.977743288665359e-20,6.0,0.01104994774603214,3.0302845753888705e-15,5.1688085215525105e-15,-2.595230334334645e-16,2.284721127219908e-22,6.0,0.032758437754564114,1.771196710386115e-22,4.002399613853938e-18,2.1858252837776966e-18,0.050415482885832016,0.0,0.0,0.0,3.4351766587561405,-7.884700928791155e-16,-1.3840735669101547e-15,5.813795690388502e-17,622.3746452588007,622.3746452588001,622.3746452588006,622.3746452588005
0.10800000000000001,1.4966423604835335e-19,6.0,0.011317988093911747,3.569322725343534e-15,5.834576681067983e-15,-3.001860262511752e-16,2.282800929232266e-22,6.0,0.03441180946983569,1.769708104919793e-22,6.3655776525188994e-18,3.140051676982426e-18,0.05975306367953496,0.0,0.0,0.0,3.504438847053687,-8.366703580798102e-16,-1.3757296186925305e-15,5.815806328694187e-17,623.9997961952593,623.9997961952587,623.9997961952591,623.999796195259
0.11200000000000002,2.293503946609866e-19,6.0,0.011627185962147003,4.123456400814182e-15,6.473305592882002e-15,-3.418679975836648e-16,2.2808215927870237e-22,6.0,0.0361161018993831,1.7681736532272897e-22,9.221432350058556e-18,4.3109053703809746e-18,0.06964669448205255,0.0,0.0,0.0,3.568508012908341,-8.911585996269837e-16,-1.4266995265830103e-15,6.101814400312664e-17,625.4993399344439,625.4993399344434,625.4993399344438,625.4993399344438
0.11600000000000002,3.3078288136508184e-19,6.0,0.011979448675794712,4.6827291509207715e-15,7.131131274498519e-15,-3.8217968839690077e-16,2.278783898801784e-22,6.0,0.03787064264010756,1.7665939607035804e-22,1.2340212585903453e-17,5.718852545199742e-18,0.08004996986235528,0.0,0.0,0.0,3.627658394136737,-9.350526387718122e-16,-1.5325766283321177e-15,6.112903488451453e-17,626.8805746413752,626.8805746413746,626.8805746413751,626.880574641375
0.12000000000000002,4.566377541068014e-19,6.0,0.012376526932475701,5.24382111230645e-15,7.787747942130564e-15,-4.232927844693434e-16,2.2766886209240103e-22,6.0,0.039674765548808284,1.76496962710757e-22,1.5720345073839075e-17,7.376360497878622e-18,0.09092076338623259,0.0,0.0,0.0,3.682138364230049,-9.754213880374197e-16,-1.6263780799400325e-15,6.372053002922056e-17,628.1500625278052,628.1500625278045,628.1500625278051,628.150062527805
0.12400000000000003,6.094422203192899e-19,6.0,0.012820028429227881,5.797114209740211e-15,8.440613957454813e-15,-4.686178987899107e-16,2.2745365255904167e-22,6.0,0.041527810691044845,1.763301246608136e-22,1.9413094950934686e-17,9.28598556867902e-18,0.10222071261910097,0.0,0.0,0.0,3.7321737199028706,-1.0046832012475668e-15,-1.717860579038512e-15,7.032906873699989e-17,629.3137263489419,629.3137263489414,629.3137263489418,629.3137263489417
0.12800000000000003,7.920815882482327e-19,6.0,0.013311429856694,6.3015761997464885e-15,9.052345042329526e-15,-5.206644706038497e-16,2.272328372085905e-22,6.0,0.043429124290389684,1.7615894078298172e-22,2.348797841077696e-17,1.1426409764187938e-17,0.11391476690280396,0.0,0.0,0.0,3.77797055996964,-9.85497029637948e-16,-1.7719739138834038e-15,8.004198831743203e-17,630.3769328722011,630.3769328722005,630.3769328722011,630.3769328722009
0.13200000000000003,1.0071327445051557e-18,6.0,0.0138520874661779,6.746476532263704e-15,9.606743758505133e-15,-5.739625509317276e-16,2.2700649126020523e-22,6.0,0.045378058678067934,1.7598346938981565e-22,2.7987069695741683e-17,1.3744041358759531e-17,0.125970791256994,0.0,0.0,0.0,3.8197177990921167,-9.504412601308234e-16,-1.803462144252227e-15,8.364114719545079e-17,631.344565012071,631.3445650120705,631.344565012071,631.3445650120709
0.13600000000000004,1.2572229500703273e-18,6.0,0.014443246391697372,7.093799398439353e-15,1.0063525193193659e-14,-6.239837470195898e-16,2.267746892295152e-22,6.0,0.047373972242981635,1.7580376824846954e-22,3.2995442925700154e-17,1.6155411779489292e-17,0.1383592202547676,0.0,0.0,0.0,3.85758935735365,-8.669202316247906e-16,-1.787042454669256e-15,8.200181822346926e-17,632.2210841289844,632.2210841289839,632.2210841289844,632.2210841289842
0.13999999999999999,1.5442044329036448e-18,6.0,0.01508604888766328,7.352351123151516e-15,1.0427829552084367e-14,-6.77193231960585e-16,2.265375049343812e-22,6.0,0.049416229382115595,1.7561989458516264e-22,3.850075874949122e-17,1.8577424841297943e-17,0.15105275614698074,0.0,0.0,0.0,3.89174606349094,-7.870100553572714e-16,-1.763455541933665e-15,8.778027434320645e-17,633.010583808826,633.0105838088255,633.010583808826,633.0105838088258
0.144,1.870106949522567e-18,6.0,0.015781551002058417,7.519617193296525e-15,1.0653084746831836e-14,-7.287357695002969e-16,2.2629501150061117e-22,6.0,0.051504200451322216,1.7543190508961035e-22,4.4565799121000157e-17,2.092910765049326e-17,0.1640270438622929,0.0,0.0,0.0,3.922318271927968,-6.980932194476209e-16,-1.683144721158982e-15,8.801796815410228e-17,633.7163970788233,633.7163970788228,633.7163970788233,633.7163970788231
0.148,2.235830335650363e-18,6.0,0.016530718977442887,7.604426835344424e-15,1.0757423765247158e-14,-7.803977831482733e-16,2.2604728136763237e-22,6.0,0.053637261716482115,1.7523985591942145e-22,5.117148170583428e-17,2.3163452275470062e-17,0.17725943500237412,0.0,0.0,0.0,3.9494464735319923,-6.132442277214642e-16,-1.6034170464367183e-15,9.027403688062995e-17,634.3420417703767,634.3420417703762,634.3420417703768,634.3420417703766
0.152,2.6426403082758615e-18,6.0,0.017334407725203196,7.621900420609258e-15,1.0675442220809291e-14,-8.320163347713865e-16,2.257943862941201e-22,6.0,0.0558147953050383,1.7504380270446173e-22,5.839215852084696e-17,2.5237471760052872e-17,0.19072589887296781,0.0,0.0,0.0,3.973317792573421,-5.404132172735845e-16,-1.4444680445435573e-15,9.234467416992928e-17,634.8920645946721,634.8920645946716,634.8920645946722,634.892064594672
0.156,3.091633985327734e-18,6.0,0.01819341210354112,7.604573817812841e-15,1.0297394194963964e-14,-8.818311307012579e-16,2.2553639736358333e-22,6.0,0.05803618915790083,1.7484380055118416e-22,6.648139377396604e-17,2.7156480616185828e-17,0.20440399905380863,0.0,0.0,0.0,3.9940189162260538,-5.009707954841244e-16,-1.1441357321158777e-15,9.235722540326288e-17,635.3686569574497,635.3686569574495,635.3686569574498,635.3686569574497
0.16,3.581494956749945e-18,6.0,0.01910845480480518,7.570883034425027e-15,9.647920725196966e-15,-9.315620821244595e-16,2.2527338498990793e-22,6.0,0.06030083698171933,1.746399040469261e-22,7.561555549847023e-17,2.896231189082714e-17,0.21827579017407,0.0,0.0,0.0,4.01166311175894,-4.806769774670885e-16,-8.255566163585207e-16,9.430483685298372e-17,635.7745890580135,635.7745890580134,635.7745890580137,635.7745890580137
0.164,4.10961784345598e-18,6.0,0.020080189033088055,7.541529815294554e-15,8.773589439380365e-15,-9.798650383629067e-16,2.2500541892285698e-22,6.0,0.06260813820152066,1.7443216726417344e-22,8.56007229774331e-17,3.071578613721754e-17,0.23232404036478935,0.0,0.0,0.0,4.026360595113853,-4.834382360848648e-16,-5.271130552536782e-16,9.467882482956634e-17,636.1125297090742,636.112529709074,636.1125297090744,636.1125297090744
0.168,4.672707605800193e-18,6.0,0.021109200191883972,7.518734609424146e-15,7.698835451612991e-15,-1.0280318904123454e-15,2.2473256825352944e-22,6.0,0.06495749791370911,1.742206437647923e-22,9.618559378868942e-17,3.24703465490612e-17,0.2465313923470557,0.0,0.0,0.0,4.038220454173738,-4.890889978708225e-16,-2.320360332039382e-16,9.650330769273278e-17,636.3850937607738,636.3850937607737,636.3850937607739,636.3850937607739
0.17200000000000001,5.266760919742586e-18,6.0,0.02219600438481159,7.526110187480901e-15,6.439841876680853e-15,-1.073555574467635e-15,2.244549014197767e-22,6.0,0.06734832683942642,1.740053866042282e-22,1.0723254641661778e-16,3.427751709112703e-17,0.26088071097581517,0.0,0.0,0.0,4.047357062424426,-5.227616094363638e-16,6.845920126442243e-17,9.539355470854416e-17,636.5949923031618,636.5949923031617,636.5949923031619,636.5949923031621
0.17600000000000002,5.886703783808764e-18,6.0,0.023341061370041483,7.545188577606658e-15,5.044655797206654e-15,-1.1225064995925867e-15,2.2417248621157785e-22,6.0,0.0697800412782689,1.737864483356731e-22,1.185717301326089e-16,3.61810971131574e-17,0.2753559831200344,0.0,0.0,0.0,4.053860792256747,-5.369317217414985e-16,3.409055501326192e-16,1.0126646243501587e-16,636.7443626393926,636.7443626393926,636.7443626393928,636.7443626393931
0.18000000000000002,6.527173118388487e-18,6.0,0.02454477846432567,7.572253833765045e-15,3.5331870887374674e-15,-1.1724811541125298e-15,2.238853897763738e-22,6.0,0.07225206306235925,1.735638810142006e-22,1.299995403628562e-16,3.8182974729305196e-17,0.2899430170243546,0.0,0.0,0.0,4.05781596942224,-5.475628695265893e-16,6.067026488286777e-16,1.0447242200041898e-16,636.835183558886,636.8351835588861,636.8351835588861,636.8351835588865
0.18400000000000002,7.182519777361208e-18,6.0,0.025807514551777672,7.605115986516861e-15,1.906246914143485e-15,-1.2227714790353532e-15,2.235936786243603e-22,6.0,0.07476381951077027,1.7333773620086924e-22,1.414164299968097e-16,4.025241876761525e-17,0.3046289788080969,0.0,0.0,0.0,4.059300535467907,-5.561828798956166e-16,8.870478177778725e-16,1.0689329431597035e-16,636.8692696251941,636.8692696251943,636.8692696251943,636.8692696251946
0.18800000000000003,7.846368443194927e-18,6.0,0.027129576978249206,7.640824647466391e-15,1.9191654489671957e-16,-1.268856912030371e-15,2.2329741863374043e-22,6.0,0.07731474338429797,1.7310806496679463e-22,1.527264820787471e-16,4.238623479771723e-17,0.3194013209768008,0.0,0.0,0.0,4.058400358212477,-5.617540316930838e-16,1.155462246443066e-15,1.0404639743101324e-16,636.8486015124668,636.848601512467,636.848601512467,636.8486015124674
0.19200000000000003,8.511452638320805e-18,6.0,0.028511223408795684,7.64313753373981e-15,-1.5307702555896e-15,-1.3103158551241264e-15,2.229966750559372e-22,6.0,0.0799042728405815,1.7287491789719012e-22,1.6367819688075872e-16,4.451809544925313e-17,0.3342474660332582,0.0,0.0,0.0,4.055199257568983,-5.25198546642637e-16,1.3531140194308216e-15,1.0053434104718327e-16,636.7750986546293,636.7750986546297,636.7750986546296,636.77509865463
0.19600000000000004,9.171124087553639e-18,6.0,0.029952663963837556,7.571463699839671e-15,-3.256550174740695e-15,-1.345885626705098e-15,2.226915125207656e-22,6.0,0.08253185138956738,1.7263834509537655e-22,1.7399230822060774e-16,4.6479640311799217e-17,0.3491551219457375,0.0,0.0,0.0,4.0497783802020475,-4.3896001724344916e-16,1.543964814441177e-15,9.535729430540529e-17,636.650606495615,636.6506064956155,636.6506064956152,636.6506064956158
0.20000000000000004,9.818363121471544e-18,6.0,0.03145406321130061,7.388893373484133e-15,-4.943314163526065e-15,-1.3737387166789823e-15,2.223819950415653e-22,6.0,0.0851969278493154,1.7239839618676131e-22,1.834280769756323e-16,4.801281356774386e-17,0.36411252265111,0.0,0.0,0.0,4.042216423208916,-3.0456136357603405e-16,1.6957141979654105e-15,8.780359845140275e-17,636.4769030916957,636.4769030916963,636.4769030916959,636.4769030916965
0.20400000000000004,1.0445829569505236e-17,6.0,0.03301554203333612,7.117496896104933e-15,-6.5075244747437074e-15,-1.3963458531463753e-15,2.220681860202939e-22,6.0,0.08789895630214387,1.7215512032278675e-22,1.9171252667212302e-16,4.889440993328802e-17,0.37910839284234427,0.0,0.0,0.0,4.032589824638425,-1.8835159738293043e-16,1.7568899517944965e-15,8.281923193131686e-17,636.2557048250528,636.2557048250534,636.255704825053,636.2557048250536
0.208,1.1047554356809017e-17,6.0,0.034637180740558375,6.770609970953005e-15,-7.961768145430361e-15,-1.4153573554278169e-15,2.2175014825258103e-22,6.0,0.09063739605111147,1.7190856618484825e-22,1.985462280544902e-16,4.904599612381425e-17,0.39413205324313055,0.0,0.0,0.0,4.020970171606992,-8.164022099048586e-17,1.8146548540750822e-15,7.954728360553433e-17,635.9886080341049,635.9886080341054,635.9886080341051,635.9886080341056
0.212,1.1618411808545258e-17,6.0,0.03631902285547221,6.3733537540334184e-15,-9.356940423820446e-15,-1.4340073498414087e-15,2.214279439327436e-22,6.0,0.09341171157683367,1.7165878198818237e-22,2.040061836025599e-16,4.853616441431681e-17,0.40917360621236376,0.0,0.0,0.0,4.007422742364049,8.985835919023482e-19,1.9196765605413896e-15,7.99056579164136e-17,635.677056442339,635.6770564423397,635.6770564423392,635.6770564423398
0.216,1.2153303010149538e-17,6.0,0.0380610676295398,5.979723575944914e-15,-1.0718932211776263e-14,-1.4482562580325788e-15,2.211016346587627e-22,6.0,0.09622137249463043,1.7140581548572489e-22,2.084353891123173e-16,4.75097806458921e-17,0.42422300646517763,0.0,0.0,0.0,3.9920292504100594,2.3829663034065584e-17,2.05510653497468e-15,7.553032125047265e-17,635.3228653346752,635.3228653346758,635.3228653346754,635.322865334676
0.22,1.2646551625939915e-17,6.0,0.03986327682496808,5.619985657786558e-15,-1.2001160010085107e-14,-1.4566832111368922e-15,2.207712814372218e-22,6.0,0.09906585351200382,1.7114971397193943e-22,2.118642033917412e-16,4.6222916652363726e-17,0.4392701304453329,0.0,0.0,0.0,3.974859132057156,1.1169938445962262e-17,2.1451551572969137e-15,6.931446230195059e-17,634.9275624648299,634.9275624648304,634.92756246483,634.9275624648307
0.224,1.3093320387653301e-17,6.0,0.04172557658714675,5.2845401113543295e-15,-1.3213225481243358e-14,-1.461177480691417e-15,2.2043694468820766e-22,6.0,0.1019446343864423,1.708905242866164e-22,2.1420377349088995e-16,4.491076507772804e-17,0.454305512232675,0.0,0.0,0.0,3.955979293319455,7.402681184558015e-18,2.236276803753618e-15,6.506650304400046e-17,634.4926128882566,634.4926128882574,634.4926128882569,634.4926128882574
0.228,1.34890347409172e-17,6.0,0.043647861458666025,4.960024319287177e-15,-1.436098572610301e-14,-1.4608015572479381e-15,2.200986842501729e-22,6.0,0.1048571998835496,1.706282928186429e-22,2.1540319556872303e-16,4.3602472374767765e-17,0.46932059710223106,0.0,0.0,0.0,3.9354497033274987,1.7578215112905922e-17,2.3308263908169656e-15,5.956189585636613e-17,634.019318071927,634.0193180719278,634.0193180719273,634.019318071928
0.232,1.3829316812410912e-17,6.0,0.045629999846451136,4.648729833133549e-15,-1.5443715268637782e-14,-1.456502452015095e-15,2.197565593847616e-22,6.0,0.10780303973549582,1.7036306550974365e-22,2.1555496787056274e-16,4.224970239778846e-17,0.484307847516971,0.0,0.0,0.0,3.913320316709007,2.4330427529876494e-17,2.422117327353065e-15,5.4963561710479875e-17,633.508745099594,633.5087450995948,633.5087450995942,633.5087450995949
0.23600000000000002,1.4109102982639426e-17,6.0,0.04767181747455857,4.346261219526472e-15,-1.6366800714318206e-14,-1.4481749415252617e-15,2.1941062878159734e-22,6.0,0.1107816485997882,1.7009488785819281e-22,2.1438745202924448e-16,4.082012293376094e-17,0.49925895138748233,0.0,0.0,0.0,3.8896755772141436,3.5311225624613904e-17,2.4106300098090368e-15,5.008121144250915e-17,632.9627545308059,632.9627545308067,632.962754530806,632.9627545308067
0.24000000000000002,1.4323647860884405e-17,6.0,0.04977310897779231,4.057704005314552e-15,-1.7014197684541314e-14,-1.4389621812695515e-15,2.190609505630349e-22,6.0,0.11379252601835949,1.698238049224977e-22,2.111663779685008e-16,3.9326589008686535e-17,0.5141649884315821,0.0,0.0,0.0,3.864577832479837,3.974995516470574e-17,2.253791174469878e-15,4.870514452781784e-17,632.3826962672382,632.382696267239,632.3826962672384,632.382696267239
0.24400000000000002,1.4470342928644183e-17,6.0,0.05193363993918918,3.7801545936677264e-15,-1.7384315251333732e-14,-1.4274623059043794e-15,2.18707582288875e-22,6.0,0.11683517637697124,1.6954986132505373e-22,2.0522238575435965e-16,3.7783857188864307e-17,0.5290179025803025,0.0,0.0,0.0,3.8380863582466374,4.662801429903599e-17,2.0559103684125593e-15,4.5655126007131145e-17,631.7698484094847,631.7698484094855,631.7698484094849,631.7698484094855
0.24800000000000003,1.4547864181447655e-17,6.0,0.05415314797650633,3.495879382813496e-15,-1.749490132871153e-14,-1.4174664398073635e-15,2.1835058096104257e-22,6.0,0.1199091088649301,1.6927310125577139e-22,1.9641019911571738e-16,3.615530710744213e-17,0.5438104985246647,0.0,0.0,0.0,3.810259222948873,7.346143507640439e-17,1.8476519334015355e-15,4.693982393939971e-17,631.1254608047943,631.1254608047949,631.1254608047944,631.1254608047949
0.252,1.4555998820914265e-17,6.0,0.05643134380354227,3.196792400431232e-15,-1.7371768203120323e-14,-1.4046098324606258e-15,2.1799000302822955e-22,6.0,0.1230138374351143,1.689935684756752e-22,1.8498240592988528e-16,3.435759347777307e-17,0.5585358504742233,0.0,0.0,0.0,3.781153303631678,1.101970337931158e-16,1.6406179673139604e-15,4.318756252615653e-17,630.4507559168526,630.4507559168533,630.4507559168528,630.4507559168533
0.256,1.4495314846398204e-17,6.0,0.05876791226576432,2.8828796832910505e-15,-1.7026655055419243e-14,-1.388796762156965e-15,2.176259043905013e-22,6.0,0.12614888076430864,1.6871130632047505e-22,1.7121292887965207e-16,3.228820392805638e-17,0.5731872963683208,0.0,0.0,0.0,3.7508243037411964,1.4796180189823315e-16,1.4230747090206566e-15,3.920601177734822e-17,629.746929699408,629.7469296994086,629.7469296994083,629.7469296994086
0.26,1.4367304103136535e-17,6.0,0.06116251335144623,2.5459931663107326e-15,-1.647800373089968e-14,-1.3700486078573381e-15,2.172583404038677e-22,6.0,0.12931376221384513,1.6842635770410977e-22,1.553033702155881e-16,2.9887643780877e-17,0.5877584315594131,0.0,0.0,0.0,3.719326769291774,1.9625514847901713e-16,1.2013355192250474e-15,3.512803314924137e-17,629.0151523952306,629.0151523952311,629.0151523952308,629.0151523952311
0.264,1.417346237470593e-17,6.0,0.06361478317935428,2.1994101652385677e-15,-1.5665259076807814e-14,-1.3541825737683893e-15,2.168873658848192e-22,6.0,0.1325080097905475,1.6813876512226353e-22,1.3719921149058885e-16,2.7134872530803913e-17,0.6022431027504861,0.0,0.0,0.0,3.686714103707258,2.306151462533483e-16,8.94356599547683e-16,3.772494491076045e-17,628.2565692692951,628.2565692692955,628.2565692692953,628.2565692692956
0.268,1.3916579386676765e-17,6.0,0.06612433496388294,1.873430874136003e-15,-1.4563990824246158e-14,-1.337175709616291e-15,2.165130351148274e-22,6.0,0.13573115610797695,1.6784857065585504e-22,1.1663007277677904e-16,2.4139489373215703e-17,0.6166354021842978,0.0,0.0,0.0,3.653038581582366,2.3025569438884427e-16,5.251340857408602e-16,3.5740763730942723e-17,627.4723012837609,627.4723012837612,627.472301283761,627.4723012837612
0.272,1.3601325767960356e-17,6.0,0.06869075995842447,1.5495798086809209e-15,-1.3228101518103736e-14,-1.3161506460705771e-15,2.1613540184481135e-22,6.0,0.13898273834797734,1.6755581597449985e-22,9.349920869638535e-17,2.1035139964780225e-17,0.6309296620512204,0.0,0.0,0.0,3.6183513615724183,2.5006173354383865e-16,1.755323228002158e-16,3.034851401829553e-17,626.6634457213297,626.66344572133,626.6634457213299,626.6634457213299
0.276,1.3232973265834745e-17,6.0,0.07131363329651859,1.2544911433564625e-15,-1.1679683079243617e-14,-1.291080549187129e-15,2.157545192995691e-22,6.0,0.14226229822251724,1.6726054233994582e-22,6.821902838333007e-17,1.7924172277398473e-17,0.6451209409736077,0.0,0.0,0.0,3.5826925156779437,2.386206511856554e-16,-1.7459810243567595e-16,2.4759917814891373e-17,625.830843515682,625.8308435156821,625.8308435156821,625.830843515682
0.28,1.2816810323484776e-17,6.0,0.07399252257754588,9.726680634224173e-16,-9.863411575980397e-15,-1.2630034010015755e-15,2.15370440182175e-22,6.0,0.14556938193582664,1.6696279060948222e-22,4.086476345349246e-17,1.4855753724312313e-17,0.6592057871590201,0.0,0.0,0.0,3.546085272405609,2.4330886029137427e-16,-6.078850790898633e-16,2.021774667623561e-17,624.9749432288635,624.9749432288634,624.9749432288635,624.9749432288633
0.28400000000000003,1.2360353145787488e-17,6.0,0.07672695594099885,6.749538303765932e-16,-7.850462126191864e-15,-1.232782368215888e-15,2.14983216678343e-22,6.0,0.14890354014682664,1.6666260123932224e-22,1.1532617171971841e-17,1.1757306148060058e-17,0.6731789525524403,0.0,0.0,0.0,3.5086179611008173,2.811372053223957e-16,-1.0062240289063797e-15,1.6560411531734552e-17,624.0977185239957,624.0977185239956,624.0977185239958,624.0977185239955
0.28800000000000003,1.187189367842382e-17,6.0,0.07951644208923649,4.055739462315671e-16,-5.7110296815683234e-15,-1.2061966479950096e-15,2.145929004607566e-22,6.0,0.15226432793184935,1.6636001428795955e-22,-1.9275002379816975e-17,8.564793768574632e-18,0.6870337167860937,0.0,0.0,0.0,3.4703395989590646,2.6840867365252628e-16,-1.3508910244823983e-15,1.956605773577035e-17,623.2002294558014,623.2002294558013,623.2002294558015,623.2002294558011
0.29200000000000004,1.1360097287771224e-17,6.0,0.08236047273401152,1.4462705469618386e-16,-3.502384023941641e-15,-1.1808403532241639e-15,2.1419954269336466e-22,6.0,0.15565130474764624,1.6605506941949885e-22,-5.063135844943558e-17,5.354249741578428e-18,0.7007646168914793,0.0,0.0,0.0,3.4312949234650114,2.7698203046531e-16,-1.648214424650002e-15,1.991052497641273e-17,622.2834395800024,622.2834395800021,622.2834395800026,622.2834395800021
0.29600000000000004,1.0834226042615275e-17,6.0,0.08525852887996749,-8.055863544718302e-17,-1.316427968333678e-15,-1.1514040976169391e-15,2.1380319403564443e-22,6.0,0.15906403439468267,1.6574780590696057e-22,-8.161427288833175e-17,2.2623350207732215e-18,0.7143680067627083,0.0,0.0,0.0,3.3915165266951384,2.5306668450891865e-16,-1.8568319552696716e-15,1.4103273624393024e-17,621.3480304588675,621.3480304588671,621.3480304588676,621.3480304588671
0.30000000000000004,1.0302661007301403e-17,6.0,0.08821009021815047,-2.8985407702317e-16,8.382313182184898e-16,-1.1202020933581731e-15,2.134039046468316e-22,6.0,0.16250208498071644,1.654382626355601e-22,-1.1153001803301535e-16,-6.460259510029623e-19,0.7278418440304218,0.0,0.0,0.0,3.3510183426500744,2.499098581315658e-16,-2.0510921118159598e-15,1.0831851726324989e-17,620.3942462879113,620.394246287911,620.3942462879114,620.3942462879108
0.30400000000000005,9.773397289511887e-18,6.0,0.09121460463877042,-5.013565676741212e-16,2.974502525574505e-15,-1.0867105985498391e-15,2.130017241901172e-22,6.0,0.1659650288846585,1.6512647810596157e-22,-1.4006360905125626e-16,-3.444584755931827e-18,0.7411825682980683,0.0,0.0,0.0,3.309876285874796,2.6679921960747323e-16,-2.2606523670626647e-15,6.876109147603595e-18,619.4237942506476,619.4237942506471,619.4237942506477,619.4237942506469
0.30800000000000005,9.255244829551874e-18,6.0,0.09427152537047788,-6.896097976055304e-16,5.012946019085435e-15,-1.053958043454998e-15,2.1259670183681255e-22,6.0,0.16945244272071341,1.648124904375064e-22,-1.6699518198169983e-16,-6.220519541221004e-18,0.7543869526591918,0.0,0.0,0.0,3.2680919737832332,2.541133466950409e-16,-2.392309462295628e-15,6.3640381491671485e-18,618.4366341234511,618.4366341234507,618.4366341234512,618.4366341234505
0.31200000000000006,8.756363522524973e-18,6.0,0.09738028426200182,-8.390960380823496e-16,6.905424583470823e-15,-1.021004543185329e-15,2.1218888627048144e-22,6.0,0.1729639073027977,1.6449633737141695e-22,-1.9167140937200384e-16,-8.832805298747565e-18,0.7674522595362901,0.0,0.0,0.0,3.2257211422567003,2.2171707962212176e-16,-2.460877039303963e-15,4.78437621717786e-18,617.4340057270989,617.4340057270985,617.434005727099,617.4340057270982
0.31600000000000006,8.284341036277182e-18,6.0,0.10054026396675447,-9.383642193340558e-16,8.603116568755796e-15,-9.83846150987854e-16,2.1177832569104056e-22,6.0,0.1764990076092341,1.641780562739752e-22,-2.1330563597907463e-16,-1.1040178776790578e-17,0.7803715511847595,0.0,0.0,0.0,3.1828767233584068,1.7329804870569632e-16,-2.462713934358205e-15,-1.4807801238807286e-18,616.4185124947942,616.4185124947937,616.4185124947942,616.4185124947935
0.32000000000000006,7.845193586341854e-18,6.0,0.10375083058615728,-9.96227726615343e-16,1.0141057514558315e-14,-9.405691368214922e-16,2.113650678188281e-22,6.0,0.18005733274771932,1.6385768413967688e-22,-2.316579653205733e-16,-1.2717955009948866e-17,0.7931368046683527,0.0,0.0,0.0,3.1396070297231136,1.3173666325950483e-16,-2.4803626617457755e-15,-1.0154142167030492e-17,615.3912386969673,615.3912386969669,615.3912386969673,615.3912386969666
0.32400000000000007,7.443936361435708e-18,6.0,0.1070113620528084,-9.90143752540238e-16,1.1585369839441365e-14,-8.916853653837396e-16,2.1094915989864069e-22,6.0,0.1836384759205638,1.635352575943611e-22,-2.470666139436921e-16,-1.3727664737572162e-17,0.805744975323121,0.0,0.0,0.0,3.09590335951727,6.101996149991096e-17,-2.5579260583831058e-15,-1.8480815612427574e-17,614.3519181238454,614.3519181238448,614.3519181238454,614.3519181238446
0.32800000000000007,7.085507273657345e-18,6.0,0.11032122623221537,-9.31578049532108e-16,1.2966706206657216e-14,-8.381180934821734e-16,2.1053064870373919e-22,6.0,0.18724203439020098,1.6321081289831574e-22,-2.6032388937523513e-16,-1.398408503147941e-17,0.8181963668796974,0.0,0.0,0.0,3.0518011380319563,-6.806901727690478e-19,-2.6684928177864638e-15,-2.595921061042274e-17,613.3013341400463,613.3013341400456,613.3013341400462,613.3013341400454
0.3320000000000001,6.774937497658791e-18,6.0,0.11367978153039289,-8.293594587652192e-16,1.427727433675672e-14,-7.815223913175456e-16,2.1010958053982316e-22,6.0,0.1908676094449645,1.6288438594935856e-22,-2.7183386030702113e-16,-1.3466378909315002e-17,0.8304891520332521,0.0,0.0,0.0,3.007334939243931,-5.566044310155676e-17,-2.771239908808196e-15,-3.169654150066263e-17,612.2402545034461,612.2402545034454,612.240254503446,612.2402545034452
0.3360000000000001,6.516748168229428e-18,6.0,0.11708637745404256,-6.8090274459658e-16,1.5531444656063846e-14,-7.224868417737033e-16,2.096860012489747e-22,6.0,0.19451480636513083,1.625560122858947e-22,-2.817667574782338e-16,-1.2234073268034289e-17,0.8426209999862058,0.0,0.0,0.0,2.962538562184319,-1.1664414745816372e-16,-2.884613852283798e-15,-3.68706716043105e-17,611.1694331949409,611.1694331949401,611.1694331949408,611.16943319494
0.3400000000000001,6.3153505580553915e-18,6.0,0.12054036153820992,-5.105739329729528e-16,1.6729579444407822e-14,-6.644339350400958e-16,2.0925995621357146e-22,6.0,0.19818323438922603,1.6222572708995012e-22,-2.9014652155697923e-16,-1.0356973916277095e-17,0.8545903576759217,0.0,0.0,0.0,2.917432089686055,-1.523367265065315e-16,-2.9975274522248647e-15,-3.814697995578729e-17,610.089300254465,610.0893002544642,610.0893002544649,610.0893002544641
0.3440000000000001,6.1756457289307256e-18,6.0,0.12404109625823248,-3.1285646489915736e-16,1.7799958556567693e-14,-6.062204656134671e-16,2.0883149036016937e-22,6.0,0.20187250668059406,1.6189356519018163e-22,-2.967907409364292e-16,-7.938120600602081e-18,0.8663980839920745,0.0,0.0,0.0,2.872001403739259,-1.9596683611754644e-16,-3.0327756552102894e-15,-4.071838263624808e-17,608.9994671574348,608.999467157434,608.9994671574345,608.9994671574337
0.3480000000000001,6.101950269053087e-18,6.0,0.1275879143875119,-1.009880049330865e-16,1.8687499777454743e-14,-5.491502016900944e-16,2.0840064816335512e-22,6.0,0.20558224029422517,1.615595610648635e-22,-3.009367773498524e-16,-5.101343776894645e-18,0.8780429296334326,0.0,0.0,0.0,2.826322570991222,-2.2601179726929183e-16,-2.992821967850455e-15,-4.1773371121760265e-17,607.9017114233388,607.9017114233379,607.9017114233386,607.9017114233378
0.3520000000000001,6.0972479086475035e-18,6.0,0.13118009672156813,1.1837069751633974e-16,1.940027663379926e-14,-4.942326200243317e-16,2.079674736495688e-22,6.0,0.20931205614384213,1.6122374884485088e-22,-3.0196851144777115e-16,-1.9242953396299672e-18,0.8895171987811507,0.0,0.0,0.0,2.780517872736289,-2.4924646394559634e-16,-2.9384894577444237e-15,-4.160218743507649e-17,606.798936729046,606.7989367290452,606.7989367290457,606.798936729045
0.3560000000000001,6.164987653632539e-18,6.0,0.13481693553602,3.3925761779767316e-16,1.9836981450919572e-14,-4.408625096515878e-16,2.075320104008965e-22,6.0,0.2130615789692425,1.6088616231652e-22,-2.9934148151489405e-16,1.4530843466879636e-18,0.9008145236984678,0.0,0.0,0.0,2.7345825163231767,-2.660312818371811e-16,-2.762484025824445e-15,-4.204958979819617e-17,605.6909999587152,605.6909999587145,605.690999958715,605.6909999587143
0.3600000000000001,6.3066340024823315e-18,6.0,0.1384977411512524,5.690605945808019e-16,2.000118590919592e-14,-3.8651855412608454e-16,2.0709430155883384e-22,6.0,0.21683043730389517,1.6054683492468568e-22,-2.9243483925910373e-16,5.003031355201603e-18,0.9119360508939772,0.0,0.0,0.0,2.688498077569112,-2.915476214433443e-16,-2.552225255136253e-15,-4.537874431630653e-17,604.5774271254317,604.5774271254309,604.5774271254314,604.5774271254307
0.3640000000000001,6.522546867454666e-18,6.0,0.1422218054165307,8.084492470183632e-16,1.9904683718975296e-14,-3.3424106091141483e-16,2.0665438982801983e-22,6.0,0.22061826344278906,1.6020579977549609e-22,-2.8094060767335063e-16,8.762187248534309e-18,0.9228828366370291,0.0,0.0,0.0,2.6423197235978146,-3.1845559812090784e-16,-2.326185502077387e-15,-4.5196328171238104e-17,603.4595237736288,603.4595237736281,603.4595237736286,603.459523773628
0.3680000000000001,6.812122890316751e-18,6.0,0.14598841037228047,1.0364985604866353e-15,1.9559964366416116e-14,-2.8032512557673734e-16,2.0621231747994175e-22,6.0,0.2244246934105323,1.5986308963930485e-22,-2.6512232963028005e-16,1.265368893820978e-17,0.9336524533071684,0.0,0.0,0.0,2.5960856866553135,-3.215842485671999e-16,-2.0867221840808434e-15,-4.925697066690369e-17,602.338193915244,602.3381939152434,602.3381939152438,602.3381939152433
0.3720000000000001,7.173195507980969e-18,6.0,0.1497968441212488,1.299721070112194e-15,1.9044949300662756e-14,-2.2924072210755607e-16,2.0576812635661134e-22,6.0,0.22824936692969985,1.595187369535209e-22,-2.4564347897095013e-16,1.6761937320346478e-17,0.944243188390731,0.0,0.0,0.0,2.5498023569675303,-3.7825168222175863e-16,-1.9033046533969423e-15,-4.8163256418864146e-17,601.213573796621,601.2135737966203,601.2135737966206,601.2135737966203
0.376,7.603520104202311e-18,6.0,0.15364638511656845,1.5401314454335179e-15,1.8380619649724732e-14,-1.7967458054716838e-16,2.0532185787421206e-22,6.0,0.2320919273894278,1.5917277382543604e-22,-2.2333683220645024e-16,2.105081962096136e-17,0.95465512306023,0.0,0.0,0.0,2.5035078746880743,-3.7052037005106167e-16,-1.7474786242187244e-15,-4.847137267938896e-17,600.0865742809048,600.0865742809042,600.0865742809044,600.0865742809042
0.38,8.101103661077745e-18,6.0,0.15753633121371335,1.7997891060748843e-15,1.751156858655138e-14,-1.3199058420353008e-16,2.048735530267181e-22,6.0,0.2359520218142531,1.5882523203503046e-22,-1.984507409392587e-16,2.5518261577091694e-17,0.9648886045943245,0.0,0.0,0.0,2.457181781269045,-4.105110949959959e-16,-1.518576426413696e-15,-4.829553134823814e-17,598.9566824831463,598.9566824831459,598.956682483146,598.9566824831459
0.384,8.662423873820641e-18,6.0,0.1614659758676743,2.068712799825562e-15,1.6467997382406006e-14,-8.653528420090318e-17,2.0442325238948511e-22,6.0,0.23982930083319517,1.584761430377565e-22,-1.7089323531916078e-16,3.014662368078343e-17,0.9749455869055096,0.0,0.0,0.0,2.4108513624063956,-4.403438386494336e-16,-1.2920659860446408e-15,-4.764090553854784e-17,597.8245493907666,597.8245493907662,597.8245493907663,597.824549390766
0.388,9.283965146203038e-18,6.0,0.16543459589010673,2.3161911423318516e-15,1.5217351967253665e-14,-5.173579657859307e-17,2.039709961228129e-22,6.0,0.24372341864907995,1.5812553796730046e-22,-1.4049041232757815e-16,3.497757168843263e-17,0.9848244282481267,0.0,0.0,0.0,2.3645689452224286,-4.3513528133512496e-16,-1.0131908057820618e-15,-3.705373155430365e-17,596.6914445576791,596.6914445576789,596.691444557679,596.6914445576788
0.392,9.961511299466213e-18,6.0,0.16944146018673722,2.4311450183989107e-15,1.3730787233990793e-14,-2.7609453520293608e-17,2.0351682397548032e-22,6.0,0.24763403300810274,1.5777344763832306e-22,-1.0716032848186491e-16,3.922436839365966e-17,0.9945224641081275,0.0,0.0,0.0,2.3183697083580457,-2.9892233113282093e-16,-6.75624687963233e-16,-2.601117835788181e-17,595.558226153817,595.5582261538168,595.5582261538168,595.5582261538168
0.396,1.0690241597823471e-17,6.0,0.17348586759678158,2.4408446188626878e-15,1.1964669063956245e-14,-1.0748017477193116e-17,2.0306077528825263e-22,6.0,0.251560805169629,1.574199025491784e-22,-7.029841791096239e-17,4.1959155674142614e-17,1.004040647952112,0.0,0.0,0.0,2.272212339986445,-1.8557158179011693e-16,-2.604366784349431e-16,-1.8513396240325283e-17,594.4238772954217,594.4238772954217,594.4238772954216,594.4238772954216
0.4,1.146331372331682e-17,6.0,0.17756715999538933,2.3625568912756398e-15,9.98579328059634e-15,2.0534284845855375e-18,2.026028889973613e-22,6.0,0.2555033998762308,1.5706493288461173e-22,-2.9864168475382334e-17,4.283810016759544e-17,1.0133868178838046,0.0,0.0,0.0,2.2260280350542363,-8.519324104726454e-17,1.236864214096411e-16,-1.4462320587434474e-17,593.2866957119484,593.2866957119485,593.2866957119483,593.2866957119484
0.404,1.2273148308736037e-17,6.0,0.18168464330081305,2.1785760743419858e-15,7.858448914945251e-15,1.150769423736642e-17,2.0214320363795676e-22,6.0,0.2594614853239578,1.5670856851843602e-22,1.3410820400041635e-17,4.194699065289331e-17,1.022563109552349,0.0,0.0,0.0,2.179906985828329,4.193212811713334e-17,4.620678736031936e-16,-1.1078097036594279e-17,592.1488922627232,592.1488922627234,592.1488922627232,592.1488922627233
0.40800000000000003,1.3112075342264248e-17,6.0,0.18583757453079655,1.929448980217551e-15,5.604023756941335e-15,1.8808573629587586e-17,2.016817573475341e-22,6.0,0.26343473313284044,1.5635083901618773e-22,5.839976859639521e-17,3.9383731381081595e-17,1.0315629545543963,0.0,0.0,0.0,2.133966851774911,1.2906565816474115e-16,7.937121991203736e-16,-8.951627519675991e-18,591.0133743860353,591.0133743860356,591.0133743860353,591.0133743860354
0.41200000000000003,1.3971877490325453e-17,6.0,0.19002520509849957,1.6184987060792597e-15,3.260936800375419e-15,2.5020178538047647e-17,2.01218587869332e-22,6.0,0.2674228183176237,1.5599177363776186e-22,1.0440177330739296e-16,3.5356663066639275e-17,1.040378177902593,0.0,0.0,0.0,2.088239032857719,2.169474804740994e-16,1.1028785904575965e-15,-7.98029366944357e-18,589.8809336421202,589.8809336421207,589.8809336421202,589.8809336421205
0.41600000000000004,1.484401473428759e-17,6.0,0.1942468180629624,1.2520040405106357e-15,8.705550770845351e-16,2.5366366334787674e-17,2.0075373255570503e-22,6.0,0.27142541925873015,1.5563140134002614e-22,1.5074735218995197e-16,3.010683387980291e-17,1.049009179110552,0.0,0.0,0.0,2.0426795582588384,3.0194205789004257e-16,1.3815297000681434e-15,-1.3853745179784346e-18,588.750495721208,588.7504957212086,588.750495721208,588.7504957212084
0.42000000000000004,1.57200217531751e-17,6.0,0.19850172280287814,8.628129206693165e-16,-1.544213980082703e-15,1.752914118896387e-17,2.0028722837146958e-22,6.0,0.27544221767345,1.55269750779415e-22,1.9669963778135376e-16,2.384075881074679e-17,1.0574625159502664,0.0,0.0,0.0,1.9972543084089185,3.526331537212013e-16,1.6442035310372633e-15,8.158159038471685e-18,587.6212231545325,587.6212231545331,587.6212231545326,587.621223154533
0.42400000000000004,1.6591524916481538e-17,6.0,0.20278924845195245,4.598306825668903e-16,-3.973365307832151e-15,8.067022460820223e-18,1.9981911189722358e-22,6.0,0.27947289858735697,1.5490685031450314e-22,2.417954110083196e-16,1.6880211650179534e-17,1.0657441915926824,0.0,0.0,0.0,1.9519416976049382,3.947489442314274e-16,1.9042982867277656e-15,1.0376889292813577e-17,586.4925845036172,586.492584503618,586.4925845036173,586.4925845036178
0.42800000000000005,1.7450361982753948e-17,6.0,0.20710869094708637,4.8594675631063876e-17,-6.4261355803409275e-15,-2.9060190871777416e-19,1.9934941933264022e-22,6.0,0.28351715030594793,1.545427280085589e-22,2.8587892724364246e-16,9.494074729851468e-18,1.0738540018598393,0.0,0.0,0.0,1.9068270262944282,4.316229964810868e-16,2.182278910013042e-15,9.474646771785856e-18,585.36671422256,585.3667142225607,585.3667142225601,585.3667142225605
0.43200000000000005,1.8287721994132983e-17,6.0,0.2114593213615501,-3.210207505888803e-16,-8.848190366941772e-15,-1.4030268868569247e-18,1.988781864997359e-22,6.0,0.28757466438650475,1.5417741163207768e-22,3.2869622308918402e-16,2.007504970423797e-18,1.0817870787067085,0.0,0.0,0.0,1.861979789896373,4.111086641981365e-16,2.4145453548009473e-15,1.3543191209054988e-18,584.2453676281172,584.2453676281182,584.2453676281173,584.245367628118
0.43600000000000005,1.9094947286873837e-17,6.0,0.21584043026528146,-6.201642990662888e-16,-1.1188469991122377e-14,-1.8487473067102908e-19,1.9840544884611244e-22,6.0,0.291645135610177,1.5381092866529548e-22,3.6954440107772617e-16,-4.988502673969133e-18,1.0895404212693083,0.0,0.0,0.0,1.8173802951766076,3.5431566390682846e-16,2.592527079681333e-15,-1.322386127559758e-18,583.1280769969109,583.1280769969119,583.128076996911,583.1280769969118
0.44000000000000006,1.986382520030208e-17,6.0,0.2202512932897279,-8.196003069175687e-16,-1.3408859246720562e-14,1.168029214835624e-17,1.97931241448174e-22,6.0,0.29572826195428326,1.5344330630068271e-22,4.07476617535785e-16,-1.0804105462456774e-17,1.0971142131778606,0.0,0.0,0.0,1.773078162268382,2.5877304036241558e-16,2.7244139151734726e-15,-1.380979159871005e-17,582.0161123228589,582.0161123228598,582.0161123228589,582.0161123228597
0.44400000000000006,2.0587014416963456e-17,6.0,0.22469120598183553,-9.056340318675755e-16,-1.5514110862369407e-14,2.923676490839432e-17,1.974555990143187e-22,6.0,0.29982374456482985,1.5307457144541847e-22,4.4195836730843576e-16,-1.488395549240697e-17,1.1045094296208147,0.0,0.0,0.0,1.7290527985839388,1.4055961705539916e-16,2.8523799417792596e-15,-2.0946174530604415e-17,580.908985845756,580.908985845757,580.908985845756,580.9089858457568
0.44800000000000006,2.125779963047628e-17,6.0,0.22915943114403448,-8.941239985294338e-16,-1.7524127483221328e-14,5.400993177855569e-17,1.9697855588810511e-22,6.0,0.30393128772924555,1.5270475072384537e-22,4.729942476044242e-16,-1.6986691535164654e-17,1.1117245424298066,0.0,0.0,0.0,1.685389898322644,3.3170052459161184e-17,2.9966267724418086e-15,-3.009938113272199e-17,579.8088864233338,579.8088864233348,579.8088864233337,579.8088864233347
0.45200000000000007,2.1869583957362134e-17,6.0,0.2336552311699682,-7.779908758830649e-16,-1.9431825746780378e-14,8.400767319425168e-17,1.9650014605139413e-22,6.0,0.30805059884933,1.5233387047990508e-22,5.007920653381815e-16,-1.706974593705204e-17,1.1187567411336725,0.0,0.0,0.0,1.642110620644016,-8.916458541119244e-17,3.1324522913142417e-15,-3.7223547248636504e-17,578.7163887539599,578.7163887539609,578.7163887539599,578.7163887539608
0.45600000000000007,2.2416483710920556e-17,6.0,0.23817789707832823,-5.856869472345065e-16,-2.126192382049771e-14,1.194475624110545e-16,1.9602040312746585e-22,6.0,0.3121813884144149,1.519619567795548e-22,5.255780617263831e-16,-1.5249534076746303e-17,1.125606987307573,0.0,0.0,0.0,1.599177259687047,-1.8551002155467105e-16,3.28952611560032e-15,-4.48185054148657e-17,577.630581473597,577.6305814735981,577.6305814735969,577.6305814735979
0.4600000000000001,2.289229142492704e-17,6.0,0.24272672511335913,-3.260577989000806e-16,-2.297484744830217e-14,1.5849258757423444e-16,1.955393603841121e-22,6.0,0.3163233699747358,1.5158903541316466e-22,5.474008666911421e-16,-1.1762038096400489e-17,1.13227963708922,0.0,0.0,0.0,1.5565987327885464,-2.768691738616999e-16,3.4060083732888153e-15,-5.0493489522916876e-17,576.551728540401,576.551728540402,576.5517285404007,576.5517285404018
0.4640000000000001,2.3290381522302555e-17,6.0,0.2473010168157578,3.15172866059938e-18,-2.4451545408354014e-14,1.9838485546159047e-16,1.9505705073670479e-22,6.0,0.3204762601150138,1.5121513189789633e-22,5.654306544500654e-16,-6.831766709840151e-18,1.1387766806941202,0.0,0.0,0.0,1.514383692440758,-3.7564686258815617e-16,3.387784874342654e-15,-5.309758258449414e-17,575.4800889166316,575.4800889166327,575.4800889166313,575.4800889166324
0.4680000000000001,2.360524788418066e-17,6.0,0.2519000790659274,4.026531176225464e-16,-2.56117606140459e-14,2.345342118764043e-16,1.9457350675123983e-22,6.0,0.3246397784282443,1.5084027148006288e-22,5.779554079060055e-16,-4.511069734113628e-19,1.1450994446357359,0.0,0.0,0.0,1.4725405797080882,-4.802432750923162e-16,3.2544022314289945e-15,-5.037722522437627e-17,574.4159178495863,574.4159178495873,574.415917849586,574.4159178495872
0.4720000000000001,2.3832686920930367e-17,6.0,0.25652321241865933,8.39952938384004e-16,-2.6402523948130546e-14,2.654121890465075e-16,1.940887606473574e-22,6.0,0.32881364748969266,1.5046447913747016e-22,5.834071493783043e-16,7.237385111835448e-18,1.1512480955626432,0.0,0.0,0.0,1.43110138516011,-5.519816859889054e-16,3.029059253860928e-15,-4.572020352362629e-17,573.3600727758597,573.3600727758607,573.3600727758594,573.3600727758605
0.4760000000000001,2.3969877124636314e-17,6.0,0.2611697184948163,1.3424213852642905e-15,-2.678896100926405e-14,2.9201805786287874e-16,1.9360284430133825e-22,6.0,0.332997592831094,1.5008777958173962e-22,5.808169861663098e-16,1.613514815492045e-17,1.157222375163544,0.0,0.0,0.0,1.3900833438728712,-6.585711987843663e-16,2.7270818698168093e-15,-4.201618413471592e-17,572.3130401244291,572.3130401244299,572.3130401244289,572.3130401244299
0.4800000000000001,2.4014835766378914e-17,6.0,0.2658389257573306,1.9082128793429398e-15,-2.668965454770408e-14,3.2038897122784134e-16,1.931157892490765e-22,6.0,0.33719134291505654,1.497101972606129e-22,5.692794995724282e-16,2.627807783936889e-17,1.163024374511251,0.0,0.0,0.0,1.349451388120304,-7.678127436780926e-16,2.2966990552980034e-15,-4.519094491534006e-17,571.2739707577558,571.2739707577564,571.2739707577554,571.2739707577564
0.4840000000000001,2.3967594062527715e-17,6.0,0.27053017329300527,2.5033660666818623e-15,-2.6072649657194617e-14,3.4548300035278826e-16,1.9262762668902892e-22,6.0,0.3413946291096666,1.493317563602383e-22,5.479429723298234e-16,3.7644084060991665e-17,1.168658733586342,0.0,0.0,0.0,1.309202553085191,-8.421216925090618e-16,1.7754199592320713e-15,-4.2550394665827827e-17,570.2428321822007,570.242832182201,570.2428321822002,570.242832182201
0.4880000000000001,2.383060929314543e-17,6.0,0.27524282009298423,3.104640771578125e-15,-2.498280590201754e-14,3.6475199484782217e-16,1.921383874851411e-22,6.0,0.34560718566329346,1.4895248080743923e-22,5.165244633031103e-16,4.984438626591845e-17,1.1741293819109209,0.0,0.0,0.0,1.2693147434689587,-8.917156528157676e-16,1.2439377046246405e-15,-3.68003943061552e-17,569.2190999055815,569.2190999055817,569.2190999055812,569.2190999055817
0.4920000000000001,2.360771847577114e-17,6.0,0.2799762066730088,3.670252756489245e-15,-2.3446986500866416e-14,3.7644278736488307e-16,1.9164810216975046e-22,6.0,0.3498287496795929,1.4857239427196469e-22,4.756523992159312e-16,6.223639238844628e-17,1.1794372868723313,0.0,0.0,0.0,1.229843164361036,-8.933551781097893e-16,6.941283989687989e-16,-2.876456782070323e-17,568.2042346232513,568.2042346232513,568.204234623251,568.2042346232514
0.4960000000000001,2.3304454703846927e-17,6.0,0.2847296667408776,4.226406048940855e-15,-2.1518300498648375e-14,3.80984102197747e-16,1.911568009464664e-22,6.0,0.35405906109270824,1.4819152016872205e-22,4.264329973834654e-16,7.441906016427595e-17,1.1845803707389468,0.0,0.0,0.0,1.1908199727959747,-9.23550165529168e-16,1.5328382903874981e-16,-2.0919189918049e-17,567.1991129356212,567.199112935621,567.1991129356209,567.1991129356212
0.5000000000000001,2.2927290523763198e-17,6.0,0.2895025417066307,4.786017133662396e-15,-1.9218090189588376e-14,3.819684939893094e-16,1.906645136930277e-22,6.0,0.3582978626426669,1.4780988165999225e-22,3.698781043823183e-16,8.635962238290612e-17,1.1895579686878708,0.0,0.0,0.0,1.1522481361008525,-9.685696110308907e-16,-4.050038012837508e-16,-1.6977220413355637e-17,566.2038633647466,566.2038633647463,566.2038633647463,566.2038633647464
0.5040000000000001,2.2483874575801276e-17,6.0,0.2942942136419349,5.32616495117188e-15,-1.657248486233564e-14,3.839379040312131e-16,1.9017126996413729e-22,6.0,0.3625448998509709,1.4742750165762745e-22,3.0683280155077885e-16,9.824467774226536e-17,1.1943743162715514,0.0,0.0,0.0,1.1140635259689924,-9.874505270921084e-16,-9.775786483132602e-16,-1.819496657296111e-17,565.216879045791,565.2168790457905,565.2168790457906,565.2168790457906
0.5080000000000001,2.1983401234300962e-17,6.0,0.2991040529076306,5.8557237143201444e-15,-1.3653432721065642e-14,3.840441723772178e-16,1.8967709899427487e-22,6.0,0.3667999209963806,1.4704440282523135e-22,2.383207496847373e-16,1.100188093607611e-16,1.1990337633616122,0.0,0.0,0.0,1.0763070495906326,-1.0157402989248624e-15,-1.514791736768868e-15,-1.6126197047889727e-17,564.239263466851,564.2392634668503,564.2392634668505,564.2392634668504
0.512,2.1435109205911405e-17,6.0,0.30393144850040743,6.379475611456197e-15,-1.0454243518749498e-14,3.8292101527319006e-16,1.8918202970048701e-22,6.0,0.3710626770908894,1.4666060758032232e-22,1.6532458974235902e-16,1.2160702371572179e-16,1.203538071098026,0.0,0.0,0.0,1.0389584390523765,-1.0492599841225615e-15,-2.087674004028207e-15,-1.472120913454223e-17,563.2705392613101,563.2705392613092,563.2705392613096,563.2705392613094
0.516,2.084948067183846e-17,6.0,0.3087757737803742,6.89186325311566e-15,-7.011787075252372e-15,3.8327573759614895e-16,1.8868609068515538e-22,6.0,0.37533292185588896,1.4627613809647927e-22,8.856585608257517e-17,1.3308268517411222e-16,1.2078873897141187,0.0,0.0,0.0,1.0020664290240926,-1.0762586861335337e-15,-2.6601702521143894e-15,-1.642821884856534e-17,562.3120196756012,562.3120196756,562.3120196756007,562.3120196756003
0.52,2.0238561499823772e-17,6.0,0.31363641295316347,7.372572927713588e-15,-3.445381433836719e-15,3.8962177535646167e-16,1.8818931023874306e-22,6.0,0.3796104116985217,1.4589101630547087e-22,9.153387320519184e-18,1.4432863815181823e-16,1.2120817557758068,0.0,0.0,0.0,0.9656265466799951,-1.0791170083447101e-15,-3.138583962222e-15,-2.3468346782619166e-17,561.3636404749508,561.3636404749496,561.3636404749504,561.3636404749498
0.524,1.9614831580095122e-17,6.0,0.31851277627679575,7.812370041226948e-15,1.2298890913186876e-16,3.9916560373033255e-16,1.876917163425191e-22,6.0,0.3838949056882217,1.455052638993676e-22,-7.071148726959948e-17,1.5506357829040394e-16,1.216124234857968,0.0,0.0,0.0,0.9296031503712823,-1.0693611800785562e-15,-3.500059092849435e-15,-2.7491661713152752e-17,560.4245231965233,560.424523196522,560.4245231965228,560.4245231965222
0.528,1.8990337874738974e-17,6.0,0.3234042731076721,8.195704428840505e-15,3.61460593814671e-15,4.050354083947437e-16,1.871933366712615e-22,6.0,0.38818616553344054,1.4511890233263716e-22,-1.4852095856724821e-16,1.649488375323658e-16,1.2200182412725578,0.0,0.0,0.0,0.8940145105689405,-1.0389562589185519e-15,-3.777243591291721e-15,-2.361958873492641e-17,559.4951919748489,559.4951919748476,559.4951919748485,559.4951919748477
0.532,1.8376175882728873e-17,6.0,0.3283103045375828,8.517009382395898e-15,7.0168339680728e-15,4.0486806015683197e-16,1.866941985959388e-22,6.0,0.39248395555855753,1.4473195282422352e-22,-2.2273204648244215e-16,1.7377339379104899e-16,1.2237639231134465,0.0,0.0,0.0,0.8588939084738598,-9.984574750549299e-16,-4.035667863553022e-15,-1.6836549733027802e-17,558.5765668842843,558.5765668842829,558.5765668842839,558.576566884283
0.536,1.778322208124152e-17,6.0,0.3332302988971196,8.756669991845641e-15,1.0303394578657285e-14,3.966849879896964e-16,1.8619432918637052e-22,6.0,0.396788042680973,1.4434443635960919e-22,-2.926653388121922e-16,1.8124341917592238e-16,1.2273627936228102,0.0,0.0,0.0,0.824202872347932,-9.310363186076653e-16,-4.266408201086518e-15,-7.494310293489546e-18,557.6676920858433,557.6676920858418,557.6676920858431,557.6676920858421
0.54,1.7221872632542913e-17,6.0,0.33816365022605194,8.903938264224563e-15,1.3453894672157654e-14,3.793422822871314e-16,1.8569375521386638e-22,6.0,0.401098196388383,1.4395637369286127e-22,-3.579494532302729e-16,1.8707845738452524e-16,1.2308143135433602,0.0,0.0,0.0,0.7900269753963947,-8.45648663326905e-16,-4.4714182068150616e-15,3.5139191558957485e-18,556.7708627177425,556.770862717741,556.7708627177424,556.7708627177412
0.544,1.6701673313652834e-17,6.0,0.34310977779475565,8.95877506999581e-15,1.6483751675184164e-14,3.5865714725578115e-16,1.8519250315384457e-22,6.0,0.4054141887162341,1.435677853486614e-22,-4.1832575210195347e-16,1.909931085519904e-16,1.2341182633172518,0.0,0.0,0.0,0.7563321219312835,-7.540001206923722e-16,-4.6864936127179014e-15,8.104068994436365e-18,555.8852402088178,555.8852402088163,555.8852402088177,555.8852402088164
0.548,1.6231406135927475e-17,6.0,0.3480681268009578,8.935185868556263e-15,1.9437600096594948e-14,3.3634236776189835e-16,1.846905991884295e-22,6.0,0.40973579422535716,1.4317869162431935e-22,-4.74168944999771e-16,1.9296062263602476e-16,1.2372785048326007,0.0,0.0,0.0,0.7230820351334466,-6.724238070883771e-16,-4.94719250270598e-15,1.083211026425646e-17,555.0099224573515,555.00992245735,555.0099224573514,555.0099224573501
