Time_s,X,Y,Z,Roll_deg,Pitch_deg,Yaw_deg,Ref_X,Ref_Y,Ref_Z,Ref_Yaw,vx,vy,vz,p,q,r,T_pert,tau_x,tau_y,tau_z,RPM_0,RPM_1,RPM_2,RPM_3
0.0040000000000000036,3.540239794309915e-22,-6.0,0.010006999594037988,1.030927412343402e-18,1.9273866450044995e-18,-5.1486728461073835e-21,2.3111489085355726e-22,-6.0,7.200000000000012e-05,0.0,-1.8465271353911924e-19,-1200.0,2.0013999188075973,0.0,0.0,0.0,-10.19,-1.2038473377160515e-18,-3.682924215251166e-18,6.014464043099446e-21,0.0,0.0,0.0,0.0
0.008000000000000007,2.463424419293038e-22,-6.0,0.010010999365392528,-6.049892775711399e-19,8.292770768298355e-19,2.077115276712925e-20,2.3111489085355726e-22,-6.0,0.00021513340800000038,0.0,-1.1455661949243686e-19,-666.6666666666666,1.1123332628213918,0.0,0.0,0.0,-0.034338475932384316,1.83909593154603e-18,3.7322593574647986e-18,-3.006667449383035e-20,534.6826504237879,534.682650423788,534.6826504237879,534.682650423788
0.01200000000000001,5.482909190369582e-23,-6.0,0.010014999136880033,-3.313399905588038e-18,4.087127435712605e-19,3.420969589826395e-20,2.3111489085355726e-22,-6.0,0.00042854147030131276,0.0,-1.982635415183764e-21,-1.2215567160491864e-23,0.0009999428519315637,0.0,0.0,0.0,0.11268126898165703,3.2037720740503863e-18,1.498337710816956e-18,-1.6552364440186852e-20,538.6882899136241,538.6882899136242,538.6882899136241,538.6882899136241
0.016000000000000014,2.0613208682774171e-22,-6.0,0.010018998914406494,-4.82158567824216e-18,1.800933751412653e-18,-9.97812705887618e-20,2.3111489085355726e-22,-6.0,0.0007113732083620786,0.0,-4.149408638079378e-21,-5.02950574857516e-23,0.000999943469123625,0.0,0.0,0.0,0.26021501228849697,1.9897513604487246e-18,-5.489019984468215e-18,1.5511439768651365e-19,542.678212576464,542.6782125764641,542.678212576464,542.678212576464
0.020000000000000018,2.285857060463284e-22,-6.0,0.010022998707995228,-5.456545611298593e-18,2.8401748423620736e-18,-6.949258821212557e-20,2.3111489085355726e-22,-6.0,0.0010627853561306145,0.0,4.0100179371821666e-21,-7.920171814187087e-23,0.0009999456925429903,0.0,0.0,0.0,0.40825154787946666,1.0765566807436112e-18,3.632034079944007e-20,-3.1281143393170474e-20,546.6524628053419,546.652462805342,546.6524628053419,546.6524628053419
0.023999999999999994,2.093080451595845e-22,-6.0,0.010026998522915092,-5.937742690022755e-18,2.3558585687816376e-18,-8.323184453662796e-21,2.3111489085355726e-22,-6.0,0.001481942297853104,0.0,2.012710635728053e-21,-9.585383918421209e-23,0.0009999498766942796,0.0,0.0,0.0,0.5567798037889764,9.44232268276079e-19,8.336171885489036e-19,-6.859360839922631e-20,550.6110859331509,550.611085933151,550.6110859331509,550.611085933151
0.027999999999999997,1.5461412923758654e-22,-6.0,0.010030998361073807,-4.768543272928154e-18,1.8324049277516303e-18,1.5177903519089742e-19,2.3111489085355726e-22,-6.0,0.001968016006352204,0.0,-1.1608426663255022e-20,-9.731747143107196e-23,0.000999955230455811,0.0,0.0,0.0,0.705788820647846,-9.45938462666294e-19,8.721200627757025e-19,-1.8667401307645274e-19,554.5541276436226,554.5541276436227,554.5541276436226,554.5541276436226
0.032,2.1297250515076526e-22,-6.0,0.010034998222292178,-4.325872892471402e-18,2.533589134645879e-18,9.633138789455603e-20,2.3111489085355726e-22,-6.0,0.002520185981773086,0.0,-5.593206011888934e-21,-8.705414022660612e-23,0.0009999609688953956,0.0,0.0,0.0,0.8552677508921028,-1.7417052807575838e-19,-2.223225315090086e-18,5.853740786068252e-20,558.4816339509405,558.4816339509406,558.4816339509405,558.4816339509405
0.036000000000000004,3.4226363016744334e-22,-6.0,0.010038998105280916,-4.1451138901386895e-18,3.296783117539463e-18,1.267516358996931e-19,2.3111489085355726e-22,-6.0,0.0031376391907935734,0.0,8.850132330379866e-21,-7.75605997753389e-23,0.0009999666224952061,0.0,0.0,0.0,1.0052058583452357,1.044210514550326e-19,-1.9492167873335703e-18,-3.949973850165215e-20,562.3936511900248,562.3936511900249,562.3936511900248,562.3936511900249
0.04000000000000001,3.9548495803180793e-22,-6.0,0.010042998008400772,-4.388229947724521e-18,3.574341259617076e-18,5.432385638440911e-20,2.3111489085355726e-22,-6.0,0.0038195700062949468,0.0,1.2849502758108814e-20,-7.547794255287684e-23,0.0009999719521001926,0.0,0.0,0.0,1.1555925176537538,5.899267969891078e-19,2.154195831192789e-19,7.93850187771585e-20,566.2902260035279,566.290226003528,566.2902260035279,566.2902260035279
0.04400000000000001,3.5445869995247715e-22,-6.0,0.010046997929736396,-4.423432175489804e-18,3.34111821231081e-18,2.9044015943038817e-19,2.3111489085355726e-22,-6.0,0.004565180147490077,0.0,3.652332185097528e-21,-7.561701123227758e-23,0.0009999768574518383,0.0,0.0,0.0,1.3064172146903261,3.668274974080687e-19,1.0643584408094341e-18,-2.78072934506596e-19,570.1714053542665,570.1714053542667,570.1714053542665,570.1714053542667
0.048000000000000015,4.158812647883077e-22,-6.0,0.010050997867444025,-4.8801016251114575e-18,3.5349231873954564e-18,4.16582114637063e-19,2.3111489085355726e-22,-6.0,0.0053736786205055564,0.0,3.258183099958423e-21,-7.935726300613228e-23,0.0009999812993946589,0.0,0.0,0.0,1.4576695450378643,8.64483776451507e-19,-1.6339841673927165e-18,-1.5932147776833759e-19,574.0372364883565,574.0372364883566,574.0372364883565,574.0372364883565
0.05200000000000002,4.1388322885120447e-22,-6.0,0.010054997819710523,-5.164514120040913e-18,3.3902647344686005e-18,1.3845828008093705e-19,2.3111489085355726e-22,-6.0,0.006244281659414512,0.0,3.548000641449303e-21,-8.446071899618029e-23,0.0009999852789668862,0.0,0.0,0.0,1.6093392138168678,6.979688438459577e-19,5.924248495996942e-19,3.0771601364291525e-19,577.8877669338966,577.8877669338968,577.8877669338966,577.8877669338967
0.05600000000000002,4.0126962703324067e-22,-6.0,0.010058997784834135,-5.026089062855501e-18,3.3774639619250566e-18,8.978490162859657e-20,2.3111489085355726e-22,-6.0,0.007176212667716821,0.0,2.592155929712749e-21,-8.786253870641742e-23,0.0009999888191331366,0.0,0.0,0.0,1.761416034496834,2.272620479254528e-19,-1.1678504754985636e-19,5.10925913758731e-20,581.7230444742441,581.7230444742444,581.7230444742441,581.7230444742443
0.060000000000000026,4.302289220996108e-22,-6.0,0.010062997761372823,-4.878404651533134e-18,3.499556172687147e-18,3.876626474382284e-19,2.3111489085355726e-22,-6.0,0.008168702160263464,0.0,2.9986185136523894e-21,-8.735122410569024e-23,0.0009999919491396336,0.0,0.0,0.0,1.9138899278210848,2.104926384635627e-19,-8.749498144575871e-19,-3.51741504458378e-19,585.543117125238,585.5431171252382,585.543117125238,585.543117125238
0.06400000000000003,4.1876479313037475e-22,-6.0,0.0100669977481467,-4.916894803816936e-18,3.4299229945224207e-18,1.7605113585834367e-19,2.3111489085355726e-22,-6.0,0.00922098770562178,0.0,7.576905902312755e-22,-8.607292056035647e-23,0.0009999947377818674,0.0,0.0,0.0,2.066750921170029,4.2120146633348324e-19,2.5866800619332033e-19,2.311636308698011e-19,589.3480331242438,589.3480331242439,589.3480331242438,589.3480331242438
0.06800000000000003,4.111082563588942e-22,-6.0,0.010070997744134757,-5.0149315024249155e-18,3.3693054692638932e-18,1.5825847878782928e-19,2.3111489085355726e-22,-6.0,0.010332313868878392,0.0,-1.2871950175211198e-21,-8.619195281674367e-23,0.0009999972366090543,0.0,0.0,0.0,2.219989147854809,4.9680058561792815e-19,-2.3124413457743526e-19,1.3429719192707301e-20,593.1378409179525,593.1378409179526,593.1378409179525,593.1378409179526
0.07200000000000004,1.9321538035863412e-22,-6.0,0.01007640184092319,-8.805189852518385e-18,2.6320408701107553e-17,1.2575414838041799e-18,2.3111489085355726e-22,-6.0,0.011501932154876646,0.0,-2.3644217139156202e-20,-1.3135904271599303e-22,0.0011404087390051373,0.0,0.0,0.0,2.3707452173588517,4.818532487361969e-18,-2.4609795323693213e-17,-1.2907717218982235e-18,596.8427789284386,596.8427789284387,596.8427789284386,596.8427789284386
0.07599999999999998,-3.8840746101233517e-22,-6.0,0.010087955662790986,-8.900324684667441e-18,8.991670734277581e-17,1.0198001310550572e-18,2.3111489085355726e-22,-6.0,0.012729100951885328,0.0,-8.216797134094285e-20,-2.757300219529254e-22,0.0018957917749990588,0.0,0.0,0.0,2.5121830107402627,7.689510859364995e-19,-7.169376550996109e-17,2.2585626083292378e-19,600.2979241312071,600.2979241312073,600.2979241312071,600.2979241312072
0.07999999999999999,-1.0704601644160606e-21,-6.0,0.010110419400353418,-1.1951390020163181e-17,1.8381159951231323e-16,4.806410160635544e-19,2.3111489085355726e-22,-6.0,0.014013085475695655,0.0,-1.5091247719133157e-19,-6.56463162596247e-22,0.003717038346976939,0.0,0.0,0.0,2.644112102927201,4.233406040464939e-18,-1.1424295048839968e-16,5.876510997831379e-19,603.5029530093494,603.5029530093495,603.5029530093494,603.5029530093494
0.08399999999999999,-1.6364876661173754e-21,-6.0,0.010148180470689985,-1.1676808678728247e-17,3.1280782674000297e-16,-5.3767218715360145e-20,2.3111489085355726e-22,-6.0,0.015353157714143133,0.0,-1.8226043846369477e-19,-1.3531335088216266e-21,0.006707575619411925,0.0,0.0,0.0,2.7671278001921538,5.669234062807142e-19,-1.642084635900081e-16,6.042073736213521e-19,606.4761841910075,606.4761841910075,606.4761841910075,606.4761841910075
0.088,-1.7241208371861677e-21,-6.0,0.010205194245650428,-5.859535215296439e-18,4.783823533288019e-16,1.460133797864381e-19,2.3111489085355726e-22,-6.0,0.016748596372051533,0.0,-1.6173873010683342e-19,-1.8617009035688967e-21,0.010765504181069543,0.0,0.0,0.0,2.8819576688111583,-5.916082320936751e-18,-2.2027064666690452e-16,-2.314930053321357e-19,609.2384740127522,609.2384740127522,609.2384740127522,609.2384740127521
0.092,-9.131394037716245e-22,-6.0,0.010285135130717975,8.825940956460796e-18,6.890324908082092e-16,8.000781764027138e-20,2.3111489085355726e-22,-6.0,0.018198686816595637,0.0,-9.066481939501855e-20,-7.058447053753909e-22,0.01580006228919552,0.0,0.0,0.0,2.98903651550024,-1.6665478152632934e-17,-2.898548185171644e-16,7.077343111151394e-20,611.8030718532195,611.8030718532195,611.8030718532195,611.8030718532194
0.096,1.5571589052883401e-21,-6.0,0.010391349845926124,1.796889909137641e-17,9.355190359006587e-16,-1.1410804482934698e-18,2.3111489085355726e-22,-6.0,0.019702721023079815,0.0,6.251194814404028e-20,3.0076738897874706e-21,0.02173062176022873,0.0,0.0,0.0,3.0889030056813156,-1.1203689649090836e-17,-3.5621062121428517e-16,1.4227974973716417e-18,614.1852787173128,614.1852787173128,614.1852787173128,614.1852787173128
0.1,6.513984548751482e-21,-6.0,0.010526847023651866,3.3023814584448415e-17,1.215259317676808e-15,-2.4483886610035712e-18,2.3111489085355726e-22,-6.0,0.02125999752112935,0.0,3.3215605034928287e-19,9.568797028381634e-21,0.028476537537388935,0.0,0.0,0.0,3.1821274475648633,-1.8745035605885838e-17,-4.23606932008678e-16,1.5737375052125203e-18,616.400738365981,616.400738365981,616.400738365981,616.4007383659809
0.10400000000000001,1.4978025948421652e-20,-6.0,0.010694388615056286,5.80552388627046e-17,1.5201334797443476e-15,-3.626719005024014e-18,2.3111489085355726e-22,-6.0,0.022869821341291532,0.0,7.26148861126612e-19,2.2456452561176678e-20,0.0359623409291394,0.0,0.0,0.0,3.269105501932519,-3.1447473922631304e-17,-4.869733393866067e-16,1.4769241711894078e-18,618.4605975118006,618.4605975118006,618.4605975118006,618.4605975118006
0.10800000000000001,2.789085242659132e-20,-6.0,0.010896529663252174,8.97374897690001e-17,1.8600989390354564e-15,-4.4846280659517224e-18,2.3111489085355726e-22,-6.0,0.02453150396204348,0.0,1.2537295833114378e-18,4.5654715997111993e-20,0.044126835790731476,0.0,0.0,0.0,3.3501600589504217,-4.096609801149189e-17,-5.638829889252986e-16,1.1512606728681463e-18,620.3740167381693,620.3740167381692,620.3740167381693,620.3740167381691
0.11200000000000002,4.6364419295923456e-20,-6.0,0.011135668224941617,1.251144203465201e-16,2.2414350409531535e-15,-5.146342832263764e-18,2.3111489085355726e-22,-6.0,0.026244363257203772,0.0,1.8965866044854585e-18,8.269568580167565e-20,0.05292186801101051,0.0,0.0,0.0,3.425519373759404,-4.7509651215552474e-17,-6.536046161372455e-16,9.576163054463571e-19,622.1477118830201,622.14771188302,622.1477118830201,622.1477118830198
0.11600000000000002,7.189232567660826e-20,-6.0,0.011414011471720808,1.6049072954205802e-16,2.64862035142362e-15,-3.6221191794777306e-18,2.3111489085355726e-22,-6.0,0.02800772344374488,0.0,2.680647960696882e-18,1.3431691203391485e-19,0.062303166014697306,0.0,0.0,0.0,3.4954855895799772,-5.0015430382270027e-17,-7.337614804209813e-16,-1.5683740099808685e-18,623.7899574468443,623.7899574468441,623.7899574468443,623.7899574468441
0.12000000000000002,1.0712526886330188e-19,-6.0,0.01173358924055117,2.2542656966838065e-16,2.9648880388122176e-15,-3.2125957486722657e-18,2.3111489085355726e-22,-6.0,0.02982091503000352,0.0,3.791206807218766e-18,2.087336829014798e-19,0.07222572786534412,0.0,0.0,0.0,3.5603395194225653,-8.706421187805036e-17,-6.944614316214988e-16,-3.285645397886868e-19,625.3083557296133,625.3083557296131,625.3083557296133,625.308355729613
0.12400000000000003,1.5321352619822992e-19,-6.0,0.012096269831082468,3.2140030049516725e-16,3.201318458940562e-15,-2.257951458882867e-18,2.3111489085355726e-22,-6.0,0.03168327476428598,0.0,5.29271351556421e-18,3.2995932344897606e-19,0.08264613838027557,0.0,0.0,0.0,3.6203356539814653,-1.279060065829636e-16,-6.469845387478684e-16,-9.81943971366192e-19,626.7097446880178,626.7097446880177,626.7097446880178,626.7097446880177
0.12800000000000003,2.1065021468251882e-19,-6.0,0.012503773908847935,4.509985288730893e-16,3.405573877569524e-15,-2.841276701687196e-18,2.3111489085355726e-22,-6.0,0.03359414558386553,0.0,7.05319257579097e-18,5.2655455778372015e-19,0.09352482406483689,0.0,0.0,0.0,3.6757055020329577,-1.739577128000189e-16,-6.433543488059225e-16,7.756045097899029e-19,628.0002981077179,628.0002981077179,628.0002981077179,628.0002981077179
0.13200000000000003,2.8002710160935665e-19,-6.0,0.012957679071976303,6.060922334969964e-16,3.599822349325225e-15,-4.8335936083955916e-18,2.3111489085355726e-22,-6.0,0.03555287656436911,0.0,8.926896233632163e-18,8.19071402093289e-19,0.10482482290534845,0.0,0.0,0.0,3.726676095547682,-2.1290669702391073e-16,-6.653098884445903e-16,2.4456811469872072e-18,629.185974270778,629.1859742707778,629.1859742707779,629.1859742707778
0.13600000000000004,3.6204443759727887e-19,-6.0,0.013459411499943104,7.73748234407427e-16,3.7910827589966734e-15,-6.792654353615867e-18,2.3111489085355726e-22,-6.0,0.03755882286955033,0.0,1.086631218304313e-17,1.2148250847512465e-18,0.11650946752847395,0.0,0.0,0.0,3.7734960610913424,-2.3860490499688555e-16,-6.968779103945964e-16,2.488981083461011e-18,630.273133224144,630.2731332241439,630.2731332241439,630.2731332241439
0.14000000000000004,4.574064330034714e-19,-6.0,0.014010289109522886,9.465756300681251e-16,3.984526771540544e-15,-7.398062660326606e-18,2.3111489085355726e-22,-6.0,0.039611345701446074,0.0,1.2886973937037496e-17,1.7096075503338967e-18,0.12854539593562098,0.0,0.0,0.0,3.8163313511485586,-2.5664860339599146e-16,-7.352647346376563e-16,9.8862053754662e-19,631.266128013043,631.2661280130428,631.2661280130429,631.2661280130428
0.144,5.668998952447729e-19,-6.0,0.014611537180729573,1.1194001541565809e-15,4.17793602041646e-15,-6.6759483696970514e-18,2.3111489085355726e-22,-6.0,0.04170981225091379,0.0,1.4986327896367205e-17,2.2942169153317376e-18,0.14090544449558465,0.0,0.0,0.0,3.855319740628852,-2.691244319066886e-16,-7.731293559806438e-16,-5.36759281629527e-19,632.168589168718,632.1685891687179,632.1685891687179,632.1685891687179
0.148,6.912183841846539e-19,-6.0,0.015264309266587343,1.2848303482249495e-15,4.378699326882511e-15,-6.4918286177325416e-18,2.3111489085355726e-22,-6.0,0.043853595648546885,0.0,1.7160370721483216e-17,2.9569948531752364e-18,0.15356799874157448,0.0,0.0,0.0,3.8905596046999444,-2.730894728453088e-16,-8.195732965451764e-16,6.251714513386021e-20,632.9831764540379,632.9831764540378,632.9831764540378,632.9831764540378
0.152,8.312238838184937e-19,-6.0,0.015969661418932853,1.4502548554979278e-15,4.579425443519106e-15,-5.6906207006455074e-18,2.3111489085355726e-22,-6.0,0.046042074915965035,0.0,1.941205523155948e-17,3.69283166000075e-18,0.16651188274321732,0.0,0.0,0.0,3.92220399760337,-2.8529232207842334e-16,-8.608335542109507e-16,-6.654467461567188e-19,633.7137603185005,633.7137603185002,633.7137603185004,633.7137603185002
0.156,9.877090168852924e-19,-6.0,0.016728544043518246,1.6156724897326537e-15,4.780112982601684e-15,-5.9083912983375045e-18,2.3111489085355726e-22,-6.0,0.048274634917477195,0.0,2.1747021801425694e-17,4.503817161129315e-18,0.17971297669212966,0.0,0.0,0.0,3.950425694957995,-2.9760888531337526e-16,-9.024195129724134e-16,4.923783949591989e-19,634.3646135456559,634.3646135456555,634.3646135456557,634.3646135456555
0.16,1.1615495817028771e-18,-6.0,0.017541833341115323,1.793645480010938e-15,4.972631470635977e-15,-6.497171524304183e-18,2.3111489085355726e-22,-6.0,0.050550666312114176,0.0,2.418353100072233e-17,5.4090236584058455e-18,0.19314814323880944,0.0,0.0,0.0,3.975337112623892,-3.247097837176546e-16,-9.365741875995337e-16,9.351311535250418e-19,634.9385702089978,634.9385702089976,634.9385702089978,634.9385702089976
0.164,1.3545241565607582e-18,-6.0,0.018410346658267455,1.9693927910921295e-15,5.05795040900799e-15,-7.796386182488634e-18,2.3111489085355726e-22,-6.0,0.05286956550602828,0.0,2.691322488695801e-17,6.415291199471461e-18,0.20679911095794234,0.0,0.0,0.0,3.997021959577756,-3.355332020348742e-16,-8.662259810420717e-16,1.7896617101346676e-18,635.437764942278,635.4377649422778,635.437764942278,635.4377649422778
0.168,1.5677511794158132e-18,-6.0,0.0193348281624948,2.1443911737616027e-15,4.972505907877447e-15,-7.60821965326131e-18,2.3111489085355726e-22,-6.0,0.0552307346052572,0.0,3.0230590051404634e-17,7.521686470488384e-18,0.22064930837049074,0.0,0.0,0.0,4.015594975043386,-3.4805156763166534e-16,-7.085119312562442e-16,1.0605950900303748e-19,635.8650123663481,635.865012366348,635.865012366348,635.865012366348
0.17200000000000001,1.8009962603091045e-18,-6.0,0.020315951499544183,2.318639268838125e-15,4.726633312860987e-15,-9.450883833273175e-18,2.3111489085355726e-22,-6.0,0.05763358136884958,0.0,3.4287762942521195e-17,8.71491084551081e-18,0.23468127001216277,0.0,0.0,0.0,4.031167919349707,-3.606393044856813e-16,-5.366634532327801e-16,2.4711953430721196e-18,636.2230260201184,636.2230260201183,636.2230260201184,636.2230260201183
0.17600000000000002,2.053373761519873e-18,-6.0,0.021354323570326565,2.509133422781656e-15,4.332886682155485e-15,-1.3254786856491931e-17,2.3111489085355726e-22,-6.0,0.060077519162349574,0.0,3.8981118820036306e-17,1.001404368912971e-17,0.24887758801870677,0.0,0.0,0.0,4.043847216336451,-3.9314456739478945e-16,-3.609193769493584e-16,4.838557959351043e-18,636.5143675515412,636.5143675515412,636.5143675515411,636.5143675515412
0.18000000000000002,2.3237166826436575e-18,-6.0,0.022450486174218482,2.714395658455656e-15,3.774999336497285e-15,-1.7290515775920775e-17,2.3111489085355726e-22,-6.0,0.06256196691163772,0.0,4.4259220629789676e-17,1.1456425569827195e-17,0.26322160132562256,0.0,0.0,0.0,4.0537381627302,-4.2516788257119223e-16,-1.521384822608663e-16,5.266493122358392e-18,636.7415465467632,636.7415465467632,636.7415465467631,636.7415465467632
0.18400000000000002,2.6098670479210472e-18,-6.0,0.02360491633949364,2.918167186664542e-15,3.073622902367198e-15,-1.9589705428033932e-17,2.3111489085355726e-22,-6.0,0.0650863490571256,0.0,5.0089543416694496e-17,1.3056220306572186e-17,0.2776970302905801,0.0,0.0,0.0,4.060947539778492,-4.393584594121153e-16,5.631465048017734e-17,3.404867781421706e-18,636.9070831865575,636.9070831865577,636.9070831865574,636.9070831865577
0.18800000000000003,2.908875393162157e-18,-6.0,0.024818041047527006,3.129314586864056e-15,2.2701419999845627e-15,-2.2805025567405715e-17,2.3111489085355726e-22,-6.0,0.06765009550830156,0.0,5.632252776863037e-17,1.4791384566207095e-17,0.29228908983980406,0.0,0.0,0.0,4.065554389852563,-4.63943149579591e-16,2.3744797954754835e-16,4.570832803372145e-18,637.0128399076642,637.0128399076642,637.0128399076641,637.0128399076644
0.19200000000000003,3.2171382585704355e-18,-6.0,0.026090232934134407,3.349315330256475e-15,1.4280713701900124e-15,-2.386053712884866e-17,2.3111489085355726e-22,-6.0,0.07025264159862511,0.0,6.266086579901339e-17,1.6662637954045216e-17,0.3069843074777829,0.0,0.0,0.0,4.067648153758072,-4.909049190515482e-16,3.6176209272501607e-16,2.1814583369842256e-18,637.0608993993197,637.0608993993197,637.0608993993196,637.0608993993199
0.19600000000000004,3.531315942123224e-18,-6.0,0.027421812130130323,3.57151747054554e-15,5.615735493477412e-16,-2.575308555109274e-17,2.3111489085355726e-22,-6.0,0.07289342804076723,0.0,6.887797402069573e-17,1.8685794579602148e-17,0.3217694788656043,0.0,0.0,0.0,4.0673163476293315,-5.108579974363026e-16,4.724773430492182e-16,3.204258231956597e-18,637.0532834844337,637.0532834844338,637.0532834844336,637.0532834844339
0.20000000000000004,3.847696330392324e-18,-6.0,0.0288130485370937,3.798875800687861e-15,-2.86650579013334e-16,-2.9487396708279215e-17,2.3111489085355726e-22,-6.0,0.07557190088219418,0.0,7.471551066851314e-17,2.0856223299658723e-17,0.336631614059768,0.0,0.0,0.0,4.064643620495074,-5.345671463810152e-16,5.425668321090376e-16,5.435240376936838e-18,636.9919333089325,636.9919333089326,636.9919333089324,636.9919333089327
0.20400000000000004,4.1636763606647066e-18,-6.0,0.030264163944776486,4.03582351589191e-15,-1.1814276579861385e-15,-3.454923046280601e-17,2.3111489085355726e-22,-6.0,0.07828751146109224,0.0,8.027073635455048e-17,2.3177129860815854e-17,0.351558283240555,0.0,0.0,0.0,4.059712002617385,-5.639643995411879e-16,6.777682895366125e-16,7.141398133204384e-18,636.8787167072128,636.8787167072129,636.8787167072127,636.878716707213
0.20800000000000005,4.4758454571370045e-18,-6.0,0.031775334010986,4.289011428915276e-15,-2.118432250082671e-15,-3.836501068655628e-17,2.3111489085355726e-22,-6.0,0.08103971636263092,0.0,8.565990001445537e-17,2.5683804017491018e-17,0.3665375779691827,0.0,0.0,0.0,4.052601116599277,-6.019491878298853e-16,8.232540378947413e-16,5.896077745059602e-18,636.7154345649524,636.7154345649525,636.7154345649523,636.7154345649526
0.212,4.780617174396228e-18,-6.0,0.033346691123139344,4.548832147229153e-15,-3.0954332237648605e-15,-4.2891225342524336e-17,2.3111489085355726e-22,-6.0,0.08382797737556205,0.0,9.098641753573151e-17,2.8395692811274235e-17,0.38155817798651226,0.0,0.0,0.0,4.043386324393923,-6.300024143769659e-16,9.745697777266551e-16,6.8853441008194805e-18,636.503779634023,636.5037796340232,636.5037796340227,636.5037796340233
0.216,5.073681959331061e-18,-6.0,0.03497832516252828,4.8056773566967516e-15,-4.051860865797313e-15,-5.0411909997116064e-17,2.3111489085355726e-22,-6.0,0.08665176144915253,0.0,9.599558312309029e-17,3.129510154491145e-17,0.3966092230014998,0.0,0.0,0.0,4.0321428920538755,-6.474706572714625e-16,1.0700507902961383e-15,1.05722138856664e-17,636.2454334197191,636.2454334197193,636.2454334197189,636.2454334197193
0.22,5.351309956992262e-18,-6.0,0.03667028006657432,5.042546996847684e-15,-4.983956322882596e-15,-5.97387257850558e-17,2.3111489085355726e-22,-6.0,0.08951054065044775,0.0,1.005423180736176e-16,3.430427581843607e-17,0.4116797771578965,0.0,0.0,0.0,4.018954492904147,-6.450632182438952e-16,1.1573723499112645e-15,1.2994403581102444e-17,635.9422629337009,635.942262933701,635.9422629337007,635.9422629337012
0.224,5.608745401785801e-18,-6.0,0.03842256677544339,5.257219867723992e-15,-5.7764209564778235e-15,-7.109399684212843e-17,2.3111489085355726e-22,-6.0,0.092403792121864,0.0,1.0415636968701098e-16,3.733433483855064e-17,0.4267596637989562,0.0,0.0,0.0,4.003880064315213,-6.388614014568226e-16,1.1243060329025185e-15,1.5751119714191443e-17,635.5955599301747,635.5955599301749,635.5955599301747,635.595559930175
0.228,5.8422916818650836e-18,-6.0,0.040235165288544865,5.449691852281253e-15,-6.376769314645263e-15,-8.107898737994743e-17,2.3111489085355726e-22,-6.0,0.09533099803910688,0.0,1.063330205433082e-16,4.0325538266834907e-17,0.4418404238455963,0.0,0.0,0.0,3.9869754961152415,-6.312867792634715e-16,1.0128546892960194e-15,1.462166265319065e-17,635.2065396999255,635.2065396999258,635.2065396999254,635.2065396999259
0.232,6.0494612952730495e-18,-6.0,0.04210801703024729,5.644346913563712e-15,-6.780538901910255e-15,-9.04540160729628e-17,2.3111489085355726e-22,-6.0,0.09829164556941344,0.0,1.066652886703252e-16,4.32958289180365e-17,0.4569134838785578,0.0,0.0,0.0,3.9683132320951167,-6.508023221932526e-16,8.72813076432172e-16,1.4324806989233125e-17,634.7767932119116,634.7767932119118,634.7767932119115,634.7767932119119
0.23600000000000002,6.2284428610795644e-18,-6.0,0.04404101928167528,5.846357810345705e-15,-6.9758758687789435e-15,-1.0021193159478427e-16,2.3111489085355726e-22,-6.0,0.10128522683011582,0.0,1.0511234241607202e-16,4.633047323210169e-17,0.4719689742750103,0.0,0.0,0.0,3.9479783197274654,-6.766434419565271e-16,7.003617791073188e-16,1.5163363079350488e-17,634.3081982386543,634.3081982386544,634.3081982386542,634.3081982386545
0.24000000000000002,6.378796774694793e-18,-6.0,0.046034038277975926,6.057202414111853e-15,-7.007092129980376e-15,-1.0912330849537945e-16,2.3111489085355726e-22,-6.0,0.10431123884752388,0.0,1.0176689520563011e-16,4.952177802116568e-17,0.4869973174300018,0.0,0.0,0.0,3.9260307053191403,-7.048543598214843e-16,5.514987488446128e-16,1.458215963129478e-17,633.8020516232275,633.8020516232276,633.8020516232274,633.8020516232278
0.24400000000000002,6.500817515777675e-18,-6.0,0.04808691980136142,6.268011923238539e-15,-6.922941976753792e-15,-1.161359120984811e-16,2.3111489085355726e-22,-6.0,0.10736918351612454,0.0,9.697267743617023e-17,5.286764098414622e-17,0.5019912666305825,0.0,0.0,0.0,3.90250989832922,-7.234601578535186e-16,4.406324300070731e-16,1.273764022320523e-17,633.2591756198801,633.25917561988,633.2591756198799,633.2591756198802
0.24800000000000003,6.5948449747001085e-18,-6.0,0.05019948888600311,6.4625265203454504e-15,-6.729322448097104e-15,-1.1289221823081622e-16,2.3111489085355726e-22,-6.0,0.11045856755809541,0.0,9.110691843974749e-17,5.632036009990682e-17,0.5169453457876221,0.0,0.0,0.0,3.8774567307941163,-7.232236133176907e-16,3.283860634528938e-16,1.0527308370307102e-18,632.6804193786589,632.6804193786589,632.6804193786587,632.680419378659
0.252,6.661249335485009e-18,-6.0,0.05237152844344596,6.552056970138982e-15,-6.393700502805261e-15,-9.914306881248084e-17,2.3111489085355726e-22,-6.0,0.11357890248313054,0.0,8.418718218043858e-17,5.958862438402543e-17,0.5318521961091469,0.0,0.0,0.0,3.850956147329123,-6.184432875877673e-16,1.70347174286531e-16,-1.1344617616884572e-17,632.0676494571024,632.0676494571026,632.0676494571022,632.0676494571026
0.256,6.701129861269695e-18,-6.0,0.054602785029666756,6.5188482280340254e-15,-5.90423155749218e-15,-8.101350802973085e-17,2.3111489085355726e-22,-6.0,0.11672970454857585,0.0,7.604097730805819e-17,6.217514005632305e-17,0.546702925973741,0.0,0.0,0.0,3.8230828016420517,-4.858132601125363e-16,-1.9819814092158388e-17,-1.7019293591738526e-17,631.4224956410163,631.4224956410163,631.4224956410162,631.4224956410163
0.26,6.7162614686986015e-18,-6.0,0.05689296346874159,6.374706530955008e-15,-5.257938747258016e-15,-5.974246309302392e-17,2.3111489085355726e-22,-6.0,0.11991049471987207,0.0,6.655446125282925e-17,6.369363381243084e-17,0.5614873987721853,0.0,0.0,0.0,3.7939234879000967,-3.585533768026046e-16,-2.3267357430418577e-16,-2.1427846142142183e-17,630.7468706714045,630.7468706714044,630.7468706714043,630.7468706714043
0.264,6.70926401034383e-18,-6.0,0.05924174678091474,6.140307490509767e-15,-4.47697247903308e-15,-3.7518951964514156e-17,2.3111489085355726e-22,-6.0,0.12312079863130282,0.0,5.580572482389372e-17,6.407759733851629e-17,0.5761974372676197,0.0,0.0,0.0,3.7635259559656724,-2.4775058648575007e-16,-4.417441534559315e-16,-2.3409764011294102e-17,630.0417847235813,630.0417847235811,630.0417847235811,630.0417847235811
0.268,6.683209174846751e-18,-6.0,0.06164880895394386,5.8533303004369484e-15,-3.575358380918803e-15,-1.3975044558982996e-17,2.3111489085355726e-22,-6.0,0.12636014654704567,0.0,4.396523215543394e-17,6.34767033108167e-17,0.5908280420152955,0.0,0.0,0.0,3.73191280027764,-1.7461135872505518e-16,-6.512588100288716e-16,-2.5862145221307447e-17,629.3076637663773,629.3076637663772,629.3076637663772,629.3076637663771
0.272,6.641867702736593e-18,-6.0,0.06411379492403455,5.4672562174801624e-15,-2.590773506129291e-15,4.428836910633422e-18,2.3111489085355726e-22,-6.0,0.12962807332252388,0.0,3.131326026154837e-17,6.198329041840248e-17,0.605374592713942,0.0,0.0,0.0,3.6991476008200723,-4.3354920957230847e-17,-8.360282490988854e-16,-2.082359509597236e-17,628.5458851720376,628.5458851720376,628.5458851720375,628.5458851720374
0.276,6.5894322146700245e-18,-6.0,0.06663630874285247,4.9487234361614784e-15,-1.5682932697093378e-15,1.6714096411363048e-17,2.3111489085355726e-22,-6.0,0.13292411836605678,0.0,1.8238992466416997e-17,5.93385926216449e-17,0.6198294788804626,0.0,0.0,0.0,3.6653189470284326,1.3390518903123894e-16,-9.82305265063462e-16,-1.4432108886851738e-17,627.7584117613544,627.7584117613543,627.7584117613544,627.7584117613542
0.28,6.530093723837183e-18,-6.0,0.06921593730399694,4.316218856579957e-15,-5.367418784632694e-16,2.5298498258514035e-17,2.3111489085355726e-22,-6.0,0.1362478256008061,0.0,5.208192089297999e-18,5.516521610421731e-17,0.6341851656325546,0.0,0.0,0.0,3.6304686460578877,2.989973910408734e-16,-1.1014945614137388e-15,-1.0614561084082186e-17,626.9461217847228,626.9461217847228,626.9461217847229,626.9461217847225
0.28400000000000003,6.467915423566285e-18,-6.0,0.0718522599800533,3.608902265062438e-15,4.9131029083388005e-16,3.0806256937527794e-17,2.3111489085355726e-22,-6.0,0.13959874342701678,0.0,-7.465661941601202e-18,4.947430803970028e-17,0.6484373463905457,0.0,0.0,0.0,3.5946195606018785,4.265966753399659e-16,-1.209208764645997e-15,-7.374824687077194e-18,626.1094525950331,626.1094525950328,626.1094525950331,626.1094525950327
0.28800000000000003,6.406429012336424e-18,-6.0,0.07454482239439812,2.8290340546308086e-15,1.5535473024232232e-15,3.499529067667666e-17,2.3111489085355726e-22,-6.0,0.14297642468454957,0.0,-1.9801764480001583e-17,4.250685649727571e-17,0.6625813594881,0.0,0.0,0.0,3.5578480902211393,5.571660484537683e-16,-1.3585273805987047e-15,-6.062662405120335e-18,625.2500930326499,625.2500930326498,625.25009303265,625.2500930326495
0.29200000000000004,6.349788993151437e-18,-6.0,0.0772931637416163,2.002790259955497e-15,2.6337090150087415e-15,3.073582941556346e-17,2.3111489085355726e-22,-6.0,0.14638042661570333,0.0,-3.18972737885908e-17,3.4365147954121884e-17,0.6766123658622114,0.0,0.0,0.0,3.5201763292192796,6.626745203972403e-16,-1.5021285880802264e-15,3.6320573767381594e-18,624.3684668414497,624.3684668414496,624.36846684145,624.3684668414494
0.29600000000000004,6.302932675275292e-18,-6.0,0.08009679048331712,1.1357171918846238e-15,3.644952950065744e-15,1.517188278467935e-17,2.3111489085355726e-22,-6.0,0.14981031082832508,0.0,-4.3479242849973944e-17,2.5181577884812457e-17,0.6905251631010704,0.0,0.0,0.0,3.481680027158637,7.654544849280146e-16,-1.5589427864698395e-15,1.7010245285647363e-17,623.4662561374646,623.4662561374645,623.4662561374648,623.4662561374643
0.30000000000000004,6.270407942669268e-18,-6.0,0.08295520513530887,2.6325221739458455e-16,4.520001288791001e-15,-5.238502443145806e-18,2.3111489085355726e-22,-6.0,0.15326564325920555,0.0,-5.3715810060625505e-17,1.51605300862088e-17,0.7043153725247914,0.0,0.0,0.0,3.4423776181339125,8.30250421760624e-16,-1.53290275153703e-15,2.330969846909582e-17,622.5438044056507,622.5438044056506,622.5438044056509,622.5438044056503
0.30400000000000005,6.255271398516346e-18,-6.0,0.08586788038256198,-5.831090493154495e-16,5.28949027897172e-15,-2.1028556855820675e-17,2.3111489085355726e-22,-6.0,0.15674599413775814,0.0,-6.204793212103526e-17,4.61345279095341e-18,0.7179784015358612,0.0,0.0,0.0,3.402340260671793,8.592457163565431e-16,-1.5205659137881307e-15,1.8750903278573488e-17,621.6026954378641,621.602695437864,621.6026954378644,621.6026954378638
0.30800000000000005,6.2600837260277845e-18,-6.0,0.08883434288068388,-1.3911602500404765e-15,5.988868286232688e-15,-3.499418071724698e-17,2.3111489085355726e-22,-6.0,0.16025093794997913,0.0,-6.866225639869041e-17,-6.082739711638456e-18,0.7315160569851835,0.0,0.0,0.0,3.36147005188259,8.727930892058568e-16,-1.5399894124993994e-15,1.7269538413999437e-17,620.6405377706404,620.6405377706403,620.6405377706407,620.64053777064
0.31200000000000006,6.287396759632456e-18,-6.0,0.09185409732514231,-2.2062357965437062e-15,6.624397825513699e-15,-5.373665130958202e-17,2.3111489085355726e-22,-6.0,0.16378005340268728,0.0,-7.394677908290465e-17,-1.6915494457127893e-17,0.7449305830813076,0.0,0.0,0.0,3.319821534439915,9.372233163128228e-16,-1.5647776555647222e-15,2.3425567269037562e-17,619.6585204204231,619.6585204204231,619.6585204204235,619.6585204204229
0.31600000000000006,6.3394770746508216e-18,-6.0,0.09492662649828901,-2.9829783352122376e-15,7.204929016423546e-15,-7.45581655162319e-17,2.3111489085355726e-22,-6.0,0.16733292338804043,0.0,-7.808887394201568e-17,-2.7853438634787237e-17,0.7582209867740399,0.0,0.0,0.0,3.27744991847269,9.497376636961803e-16,-1.5951536466438532e-15,2.6627596650474667e-17,618.6578537376079,618.6578537376078,618.6578537376082,618.6578537376075
0.32000000000000006,6.418235247871571e-18,-6.0,0.09805140520927548,-3.7214409242591995e-15,7.751508934298306e-15,-9.3461902904538e-17,2.3111489085355726e-22,-6.0,0.17090913494832735,0.0,-8.124838375296746e-17,-3.883529162875378e-17,0.7713812834533902,0.0,0.0,0.0,3.2343828837457593,9.602349354569464e-16,-1.6449077815801996e-15,2.5247533586966835e-17,617.6391023836703,617.6391023836703,617.6391023836707,617.63910238367
0.32400000000000007,6.525617028709723e-18,-6.0,0.10122781858343424,-4.427170531273222e-15,8.264865702991099e-15,-1.1492021290011054e-16,2.3111489085355726e-22,-6.0,0.1745082792410327,0.0,-8.361110483963238e-17,-4.9676111244732934e-17,0.784402215051766,0.0,0.0,0.0,3.19081425908484,9.751074513558433e-16,-1.6960276241784823e-15,2.901445150683716e-17,616.6067732249027,616.6067732249027,616.6067732249031,616.6067732249023
0.32800000000000007,6.663427023795304e-18,-6.0,0.10445520887258031,-5.1057481005107394e-15,8.746096630477739e-15,-1.3531678645899074e-16,2.3111489085355726e-22,-6.0,0.17812995150417293,0.0,-8.527925165406719e-17,-6.038376906759352e-17,0.7972688079044972,0.0,0.0,0.0,3.1468457916822508,9.947513499179989e-16,-1.746982209590282e-15,2.866334566138926e-17,615.5632148935431,615.563214893543,615.5632148935435,615.5632148935427
0.3320000000000001,6.833633542769937e-18,-6.0,0.10773292923082495,-5.724962433012502e-15,9.167106963892437e-15,-1.507094382709647e-16,2.3111489085355726e-22,-6.0,0.18177375102190133,0.0,-8.614162750090407e-17,-7.089501373475561e-17,0.8099730342903262,0.0,0.0,0.0,3.102471517864469,9.753982036902493e-16,-1.7672056692218356e-15,2.3664969631194283e-17,614.508228274988,614.508228274988,614.5082282749885,614.5082282749877
0.3360000000000001,7.038197403883402e-18,-6.0,0.11106030385694232,-6.22232513838128e-15,9.479839534085356e-15,-1.5753411897441208e-16,2.3111489085355726e-22,-6.0,0.1854392810903802,0.0,-8.581745899950336e-17,-8.079076036927309e-17,0.8225122819750826,0.0,0.0,0.0,3.05776607883588,8.794482338075098e-16,-1.7296024986117088e-15,1.4298817844506176e-17,613.4435335900828,613.4435335900827,613.443533590083,613.4435335900823
0.3400000000000001,7.278126734586291e-18,-6.0,0.1144366517218782,-6.6129919606120344e-15,9.693134149838582e-15,-1.6326477431388578e-16,2.3111489085355726e-22,-6.0,0.18912614898391802,0.0,-8.391519865680254e-17,-8.948865553417008e-17,0.8348831876006713,0.0,0.0,0.0,3.01275694377245,7.932108385393585e-16,-1.6862686114794808e-15,1.3312064528815078e-17,612.3697361180075,612.3697361180074,612.3697361180077,612.3697361180072
0.3440000000000001,7.553764839135473e-18,-6.0,0.11786128832005457,-6.948239255682206e-15,9.842811425164766e-15,-1.651489660503472e-16,2.3111489085355726e-22,-6.0,0.19283396592137,0.0,-8.051464662176705e-17,-9.691051893132981e-17,0.8470836056820559,0.0,0.0,0.0,2.967468253983371,7.598271246224219e-16,-1.671832364562524e-15,9.065503980529386e-18,611.2873653613384,611.2873653613383,611.2873653613386,611.287365361338
0.3480000000000001,7.865514603042998e-18,-6.0,0.12133352541475498,-7.236245810833648e-15,9.932550387769696e-15,-1.6415578845634304e-16,2.3111489085355726e-22,-6.0,0.19656234703279937,0.0,-7.595832343559686e-17,-1.0344150223275883e-16,0.8591126567737986,0.0,0.0,0.0,2.9219248376165616,7.324383735657592e-16,-1.6590674493436214e-15,5.793182153388754e-18,610.1969706617853,610.1969706617851,610.1969706617855,610.1969706617848
0.3520000000000001,8.213346591745986e-18,-6.0,0.12485265815097843,-7.478097584529794e-15,9.985985638906876e-15,-1.6331534313209152e-16,2.3111489085355726e-22,-6.0,0.20031091132639842,0.0,-7.051869764273214e-17,-1.0933646855517757e-16,0.870968128048831,0.0,0.0,0.0,2.876177855199262,7.032883640374167e-16,-1.6658157059929705e-15,5.9422747639510135e-18,609.0997371094603,609.0997371094601,609.0997371094605,609.0997371094599
0.3560000000000001,8.59728964125239e-18,-6.0,0.12841797947762015,-7.669673670355958e-15,1.000532649524585e-14,-1.6105402894340447e-16,2.3111489085355726e-22,-6.0,0.20407928165566652,0.0,-6.441299565762089e-17,-1.146032454286361e-16,0.8826479491453834,0.0,0.0,0.0,2.8302497852834394,6.663389095352902e-16,-1.6740122849704005e-15,4.259365420806305e-18,607.9961682882288,607.9961682882287,607.996168288229,607.9961682882283
0.3600000000000001,9.017925872980169e-18,-6.0,0.13202881828523286,-7.782868164439607e-15,9.927374427210144e-15,-1.6388285644840001e-16,2.3111489085355726e-22,-6.0,0.2078670846868438,0.0,-5.750306432246566e-17,-1.191083645640535e-16,0.8941542447187174,0.0,0.0,0.0,2.7840858330259293,5.932650550931785e-16,-1.6132280854294089e-15,1.0123842677253893e-17,606.8849094098057,606.8849094098055,606.8849094098059,606.8849094098052
0.3640000000000001,9.475408155543807e-18,-6.0,0.1356844786540414,-7.789971593354104e-15,9.702216883257375e-15,-1.7719576054310936e-16,2.3111489085355726e-22,-6.0,0.21167395086659824,0.0,-4.91053286485086e-17,-1.2246419137632696e-16,0.9054892559338334,0.0,0.0,0.0,2.73775341212479,4.825530563340886e-16,-1.4836123086869454e-15,2.2498503921606743e-17,605.7675454194814,605.7675454194813,605.7675454194816,605.7675454194812
0.3680000000000001,9.968852658598978e-18,-6.0,0.13938427579590315,-7.705591345125319e-15,9.33351184076572e-15,-1.956470192365768e-16,2.3111489085355726e-22,-6.0,0.21549951438996442,0.0,-3.859509231921037e-17,-1.2435186291223968e-16,0.9166522901686485,0.0,0.0,0.0,2.691247839146451,3.8164877823039194e-16,-1.3367788004421043e-15,2.905995590050524e-17,604.643929209998,604.6439292099979,604.6439292099982,604.6439292099977
0.3720000000000001,1.0496557404899183e-17,-6.0,0.14312748164736003,-7.494613986817023e-15,8.853005345085165e-15,-2.1647636386649526e-16,2.3111489085355726e-22,-6.0,0.21934341316853218,0.0,-2.5993356518579455e-17,-1.2448457093623284e-16,0.9276394138076682,0.0,0.0,0.0,2.6446745517968355,2.33426627558412e-16,-1.2073548694098678e-15,3.260926311668946e-17,603.5165804650286,603.5165804650285,603.5165804650288,603.5165804650284
0.3760000000000001,1.1056403170666687e-17,-6.0,0.14691335881140524,-7.225082857498538e-15,8.292083831324545e-15,-2.388728874132328e-16,2.3111489085355726e-22,-6.0,0.22320528879888304,0.0,-1.179752870846498e-17,-1.2296536565075678e-16,0.9384454171879856,0.0,0.0,0.0,2.5980715378437647,1.558565876021359e-16,-1.1009835280681952e-15,3.5310408729063004e-17,602.3864003433212,602.386400343321,602.3864003433214,602.386400343321
0.38,1.1645995702249636e-17,-6.0,0.15074119812409548,-6.938366465653595e-15,7.680662829859538e-15,-2.5997109774685525e-16,2.3111489085355726e-22,-6.0,0.22708478653127284,0.0,3.4581767325212775e-18,-1.2019259780503766e-16,0.9490697917231117,0.0,0.0,0.0,2.5514008959674634,1.2240168120800422e-16,-1.01931798835517e-15,3.4730123395599476e-17,601.2524511283442,601.2524511283441,601.2524511283443,601.2524511283441
0.384,1.2262847833570364e-17,-6.0,0.15461030462570666,-6.5813532312020755e-15,7.038689691539936e-15,-2.848651833383081e-16,2.3111489085355726e-22,-6.0,0.23098155523855893,0.0,1.9292836540484152e-17,-1.1651735718492435e-16,0.9595173628836106,0.0,0.0,0.0,2.5046523514195163,2.5551327311578895e-17,-9.54587117654506e-16,4.0048815753931324e-17,600.1144611012389,600.1144611012387,600.114461101239,600.1144611012387
0.388,1.2904515202863666e-17,-6.0,0.15851995370462468,-6.149264186698441e-15,6.371336339594724e-15,-3.152703044939504e-16,2.3111489085355726e-22,-6.0,0.234895247385369,0.0,3.5340173761502946e-17,-1.118519092768323e-16,0.9697878126764122,0.0,0.0,0.0,2.4579042376213347,-8.193588879944753e-17,-8.923468264916356e-16,4.752869535622996e-17,598.9743195287535,598.9743195287533,598.9743195287537,598.9743195287534
0.392,1.3568667662012733e-17,-6.0,0.16246941728309608,-5.629456989758689e-15,5.665666832407688e-15,-3.5046652502113924e-16,2.3111489085355726e-22,-6.0,0.23882551899751148,0.0,5.155774397366351e-17,-1.0574910152151129e-16,0.9798779177082799,0.0,0.0,0.0,2.411182742767098,-2.096214947188522e-16,-8.126183641561082e-16,5.439599917458917e-17,597.8326546350733,597.8326546350731,597.8326546350734,597.8326546350733
0.396,1.425263656485601e-17,-6.0,0.1664579663213019,-5.025620349362726e-15,4.9312851427838166e-15,-3.9003770192958034e-16,2.3111489085355726e-22,-6.0,0.24277202963162434,0.0,6.795913515981932e-17,-9.80418801509898e-17,0.9897859483722904,0.0,0.0,0.0,2.364509136950112,-3.3936094488637916e-16,-7.355946517125361e-16,6.097637729316216e-17,596.6899789153061,596.689978915306,596.6899789153063,596.6899789153063
0.4,1.4953828324948333e-17,-6.0,0.1704848776954127,-4.364630895983275e-15,4.161907534254716e-15,-4.30958484499268e-16,2.3111489085355726e-22,-6.0,0.24673444234506112,0.0,8.45469734848113e-17,-8.873445079228279e-17,0.9995123454382027,0.0,0.0,0.0,2.3178908148025648,-4.4388337311814796e-16,-6.478567754219084e-16,6.420507974928858e-17,595.5464681097133,595.546468109713,595.5464681097134,595.5464681097133
0.404,1.5669236942909753e-17,-6.0,0.1745494537083518,-3.694834872267872e-15,3.382658765279271e-15,-4.737597409485486e-16,2.3111489085355726e-22,-6.0,0.2507124236660122,0.0,1.0119712436896495e-16,-7.824173907843346e-17,1.009060197779585,0.0,0.0,0.0,2.2712954374532233,-4.963200301837629e-16,-5.799683272364356e-16,6.811219619153811e-17,594.401321860857,594.4013218608568,594.4013218608571,594.4013218608571
0.40800000000000003,1.6396412362015166e-17,-6.0,0.1786510087530395,-3.0019447392083954e-15,2.5599170601436257e-15,-5.134541776112599e-16,2.3111489085355726e-22,-6.0,0.25470564356385994,0.0,1.1787505821959242e-16,-6.700588642675022e-17,1.0184338881983306,0.0,0.0,0.0,2.2247169745661566,-5.665105294209073e-16,-4.759345786447813e-16,6.627357139191605e-17,593.2543820647163,593.2543820647161,593.2543820647163,593.2543820647164
0.41200000000000003,1.713251338475144e-17,-6.0,0.18278879164326467,-2.3088387133337523e-15,1.6899790274012625e-15,-5.518353443172688e-16,2.3111489085355726e-22,-6.0,0.2587137754197652,0.0,1.3474147653015542e-16,-5.531768807199108e-17,1.0276291581624353,0.0,0.0,0.0,2.178306692591852,-6.120483525919109e-16,-3.5774810704414133e-16,6.640529158372874e-17,592.1093738790547,592.1093738790546,592.1093738790547,592.1093738790549
0.41600000000000004,1.7874401375075832e-17,-6.0,0.18696203982442594,-1.6177234211338226e-15,7.831872009439928e-16,-5.877624110034253e-16,2.3111489085355726e-22,-6.0,0.26273649599748444,0.0,1.5195805644926322e-16,-4.3276592728324906e-17,1.0366385344492108,0.0,0.0,0.0,2.132107978187555,-6.555080690754609e-16,-2.4224627365774067e-16,6.515309428294296e-17,590.9673820489129,590.9673820489127,590.9673820489129,590.967382048913
0.42000000000000004,1.8619151717639438e-17,-6.0,0.1911700172961673,-9.474393115422503e-16,-1.8115550550497239e-16,-6.211444068427406e-16,2.3111489085355726e-22,-6.0,0.26677348541441515,0.0,1.6949996497637073e-16,-3.109101429396149e-17,1.0454596312677393,0.0,0.0,0.0,2.0860876666321966,-6.773135413801714e-16,-9.952663006965058e-17,6.369636360943055e-17,589.8276019144233,589.8276019144232,589.8276019144233,589.8276019144236
0.42400000000000004,1.9363499016411702e-17,-6.0,0.19541197706815494,-2.994726738754552e-16,-1.2052751723489586e-15,-6.548895818870617e-16,2.3111489085355726e-22,-6.0,0.2708244271128678,0.0,1.874940183457495e-16,-1.8995077760185986e-17,1.0540948440860953,0.0,0.0,0.0,2.04028799358213,-6.964268864041399e-16,5.663309505150565e-17,6.553475058164855e-17,588.6910954009904,588.6910954009904,588.6910954009904,588.6910954009907
0.42800000000000005,2.010381833918143e-17,-6.0,0.1996871694049536,3.3359477679400035e-16,-2.2732895338600274e-15,-6.875319339099339e-16,2.3111489085355726e-22,-6.0,0.27488900783156295,0.0,2.059462236020041e-16,-7.065569450557618e-18,1.0625436064249816,0.0,0.0,0.0,1.9947348617929364,-7.231290474441876e-16,2.0583664293252388e-16,6.567788429915941e-17,587.5585261358782,587.5585261358782,587.5585261358782,587.5585261358785
0.43200000000000005,2.0836376890841546e-17,-6.0,0.20399487024936772,9.535573474234473e-16,-3.3719001363278775e-15,-7.201932894536563e-16,2.3111489085355726e-22,-6.0,0.2789669175773518,0.0,2.2468215249067644e-16,4.738703760911432e-18,1.070807242593086,0.0,0.0,0.0,1.9493966253302204,-7.513496015537624e-16,3.474720834440852e-16,6.708848221630456e-17,586.429127856332,586.429127856332,586.429127856332,586.4291278563323
0.43600000000000005,2.1556784992725188e-17,-6.0,0.20833436355294932,1.551919077982253e-15,-4.43237050208085e-15,-7.490445170989106e-16,2.3111489085355726e-22,-6.0,0.2830578495971584,0.0,2.430946940745686e-16,1.6458134241938955e-17,1.0788899089539727,0.0,0.0,0.0,1.9042767290958817,-7.691858206374335e-16,4.2246509675923746e-16,6.402910967421091e-17,585.3030049806629,585.3030049806629,585.3030049806629,585.3030049806632
0.44000000000000006,2.2261238339959336e-17,-6.0,0.21270495171250656,2.1149751027132835e-15,-5.433244365967483e-15,-7.727675960087817e-16,2.3111489085355726e-22,-6.0,0.2871615003501418,0.0,2.603940114608232e-16,2.791759084414441e-17,1.0867950237957864,0.0,0.0,0.0,1.8593572300488157,-7.69959042597022e-16,4.67442854439006e-16,5.927563845947007e-17,584.1797273276935,584.1797273276935,584.1797273276935,584.1797273276937
0.44400000000000006,2.2946389305363472e-17,-6.0,0.2171059192142296,2.633135674436991e-15,-6.375972404321426e-15,-7.915010058123844e-16,2.3111489085355726e-22,-6.0,0.2912775694800768,0.0,2.7604161352989627e-16,3.891042322166641e-17,1.0945233693234302,0.0,0.0,0.0,1.8146934299073367,-7.575128054479129e-16,5.087259467295584e-16,5.4475011243374466e-17,583.0606982296435,583.0606982296437,583.0606982296434,583.060698229644
0.44800000000000006,2.360912424599082e-17,-6.0,0.22153657443020056,3.110405049383438e-15,-7.263115001094076e-15,-8.074140568480725e-16,2.3111489085355726e-22,-6.0,0.29540575978795136,0.0,2.900070613937341e-16,4.9273849281075824e-17,1.102075858471252,0.0,0.0,0.0,1.7702564222179562,-7.470341547688758e-16,5.499439088995424e-16,5.200489750383876e-17,581.9452158744847,581.9452158744847,581.9452158744846,581.945215874485
0.45200000000000007,2.4246418230563253e-17,-6.0,0.22599621926883526,3.5415700299166743e-15,-8.084669367752544e-15,-8.14964832830275e-16,2.3111489085355726e-22,-6.0,0.29954577720477904,0.0,3.0229974721938783e-16,5.89434462122921e-17,1.1094538480714538,0.0,0.0,0.0,1.7260781810552637,-7.280048441672422e-16,5.781166084030574e-16,4.2946247134103994e-17,580.8341056342174,580.8341056342175,580.8341056342173,580.8341056342177
0.45600000000000007,2.485558899787583e-17,-6.0,0.23048413184847866,3.905208096588719e-15,-8.840975614130578e-15,-8.175710730682288e-16,2.3111489085355726e-22,-6.0,0.3036973307646254,0.0,3.1284336350473083e-16,6.77388292169444e-17,1.1166553349448967,0.0,0.0,0.0,1.682226097420259,-6.811080456796452e-16,6.016131387563388e-16,3.7537201944572226e-17,579.7290924307362,579.7290924307363,579.729092430736,579.7290924307365
0.4600000000000001,2.543421139419113e-17,-6.0,0.23499959354468453,4.214943299035303e-15,-9.533116109605266e-15,-8.177944764895189e-16,2.3111489085355726e-22,-6.0,0.3078601325778461,0.0,3.2164119882609073e-16,7.549863671827544e-17,1.1236775277060074,0.0,0.0,0.0,1.6387134741379965,-6.457567080312766e-16,6.2203969647042815e-16,3.4917769584419937e-17,578.6305473644617,578.6305473644618,578.6305473644616,578.630547364462
0.4640000000000001,2.5980085371976608e-17,-6.0,0.23954189112725285,4.469256658117166e-15,-1.016180176937353e-14,-8.1480038167345075e-16,2.3111489085355726e-22,-6.0,0.31203389780453533,0.0,3.28727437897672e-16,8.218815652443415e-17,1.1305203983295737,0.0,0.0,0.0,1.595549218949717,-6.051618394759812e-16,6.391962884493687e-16,3.12254893489432e-17,577.5387328739355,577.5387328739356,577.5387328739354,577.5387328739358
0.4680000000000001,2.64913406517966e-17,-6.0,0.24411031673777844,4.687659674586258e-15,-1.0736615000065948e-14,-8.104756847169861e-16,2.3111489085355726e-22,-6.0,0.3162183446281833,0.0,3.341826453317886e-16,8.792106623076782e-17,1.1371852966228362,0.0,0.0,0.0,1.5527421586740293,-5.837388495517473e-16,6.620818522754726e-16,2.9605072270641793e-17,576.4539111035257,576.4539111035259,576.4539111035257,576.4539111035261
0.4720000000000001,2.6966295177345825e-17,-6.0,0.24870416790062855,4.876831143223292e-15,-1.1266033451591846e-14,-8.044833362562885e-16,2.3111489085355726e-22,-6.0,0.32041319422954095,0.0,3.3821315231887187e-16,9.290408252420029e-17,1.1436735671869234,0.0,0.0,0.0,1.5103009716486975,-5.678117443193055e-16,6.914361156430364e-16,2.7535987511298163e-17,575.3763421524865,575.3763421524866,575.3763421524864,575.3763421524868
0.4760000000000001,2.7403498364650243e-17,-6.0,0.2533227536003459,5.053463752378038e-15,-1.1764818415093513e-14,-7.979214084325942e-16,2.3111489085355726e-22,-6.0,0.32461817076069,0.0,3.4102852137629196e-16,9.737272015905893e-17,1.1499871628773581,0.0,0.0,0.0,1.4682218750458578,-5.695103760730657e-16,7.345178731373767e-16,2.66807271688512e-17,574.3059705321953,574.3059705321954,574.3059705321951,574.3059705321956
0.4800000000000001,2.780153844707013e-17,-6.0,0.2579654037646042,5.2075677834813315e-15,-1.2238869312530502e-14,-7.925596966747069e-16,2.3111489085355726e-22,-6.0,0.32883300131931786,0.0,3.428692059247959e-16,1.0143392719210289e-16,1.1561295934582827,0.0,0.0,0.0,1.4264815190635773,-5.588095656914913e-16,7.840494835425186e-16,2.786902087421308e-17,573.2422409512837,573.2422409512839,573.2422409512836,573.2422409512841
0.4840000000000001,2.81588925555571e-17,-6.0,0.26263143497237884,5.354961732316578e-15,-1.2673761134903865e-14,-7.857146505066708e-16,2.3111489085355726e-22,-6.0,0.3330574159231947,0.0,3.4381991414924137e-16,1.0523355337209854e-16,1.162102494091538,0.0,0.0,0.0,1.3851255257856947,-5.651475525997904e-16,8.184274832015267e-16,2.5971413690051983e-17,572.1863563343591,572.1863563343592,572.186356334359,572.1863563343593
0.4880000000000001,2.8474316682862847e-17,-6.0,0.2673201892493816,5.451368847896976e-15,-1.3070215185315828e-14,-7.779100118265129e-16,2.3111489085355726e-22,-6.0,0.3372911474848518,0.0,3.437669345616108e-16,1.0858170231521656e-16,1.1679075508443995,0.0,0.0,0.0,1.3441212502121709,-5.194261920195965e-16,8.499039668701379e-16,2.462423150344434e-17,571.1375244117885,571.1375244117887,571.1375244117884,571.1375244117888
0.4920000000000001,2.874676886538112e-17,-6.0,0.2720310056760244,5.5089536139931925e-15,-1.3434868005075962e-14,-7.685959088950371e-16,2.3111489085355726e-22,-6.0,0.3415339317864595,0.0,3.4271255130835646e-16,1.1125582590248552e-16,1.1735468191762464,0.0,0.0,0.0,1.3034929011019933,-4.844903974820041e-16,8.860995345185762e-16,2.2594763351273608e-17,570.0964050360169,570.0964050360171,570.0964050360168,570.0964050360172
0.4960000000000001,2.89753995252974e-17,-6.0,0.276763210053061,5.529602704974597e-15,-1.3781747482000553e-14,-7.578633125392319e-16,2.3111489085355726e-22,-6.0,0.34578550745490366,0.0,3.4081561165643947e-16,1.1306440862275437e-16,1.1790197864534449,0.0,0.0,0.0,1.2632857973381604,-4.491431711283199e-16,9.36045451702054e-16,2.0608929803617933e-17,569.0642050244716,569.0642050244718,569.0642050244714,569.0642050244719
0.5000000000000001,2.915920280874443e-17,-6.0,0.28151614882769677,5.4944454146162215e-15,-1.4101606900109463e-14,-7.433253391651712e-16,2.3111489085355726e-22,-6.0,0.3500456159370581,0.0,3.38197095087862e-16,1.140483735176047e-16,1.1843266564785737,0.0,0.0,0.0,1.2234768696952303,-3.892486764775395e-16,9.774339045740312e-16,1.57758415994836e-17,568.0403791596633,568.0403791596635,568.0403791596632,568.0403791596636
0.5040000000000001,2.929735750330358e-17,-6.0,0.28628915802415444,5.411548296843075e-15,-1.4395173099306975e-14,-7.26985985537975e-16,2.3111489085355726e-22,-6.0,0.35431400147525294,0.0,3.349013071740865e-16,1.1398873619254338e-16,1.1894683496252056,0.0,0.0,0.0,1.184105488386036,-3.349330410173515e-16,1.0174401524764572e-15,1.31264625407712e-17,567.0259880721393,567.0259880721396,567.0259880721393,567.0259880721397
0.5080000000000001,2.938900592505625e-17,-6.0,0.2910815944868851,5.283879120376815e-15,-1.465060885808878e-14,-7.095509352096487e-16,2.3111489085355726e-22,-6.0,0.3585904110829363,0.0,3.3078747746992774e-16,1.1283765806441056e-16,1.1944464911188613,0.0,0.0,0.0,1.1451479886355325,-2.8076052948897093e-16,1.0438678521301541e-15,1.1226322288390921e-17,566.0204711427873,566.0204711427876,566.0204711427873,566.0204711427876
0.512,2.9433530472346174e-17,-6.0,0.2958927998588512,5.107701891747459e-15,-1.486752969776873e-14,-6.873010311087129e-16,2.3111489085355726e-22,-6.0,0.36287459452052845,0.0,3.2578291017656157e-16,1.1069278783204739e-16,1.1992615700881948,0.0,0.0,0.0,1.1066531895122975,-2.1907462787518179e-16,1.0660831818421456e-15,4.935408438192473e-18,565.0251391413174,565.0251391413177,565.0251391413174,565.0251391413177
0.516,2.943034603894178e-17,-6.0,0.30072212249261915,4.888177590576569e-15,-1.5036312017550432e-14,-6.618170006896746e-16,2.3111489085355726e-22,-6.0,0.36716630427146685,0.0,3.197638214689088e-16,1.0757103509414749e-16,1.2039133404807498,0.0,0.0,0.0,1.0686259663487616,-1.5997527878007695e-16,1.0754811800340359e-15,2.917674887863021e-19,564.0401723754536,564.0401723754541,564.0401723754536,564.0401723754541
0.52,2.9379141189886546e-17,-6.0,0.30556891915999507,4.63304766004718e-15,-1.5159525455695816e-14,-6.334864816615526e-16,2.3111489085355726e-22,-6.0,0.3714652955184402,0.0,3.1269691969826543e-16,1.0349781921434871e-16,1.2084027163378472,0.0,0.0,0.0,1.0310675510396328,-1.0679843116562e-16,1.08278785068535e-15,-4.0336340742642394e-18,563.0656572319064,563.0656572319068,563.0656572319064,563.0656572319067
0.524,2.92791979761595e-17,-6.0,0.3104325548494472,4.356673384255987e-15,-1.5185417305695637e-14,-6.050792444470795e-16,2.3111489085355726e-22,-6.0,0.3757713261198112,0.0,3.0426291747879764e-16,9.862261997689903e-17,1.2127317925815504,0.0,0.0,0.0,0.9939793580132568,-6.77788085555916e-17,1.0324245381607535e-15,-5.242369625718181e-18,562.1016848650168,562.1016848650171,562.1016848650168,562.1016848650171
0.528,2.913025627121255e-17,-6.0,0.3153124026072901,4.056139595405045e-15,-1.5081803718880806e-14,-5.766095416868928e-16,2.3111489085355726e-22,-6.0,0.3800841565862254,0.0,2.938723181102004e-16,9.31479137533119e-17,1.2169026147411666,0.0,0.0,0.0,0.9573629014783103,-2.3709365700466142e-17,9.339194126621002e-16,-6.439589334030974e-18,561.1483490647273,561.1483490647277,561.1483490647273,561.1483490647277
0.532,2.8931820738965806e-17,-6.0,0.32020784341183134,3.739931470162675e-15,-1.4755884390679168e-14,-5.47847922924889e-16,2.3111489085355726e-22,-6.0,0.38440355005740556,0.0,2.8035250262088554e-16,8.714397690518024e-17,1.2209171904177087,0.0,0.0,0.0,0.9212197331965264,1.2313558447655349e-17,7.219052519021996e-16,-7.909396054557424e-18,560.2057446372905,560.2057446372909,560.2057446372905,560.2057446372908
0.536,2.868508280372711e-17,-6.0,0.32511826607479294,3.420971699706845e-15,-1.4220148165430446e-14,-5.203276068134491e-16,2.3111489085355726e-22,-6.0,0.3887292722791295,0.0,2.6279361912570143e-16,8.077516771902948e-17,1.2247774972794003,0.0,0.0,0.0,0.8855513907533368,3.453884067903458e-17,4.906442959987527e-16,-7.602155891664784e-18,559.2739660433457,559.2739660433459,559.2739660433457,559.2739660433458
0.54,2.8392623949949375e-17,-6.0,0.330043067165168,3.0830002354719453e-15,-1.3557675768116858e-14,-4.928049152619028e-16,2.3111489085355726e-22,-6.0,0.3930610915803907,0.0,2.412933307466323e-16,7.411326094784119e-17,1.228485489603992,0.0,0.0,0.0,0.8503593547824793,7.616234834127801e-17,3.253228642087374e-16,-8.69867780051217e-18,558.3531062565527,558.3531062565529,558.3531062565527,558.3531062565528
0.544,2.8056909679463654e-17,-6.0,0.33498165595802787,2.734171582131537e-15,-1.2795780836780181e-14,-4.638708566063461e-16,2.3111489085355726e-22,-6.0,0.3973987788507399,0.0,2.17101777520286e-16,6.714681472373364e-17,1.2320436043155194,0.0,0.0,0.0,0.8156348527932857,1.0979959003166355e-16,1.8277370511918444e-16,-1.1443143765995694e-17,557.4429892768421,557.4429892768424,557.4429892768421,557.4429892768421
0.548,2.768052078937557e-17,-6.0,0.33993346881957837,2.383727170526127e-15,-1.1944783352964793e-14,-4.358909354797488e-16,2.3111489085355726e-22,-6.0,0.4017421075178062,0.0,1.9116018364098766e-16,5.987707761816126e-17,1.2354562081703713,0.0,0.0,0.0,0.7813395499892077,1.336312822273513e-16,4.231714408354655e-17,-1.1484301516661952e-17,556.5426606198831,556.5426606198832,556.5426606198831,556.542660619883
0.552,2.7266475194622404e-17,-6.0,0.34489796352331015,2.0386801964173785e-15,-1.1031638717833127e-14,-4.0790626347293887e-16,2.3111489085355726e-22,-6.0,0.40609085352499713,0.0,1.6388446693594643e-16,5.249431717255811e-17,1.2387290360231673,0.0,0.0,0.0,0.7474458204159975,1.4962858426600308e-16,-7.986068034359937e-17,-1.2608365967792248e-17,555.6514408724163,555.6514408724165,555.6514408724163,555.6514408724163
0.556,2.681786554093219e-17,-6.0,0.34987457878256306,1.6975467833651113e-15,-1.0071487657132298e-14,-3.7970639365066305e-16,2.3111489085355726e-22,-6.0,0.41044479530937483,0.0,1.3577787209435118e-16,4.5123699101197806e-17,1.2418635338016182,0.0,0.0,0.0,0.7140075215837205,1.672304555475397e-16,-1.9194077176639138e-16,-1.3980414502336e-17,554.7707934793302,554.7707934793303,554.7707934793302,554.7707934793301
0.56,2.6337806209665552e-17,-6.0,0.3548627357802642,1.3640306768034412e-15,-9.068388284632699e-15,-3.502390913366541e-16,2.3111489085355726e-22,-6.0,0.41480371377970887,0.0,1.0719538677685216e-16,3.7837043379127465e-17,1.2448570706689255,0.0,0.0,0.0,0.6810760502924971,1.804778807590325e-16,-3.0535326232532147e-16,-1.6592444965577212e-17,553.9021256794249,553.902125679425,553.9021256794249,553.9021256794248
0.5640000000000001,2.5829806883277702e-17,-6.0,0.3598618685769432,1.032963189902981e-15,-8.054117778556873e-15,-3.221183151408359e-16,2.3111489085355726e-22,-6.0,0.41916739229470285,0.0,7.848241929580213e-17,3.062078516766956e-17,1.2477076179053583,0.0,0.0,0.0,0.6486416846635197,1.9947289770763611e-16,-3.9190088390077346e-16,-1.6205060490003452e-17,553.0452368788746,553.0452368788746,553.0452368788746,553.0452368788743
0.5680000000000001,2.5297194123597695e-17,-6.0,0.3648714373669325,7.062033828276775e-16,-7.03940107577387e-15,-2.932823536325872e-16,2.3111489085355726e-22,-6.0,0.4235356166413943,0.0,5.0077894313750487e-17,2.3459025112840768e-17,1.2504186904511938,0.0,0.0,0.0,0.6166674242830354,2.1636071616280222e-16,-4.676438181557789e-16,-1.8172751488554433e-17,552.1992021374227,552.1992021374227,552.1992021374227,552.1992021374226
