Time_s,X,Y,Z,Roll_deg,Pitch_deg,Yaw_deg,Ref_X,Ref_Y,Ref_Z,Ref_Yaw,vx,vy,vz,p,q,r,T_pert,tau_x,tau_y,tau_z,RPM_0,RPM_1,RPM_2,RPM_3
0.0040000000000000036,-6.51783449945208e-23,4.0,0.010006999594037988,-3.861262043247411e-18,-1.3963409037126566e-18,6.720055526330817e-20,1.494038018717053e-22,4.0,0.010074639714689831,7.2122854763592815e-22,5.628567488317738e-19,800.0,2.0013999188075973,0.0,0.0,0.0,0.13727673356390743,4.508920778836622e-18,4.131065662548703e-18,-3.0228665552082376e-20,539.3555031529193,539.3555031529194,539.3555031529193,539.3555031529194
0.008,1.965338442259686e-22,4.0,0.010010999367146601,-4.792930458265155e-18,-4.474774416387647e-19,1.5773907966952042e-19,1.4939310914910226e-22,4.0,0.01021705724096241,7.21176929827702e-22,3.4178087945810997e-19,444.44444444444446,1.1123332630162888,0.0,0.0,0.0,0.2830776322140905,1.351981648833237e-18,-6.3828956088735016e-18,-1.0682936940098074e-19,543.2938901806401,543.2938901806402,543.2938901806401,543.2938901806401
0.012000000000000004,1.7769881692599562e-22,4.0,0.0100149991519472,-5.6019366279343186e-18,-9.891124455487576e-19,2.6257425114785892e-19,1.4937716658724108e-22,4.0,0.010429397942859043,7.210999690637008e-22,-2.1758764633120855e-21,-8.448517906623829e-23,0.0009999443586481901,0.0,0.0,0.0,0.42940120836575063,1.2724546673823733e-18,3.7148361226002936e-18,-1.2724973473077208e-19,547.2178989583703,547.2178989583704,547.2178989583703,547.2178989583703
0.016,2.2585868912547264e-22,4.0,0.010018998956163028,-6.60724129034944e-18,-1.5128291067360872e-18,4.247720366521438e-19,1.493560377581251e-22,4.0,0.010710815098006973,7.209979722299813e-22,1.0225118642281924e-20,-1.0235897752554743e-22,0.0009999476312470487,0.0,0.0,0.0,0.5762362079506186,1.5570005376722301e-18,-8.622480409792148e-20,-1.985650648977908e-19,551.1275380152521,551.1275380152522,551.1275380152521,551.1275380152522
0.020000000000000004,8.809102686987315e-23,4.0,0.010022998783181906,-8.434364730581265e-18,-2.238538142542195e-18,5.869698221564287e-19,1.4932978565759922e-22,4.0,0.0110604696579496,7.208712434312662e-22,-1.4416837592962073e-21,-1.201179586559784e-22,0.0009999525705739476,0.0,0.0,0.0,0.7235714979616565,2.5854100660151884e-18,3.0767382268469438e-18,-2.0522732321351945e-19,555.0228177129648,555.0228177129649,555.0228177129648,555.0228177129648
0.024000000000000007,1.632318832668233e-22,4.0,0.010026998633782258,-1.0752658887219018e-17,-1.4890897964379568e-18,6.344423796088209e-19,1.4929847270999597e-22,4.0,0.011477530186265229,7.207200840133721e-22,-6.152122839411856e-21,-1.4833729019317562e-22,0.0009999582437737048,0.0,0.0,0.0,0.8713960577144337,3.283909058733365e-18,-3.088368479370347e-18,-7.787241170082716e-20,558.903749955668,558.9037499556681,558.903749955668,558.903749955668
0.027999999999999997,6.1047830839665e-23,4.0,0.010030998507212558,-1.2053972197903094e-17,-2.2704088308466354e-18,6.747886167423303e-19,1.492621607727464e-22,4.0,0.011961172797154362,7.2054479258546825e-22,-5.758149192295316e-21,-1.8460163058016662e-22,0.0009999640492305145,0.0,0.0,0.0,1.019698979113035,2.2548780321315852e-18,3.018058632178169e-18,-7.149908946676693e-20,562.7703481465657,562.7703481465658,562.7703481465657,562.7703481465658
0.032,9.888002569407047e-23,4.0,0.0100349984019356,-1.3293005061355892e-17,-1.9248356390634233e-18,6.075359461428301e-19,1.4922091114095602e-22,4.0,0.012510581094492131,7.203456650421662e-22,-4.53260539393586e-21,-2.1255737631681856e-22,0.000999969638569402,0.0,0.0,0.0,1.1684694663123698,2.2711380273052217e-18,-1.7943910290914804e-18,5.2534695254148044e-20,566.6226271312458,566.622627131246,566.6226271312458,566.6226271312458
0.036000000000000004,8.558561866088367e-23,4.0,0.010038998316006647,-1.414602770542379e-17,-1.8702063285791172e-18,8.345747174668271e-19,1.4917478455194605e-22,4.0,0.013124946111342446,7.201229945854423e-22,4.05484940341852e-21,-2.3078653969964675e-22,0.0009999748286205687,0.0,0.0,0.0,1.317696835461635,1.9051093951414276e-18,6.326705457434929e-19,-2.8848467833841934e-19,570.4606031459512,570.4606031459512,570.4606031459512,570.4606031459512
0.04000000000000001,2.006823153660499e-22,4.0,0.010042998247474063,-1.427274363187492e-17,-1.555038640511046e-18,9.967725029711122e-19,1.4912384118976031e-22,4.0,0.013803466249930549,7.198770717463939e-22,8.455058930884579e-21,-2.4364648707415014e-22,0.00099997954559998,0.0,0.0,0.0,1.467370513678452,1.1153092231480889e-18,-1.724706271532924e-18,-2.220651763407349e-19,574.2842937488618,574.284293748862,574.2842937488618,574.284293748862
0.044,2.0894998462967787e-22,4.0,0.010046998194439466,-1.462814466538721e-17,-1.716074458913238e-18,8.694297267644885e-19,1.49068140689638e-22,4.0,0.014545347222070593,7.196081844068313e-22,1.0102507057751571e-20,-2.5054921976301825e-22,0.0009999837748759371,0.0,0.0,0.0,1.617480038766506,1.3910173668716592e-18,1.4432631517153122e-18,1.0950150610197013e-19,578.0937177734138,578.0937177734139,578.0937177734138,578.0937177734138
0.048,2.73932919189864e-22,4.0,0.010050998155098868,-1.506053737428286e-17,-1.5369568410667493e-18,8.544367385034628e-19,1.490077421424523e-22,4.0,0.015349801990044966,7.193166178207048e-22,1.4974256217914806e-20,-2.5658229913822222e-22,0.0009999875428769525,0.0,0.0,0.0,1.7680150582991656,1.5052262061973702e-18,-7.602486880149719e-19,-1.651385845629312e-20,581.8888952679905,581.8888952679906,581.8888952679905,581.8888952679905
0.052000000000000005,2.5930538832875306e-22,4.0,0.010054998127901879,-1.522890027696715e-17,-1.66514664714547e-18,1.0451398052832792e-18,1.489427040991157e-22,4.0,0.016216050707932004,7.1900265463537025e-22,5.659189282052633e-21,-2.6139469198337343e-22,0.000999990875255423,0.0,0.0,0.0,1.918965328432959,1.2264780869981503e-18,1.1272892924442662e-18,-2.561859020839862e-19,585.6698474316676,585.6698474316677,585.6698474316676,585.6698474316676
0.05600000000000001,2.7090109577607056e-22,4.0,0.010058998111489432,-1.5307881393874084e-17,-1.599240509423756e-18,8.19699881768823e-19,1.488730845749516e-22,4.0,0.01714332066337891,7.186665749126929e-22,1.5687094588518304e-21,-2.6495295534945933e-22,0.0009999938321729462,0.0,0.0,0.0,2.0703207134138726,1.1336171347630726e-18,-2.577502220616423e-19,2.2210181466132263e-19,589.4365965700405,589.4365965700406,589.4365965700405,589.4365965700406
0.06,2.769948144749524e-22,4.0,0.010062998104762333,-1.542747119871054e-17,-1.5946127942293663e-18,8.695478793275095e-19,1.4879894105403274e-22,4.0,0.01813084621981657,7.183086561499908e-22,3.0539168007683928e-21,-2.67430098483588e-22,0.0009999964681350546,0.0,0.0,0.0,2.222071184383029,1.1864381313605727e-18,1.5713214467979081e-19,-9.02229720817937e-20,593.1891660358646,593.1891660358647,593.1891660358646,593.1891660358646
0.064,1.3939480106936987e-22,4.0,0.010067604650697962,8.577282243396463e-17,8.597277081700617e-18,-2.7522523924671353e-18,1.4872033049348697e-22,4.0,0.019177868759113068,7.179291733008196e-22,-1.3491686964555633e-20,1.1340108635284957e-22,0.0010606532263424118,0.0,0.0,0.0,2.3729758279722,-1.1711989432216477e-16,-1.0124350324408655e-17,4.196793599122004e-18,596.8974251290206,596.8974251290207,596.8974251290206,596.8974251290206
0.068,-4.620658735516958e-22,4.0,0.0100770055470652,4.879775274960404e-16,6.534757475008054e-17,-1.7795638702190872e-17,1.4863730932776999e-22,4.0,0.02028363662466268,7.175283987955997e-22,-7.477024843916023e-20,5.794003483162378e-21,0.0016007440102050463,0.0,0.0,0.0,2.5157372737425714,-4.755328131421633e-16,-6.133771055376763e-17,1.7687732641156686e-17,600.3844941352825,600.3844941352825,600.3844941352824,600.3844941352826
0.07200000000000001,-2.1015482620143803e-21,4.0,0.010096307768307609,1.2534631309779413e-15,2.37372393709642e-16,-4.460786627705543e-17,1.4854993347290582e-22,4.0,0.02144740506490721,7.171066025620859e-22,-2.42113949136144e-19,3.8787986650826786e-20,0.0031268729815490254,0.0,0.0,0.0,2.6483468050863372,-9.272513990287077e-16,-1.9274710362811838e-16,3.2053327744918166e-17,603.6055471576785,603.6055471576782,603.6055471576783,603.6055471576785
0.076,-4.256348040295294e-21,4.0,0.010130160709719718,2.3876327133820506e-15,5.147048069213656e-16,-8.132816886126805e-17,1.48458258330695e-22,4.0,0.022668436177286463,7.166640520456819e-22,-4.488773350964614e-19,1.5418811024979972e-19,0.005878352041668693,0.0,0.0,0.0,2.77156063493303,-1.4101213466411092e-15,-3.3269598939314853e-16,4.4728520081712163e-17,606.5830516689977,606.5830516689972,606.5830516689973,606.5830516689977
0.08,-6.062738616553362e-21,4.0,0.01018275753212376,3.860811354492909e-15,8.895921814835252e-16,-1.2520102867273401e-16,1.483623387928908e-22,4.0,0.023945998852614787,7.162010122296011e-22,-5.881341682648688e-19,4.450852554206755e-19,0.00976438339055103,0.0,0.0,0.0,2.8861469179841857,-1.8835504136022224e-15,-4.751950009163685e-16,5.4591689332021336e-17,609.3390117417854,609.3390117417848,609.339011741785,609.3390117417854
0.084,-6.497467413017004e-21,4.0,0.010257912859320291,5.575298441998881e-15,1.3716208992256759e-15,-1.7446140116286208e-16,1.482622292453437e-22,4.0,0.025279368719880478,7.157177456548731e-22,-5.743571120355578e-19,1.0310320765932637e-18,0.01467667730730062,0.0,0.0,0.0,2.992730749578194,-2.2660735540277044e-15,-6.381375879177407e-16,6.26867144291321e-17,611.8913589945755,611.8913589945747,611.891358994575,611.8913589945755
0.08800000000000001,-3.9273332390601996e-21,4.0,0.010359005344169806,7.371354318082267e-15,1.947851010414507e-15,-2.2731265695872945e-16,1.4815798357211431e-22,4.0,0.026667828091465066,7.152145124401982e-22,-3.748817500463438e-19,2.0247100705357542e-18,0.020514068169644878,0.0,0.0,0.0,3.0920659407771725,-2.47856476501095e-15,-8.012657388165373e-16,6.89042208951645e-17,614.2605761708787,614.2605761708779,614.2605761708783,614.2605761708788
0.09200000000000001,3.709081044134355e-21,4.0,0.010489162847300696,9.151730219491658e-15,2.5983381012439696e-15,-2.832619348836907e-16,1.480496551595551e-22,4.0,0.028110665908779347,7.146915703016515e-22,9.03736524167729e-20,3.503899066428017e-18,0.027186370295423368,0.0,0.0,0.0,3.184544463840007,-2.583073311891606e-15,-9.539194124492603e-16,7.469344076494774e-17,616.4580723683328,616.4580723683318,616.4580723683322,616.4580723683326
0.09600000000000002,1.8706585209813184e-20,4.0,0.010651211665229702,1.087012598161186e-14,3.3105220150255327e-15,-3.4182587552152544e-16,1.4793729690036084e-22,4.0,0.02960717768831314,7.141491745722366e-22,8.657234848306917e-19,5.511300173919288e-18,0.03461974153576228,0.0,0.0,0.0,3.270669414731756,-2.6324434227299577e-15,-1.1014629325620607e-15,8.004523513169505e-17,618.497572117307,618.497572117306,618.4975721173065,618.4975721173068
0.10000000000000002,4.3816309477340133e-20,4.0,0.01084778868452524,1.2476542924752242e-14,4.0533645051801806e-15,-3.9964850100576065e-16,1.4782096119758852e-22,4.0,0.03115666546809575,7.1358757822129e-22,2.0051774522907087e-18,8.063202116653248e-18,0.042751834174317715,0.0,0.0,0.0,3.3507259709245725,-2.6191901065675674e-15,-1.2242742516619864e-15,8.158408310617713e-17,620.3873552275492,620.3873552275483,620.3873552275487,620.387355227549
0.104,8.201897410551185e-20,4.0,0.011081334712817317,1.3933173468977856e-14,4.791005668325946e-15,-4.587053028202408e-16,1.4770069996864635e-22,4.0,0.0327584377545641,7.130070318737389e-22,3.565931328643889e-18,1.1140119256841247e-17,0.05153038536808309,0.0,0.0,0.0,3.4250189695377293,-2.5541302772161938e-15,-1.3123643953501029e-15,8.54001767038237e-17,622.1359507924498,622.1359507924487,622.1359507924493,622.1359507924496
0.108,1.3669444570988309e-19,4.0,0.011354097950283885,1.522110455124489e-14,5.45505682034232e-15,-5.21720918025679e-16,1.4757656464925262e-22,4.0,0.03441180946983568,7.124077838292109e-22,5.641044705041219e-18,1.470219827152237e-17,0.06090699358885075,0.0,0.0,0.0,3.4938525396095006,-2.45674230216326e-15,-1.3274925696345512e-15,9.24497564585096e-17,623.7516758139195,623.7516758139185,623.7516758139191,623.7516758139194
0.112,2.1058786585235874e-19,4.0,0.011668105308662396,1.631216120688631e-14,6.022255930583238e-15,-5.838234822869144e-16,1.4744860619736423e-22,4.0,0.036116101899383087,7.117900800809994e-22,8.281848807269771e-18,1.8679450584345828e-17,0.07083122299949181,0.0,0.0,0.0,3.557595245336641,-2.31491743871606e-15,-1.3059955370805484e-15,9.397078987217996e-17,625.2441798881393,625.2441798881384,625.2441798881389,625.2441798881392
0.116,3.056499081023227e-19,4.0,0.012025219580914041,1.7240293892914314e-14,6.518820175580656e-15,-6.494710923889203e-16,1.473168750970754e-22,4.0,0.037870642640107546,7.111541643348835e-22,1.1381684977053286e-17,2.2991078455198512e-17,0.08125360967640369,0.0,0.0,0.0,3.616506765125295,-2.1992748834900234e-15,-1.3017016392503801e-15,1.0066209245181536e-16,626.6204031752343,626.6204031752334,626.620403175234,626.6204031752343
0.12000000000000001,4.23881015079548e-19,4.0,0.012427145620446283,1.8051586112973607e-14,6.9406824373413164e-15,-7.169604652258683e-16,1.4718142136248654e-22,4.0,0.03967476554880827,7.105002780278049e-22,1.4873855675189476e-17,2.758503443078969e-17,0.09213195903640617,0.0,0.0,0.0,3.670839554877421,-2.1263044008901276e-15,-1.2902394416925263e-15,1.0550926198730648e-16,627.886989539419,627.8869895394182,627.8869895394188,627.886989539419
0.12400000000000001,5.66831921682083e-19,4.0,0.012875422669674449,1.884433209102117e-14,7.303403502021458e-15,-7.888865558868322e-16,1.470422945415437e-22,4.0,0.04152781069104483,7.098286603464023e-22,1.8694016499346045e-17,3.2476006923662485e-17,0.10342589956397266,0.0,0.0,0.0,3.720866760961695,-2.160125439758897e-15,-1.2884928078209167e-15,1.134633780850342e-16,629.0509505745418,629.0509505745409,629.0509505745415,629.0509505745418
0.128,7.356995503488562e-19,4.0,0.01337147120393488,1.97027612671643e-14,7.635738555720897e-15,-8.637208965996434e-16,1.4689954371984869e-22,4.0,0.04342912429038967,7.091395482454041e-22,2.2787607832297188e-17,3.7767667174817504e-17,0.11509885737097121,0.0,0.0,0.0,3.766771824816506,-2.291035688547603e-15,-1.313694659167554e-15,1.1981418801368357e-16,630.1171118996826,630.1171118996817,630.1171118996824,630.1171118996828
0.132,9.31570118891341e-19,4.0,0.013916610493562406,2.0671528594811505e-14,7.963537432635386e-15,-9.335299366045916e-16,1.4675321752444008e-22,4.0,0.04537805867806792,7.08433176465881e-22,2.7056945288816215e-17,4.3624594239045665e-17,0.12712109625602727,0.0,0.0,0.0,3.8087064172716865,-2.4785825459853075e-15,-1.3669714761558567e-15,1.1701677820414914e-16,631.0894834009781,631.0894834009771,631.0894834009777,631.0894834009781
0.136,1.1562377692146236e-18,4.0,0.014512081747358725,2.1705875473266574e-14,8.240673013828257e-15,-9.948018862223952e-16,1.466033641275455e-22,4.0,0.04737397224298161,7.077097775533594e-22,3.152944309322072e-17,5.0168761231257625e-17,0.13946901303981354,0.0,0.0,0.0,3.8467785507762375,-2.6214085199092632e-15,-1.3755008856853724e-15,1.0991068768711388e-16,631.9709971617705,631.9709971617694,631.97099716177,631.9709971617705
0.22000000000000003,1.2687252465473622e-17,4.0,0.039653365172221566,9.164456236943555e-14,5.2639960395352066e-15,-1.9201980914306145e-15,1.4192199196023658e-22,4.0,0.10972567333731642,6.851110270070328e-22,1.5477672749668165e-16,6.353481046326151e-16,0.42926994483530245,0.0,0.0,0.0,5.780813751060737,-1.1207762391223862e-14,-1.1347204890172952e-15,1.311993244006367e-16,675.2388256879033,675.2388256879003,675.2388256879008,675.2388256879034
0.22400000000000003,1.3504399076946355e-17,4.0,0.041469734146715856,9.823546948179592e-14,5.055814611518874e-15,-1.966825060818276e-15,1.4169663535417834e-22,4.0,0.11272722229313356,6.840231456034048e-22,1.5984393805897467e-16,7.045640136158749e-16,0.44345293638215766,0.0,0.0,0.0,4.646772342313455,-1.3963288324180277e-14,-3.834676332888895e-15,1.3331872520214558e-16,650.2175467921261,650.2175467921215,650.2175467921228,650.2175467921255
0.22800000000000004,1.4339425236302962e-17,4.0,0.04334286366150276,1.0513490138887549e-13,4.848299373142842e-15,-2.0140691183710596e-15,1.4146888194852004e-22,4.0,0.11576069448147834,6.829236939433787e-22,1.648126783655042e-16,7.794146407160073e-16,0.4576402236555942,0.0,0.0,0.0,4.634431359871576,-1.4774264584884414e-14,-1.136926510285238e-15,1.3595423183205606e-16,649.9399593626908,649.9399593626867,649.9399593626873,649.939959362691
0.23200000000000004,1.5191481149767492e-17,4.0,0.045272765720713724,1.1234951248879708e-13,4.645878230832193e-15,-2.06049039170368e-15,1.412387687039795e-22,4.0,0.11882559761856165,6.818128504502908e-22,1.6967207996246297e-16,8.60109302511161e-16,0.47183102810422073,0.0,0.0,0.0,4.620279783115404,-1.56141090591784e-14,-1.1425843007015164e-15,1.3693307943970018e-16,649.6214999891117,649.6214999891074,649.621499989108,649.621499989112
0.23600000000000004,1.605971985977974e-17,4.0,0.047259450152753076,1.198763012247208e-13,4.45373466914243e-15,-2.1062589452695844e-15,1.410063322227001e-22,4.0,0.12192144419648569,6.806907918165038e-22,1.7438499439195292e-16,9.468582534324282e-16,0.48602471226064237,0.0,0.0,0.0,4.604315543180544,-1.64720012191629e-14,-1.1541829924476646e-15,1.3807680303849157e-16,649.2620619352347,649.2620619352301,649.2620619352307,649.2620619352348
0.24000000000000005,1.6943430226779727e-17,4.0,0.04930292500460711,1.2771229512039728e-13,4.26741942234234e-15,-2.1539697341578443e-15,1.4077160875123605e-22,4.0,0.12504775144348357,6.795576930178169e-22,1.7892631554918635e-16,1.0398900313654948e-15,0.5002207541815851,0.0,0.0,0.0,4.586535909868998,-1.7347769769608923e-14,-1.1623729612988016e-15,1.4222504173244495e-16,648.8615155744959,648.8615155744912,648.8615155744917,648.8615155744961
0.24400000000000005,1.7841890796508258e-17,4.0,0.05140319686470453,1.3586418217612432e-13,4.086231506195092e-15,-2.200544443863166e-15,1.405346341835145e-22,4.0,0.1282040412844655,6.784137273277656e-22,1.8331938191806116e-16,1.1394357139085319e-15,0.5144187265165266,0.0,0.0,0.0,4.566937623466282,-1.825249229696792e-14,-1.1696303642840099e-15,1.4285707672881325e-16,648.4197112169711,648.4197112169661,648.4197112169667,648.4197112169713
0.24800000000000005,1.875430360773031e-17,4.0,0.05356027112727067,1.4434525051990924e-13,3.9190520020574834e-15,-2.2463011202285378e-15,1.4029544406377502e-22,4.0,0.1313898403018694,6.772590663318111e-22,1.8754452317479183e-16,1.2457757974292525e-15,0.528618279367371,0.0,0.0,0.0,4.54551700257293,-1.9194333325511848e-14,-1.1863102547846312e-15,1.4381398848113874e-16,647.9364813856815,647.9364813856762,647.9364813856769,647.9364813856816
0.25200000000000006,1.9680036049752623e-17,4.0,0.05577415220877474,1.5314434724503368e-13,3.762863763000883e-15,-2.290856876425153e-15,1.4005407358948612e-22,4.0,0.13460467969681358,6.760938799414201e-22,1.91587611197224e-16,1.3591969075434862e-15,0.5428191262530199,0.0,0.0,0.0,4.522270032294092,-2.014566094090465e-14,-1.201873720856811e-15,1.4429003677645142e-16,647.411642640768,647.4116426407625,647.411642640763,647.4116426407682
0.256,2.061862774954319e-17,4.0,0.05804484372515008,1.6227188163514683e-13,3.601541563125998e-15,-2.3346665665879557e-15,1.3981055761423946e-22,4.0,0.1378480952505493,6.749183364080359e-22,1.9549263686608786e-16,1.4799506200420733e-15,0.5570210326167079,0.0,0.0,0.0,4.4971924363436075,-2.113089134915807e-14,-1.201019413256643e-15,1.452481129672464e-16,646.8449970320579,646.8449970320521,646.8449970320527,646.844997032058
0.26,2.1569427491721992e-17,4.0,0.0603723504560301,1.7170570866069034e-13,3.4379445710140964e-15,-2.378071990960995e-15,1.3956493065062165e-22,4.0,0.14111962728621125,6.737326023369416e-22,1.9931616128156827e-16,1.6082521983385239e-15,0.5712239883291239,0.0,0.0,0.0,4.470276044014303,-2.2112721635605315e-14,-1.2007212287398528e-15,1.4657483000653197e-16,646.2362497082335,646.2362497082274,646.236249708228,646.2362497082336
0.264,2.2531897512458644e-17,4.0,0.06275794403114854,1.8130976484759308e-13,3.269794185905277e-15,-2.4218453454192537e-15,1.3931722687306383e-22,4.0,0.14441882063086292,6.725368427010163e-22,2.0310159138024949e-16,1.7443651740194513e-15,0.585554756742998,0.0,0.0,0.0,4.438943982107727,-2.2956611212391195e-14,-1.198557037694989e-15,1.48786993467839e-16,645.526913533489,645.5269135334827,645.5269135334834,645.5269135334892
0.268,2.3505722578620835e-17,4.0,0.06520380159615242,1.90869460652256e-13,3.0756630558902404e-15,-2.4586219544630675e-15,1.3906748012066927e-22,4.0,0.14774522457783607,6.713312208543849e-22,2.0693444877157801e-16,1.8880676758709083e-15,0.6002307252385235,0.0,0.0,0.0,4.401312386090597,-2.3561558301049898e-14,-1.1733707849951122e-15,1.4241115975116284e-16,644.6739286294409,644.6739286294345,644.673928629435,644.6739286294411
0.272,2.4490311793507908e-17,4.0,0.06771139445915678,2.0004632000625939e-13,2.8482063099016835e-15,-2.4877229684845516e-15,1.388157239000191e-22,4.0,0.15109839284936075,6.701158985459623e-22,2.1091308875492374e-16,2.037649208010593e-15,0.6153668604032616,0.0,0.0,0.0,4.3587388492308765,-2.3768222451047414e-14,-1.1345182421488374e-15,1.34955013451733e-16,643.7075634290148,643.7075634290084,643.7075634290089,643.7075634290151
0.276,2.5484814758804807e-17,4.0,0.07028162762583709,2.0860074054422682e-13,2.5911644691219143e-15,-2.5074593570185152e-15,1.3856199138795633e-22,4.0,0.15447788355948455,6.688910359328931e-22,2.151740132910829e-16,2.1898352989315658e-15,0.6308391542604166,0.0,0.0,0.0,4.312320335311679,-2.3668915892110695e-14,-1.094396451921121e-15,1.2521062783933345e-16,642.652266215604,642.6522662155975,642.6522662155979,642.6522662156041
0.28,2.6487470245418464e-17,4.0,0.07291508402648168,2.1633374067632154e-13,2.3813414112811203e-15,-2.5171919488359287e-15,1.3830631543434834e-22,4.0,0.15788325917727872,6.676567915938871e-22,2.194077310949641e-16,2.341096171438262e-15,0.646527096418481,0.0,0.0,0.0,4.2626762581020525,-2.3294688241691734e-14,-1.1307667274044445e-15,1.143350474900138e-16,641.5217166594773,641.5217166594709,641.5217166594714,641.5217166594774
0.28400000000000003,2.7497561175124375e-17,4.0,0.07561207303697902,2.2303014959064783e-13,2.2047141459592607e-15,-2.5243163001578375e-15,1.3804872856482802e-22,4.0,0.16131408649032897,6.664133225424519e-22,2.2321908134157627e-16,2.4882836587438767e-15,0.6623434490774265,0.0,0.0,0.0,4.210337885152483,-2.2613027987597038e-14,-1.1648289258618611e-15,1.11687858168454e-16,640.3276481271159,640.3276481271097,640.3276481271101,640.3276481271159
0.28800000000000003,2.851435377517413e-17,4.0,0.07837270240163496,2.2860175500223355e-13,2.062045838186982e-15,-2.525995424135583e-15,1.3778926298351361e-22,4.0,0.16476993656850897,6.651607842400223e-22,2.264913865942718e-16,2.6283693745967618e-15,0.6782274178634016,0.0,0.0,0.0,4.155699297144357,-2.1757474824182506e-14,-1.2013871330291615e-15,1.0561951683610202e-16,639.0787213199058,639.0787213198996,639.0787213199002,639.0787213199058
0.29200000000000004,2.953782578675213e-17,4.0,0.08119691342943372,2.329699731795509e-13,1.895684674988035e-15,-2.514082947634096e-15,1.3752795057570758e-22,4.0,0.16825038472803436,6.638993306089893e-22,2.2950088259777006e-16,2.7588161039081243e-15,0.6941287369684954,0.0,0.0,0.0,4.09908963248774,-2.073324015993811e-14,-1.1807454698796704e-15,8.981132492893165e-17,637.7821600970929,637.7821600970872,637.7821600970875,637.7821600970929
0.29600000000000004,3.056829531394987e-17,4.0,0.08408450411331204,2.3602516257603083e-13,1.6117657533708698e-15,-2.495206277776702e-15,1.3726482291057448e-22,4.0,0.17175501049579522,6.626291140456267e-22,2.3290133881095484e-16,2.8774525636361437e-15,0.7100071352370729,0.0,0.0,0.0,4.040796475863244,-1.9498683036106728e-14,-1.0529392167830416e-15,8.118687766895982e-17,636.444280628145,636.4442806281396,636.44428062814,636.444280628145
0.30000000000000004,3.1604593844333155e-17,4.0,0.0870351491335699,2.376649945030206e-13,1.2257858362210477e-15,-2.4682822991657547e-15,1.3699991124379818e-22,4.0,0.1752833975739651,6.613502854329188e-22,2.373853763937688e-16,2.9818767778480084e-15,0.7258279380747592,0.0,0.0,0.0,3.981071444925704,-1.8054845364748997e-14,-9.182507524369889e-16,7.101120815143802e-17,635.0706152278281,635.0706152278229,635.0706152278234,635.0706152278281
0.30400000000000005,3.264511299720205e-17,4.0,0.09004842561863498,2.377834319365709e-13,7.539859040462578e-16,-2.4394438864107765e-15,1.3673324652021844e-22,4.0,0.1788351338048843,6.600629941532879e-22,2.4309660463757685e-16,3.0695467900880074e-15,0.7415621618162047,0.0,0.0,0.0,3.9201178679206423,-1.6390399324135768e-14,-7.895630588572813e-16,6.766925756473504e-17,633.6656231331643,633.6656231331599,633.6656231331601,633.6656231331644
0.30800000000000005,3.368742627765474e-17,4.0,0.09312384997189466,2.363529948014116e-13,2.599103475928647e-16,-2.408918818630714e-15,1.3646485937644693e-22,4.0,0.1824098111362155,6.58767388101223e-22,2.495492846691004e-16,3.1380064912742803e-15,0.7571880452912254,0.0,0.0,0.0,3.858067503545554,-1.4589827344969792e-14,-7.184364715273084e-16,6.451477617109467e-17,632.2321428260285,632.2321428260244,632.2321428260248,632.2321428260285
0.31200000000000006,3.4729415634398143e-17,4.0,0.09626085659572703,2.333785782816178e-13,-2.372258232194829e-16,-2.3746073773532465e-15,1.3619478014346313e-22,4.0,0.1860070255863698,6.574636136958113e-22,2.5623353437318437e-16,3.1853149347287987e-15,0.772687062579902,0.0,0.0,0.0,3.7950972872516067,-1.2689055913696552e-14,-6.698771229627979e-16,5.883823208093879e-17,630.7740817292529,630.7740817292492,630.7740817292495,630.7740817292529
0.31600000000000006,3.576929586587718e-17,4.0,0.09945881008167828,2.2895650305656526e-13,-7.522003842216589e-16,-2.3373822310407696e-15,1.3592303884918996e-22,4.0,0.18962637721020115,6.561518158931714e-22,2.628344741688526e-16,3.2104334409123048e-15,0.7880408010812786,0.0,0.0,0.0,3.7313620891825243,-1.0795180287333518e-14,-6.060235616574286e-16,5.4025622060063094e-17,629.2948675594715,629.2948675594686,629.2948675594688,629.2948675594716
0.32,3.680531422598508e-17,4.0,0.10271706284589172,2.2318260823922307e-13,-1.3064472779987051e-15,-2.299917428408815e-15,1.356496652210495e-22,4.0,0.1932674700649669,6.548321381987911e-22,2.694981186455843e-16,3.212975851317686e-15,0.8032369787275492,0.0,0.0,0.0,3.6669020934300756,-8.914224761727154e-15,-5.148502420507998e-16,5.22170776716362e-17,627.7952867431723,627.7952867431698,627.7952867431699,627.7952867431723
0.324,3.78355000419134e-17,4.0,0.10603483114410657,2.1621117064692367e-13,-1.91179626445014e-15,-2.2544471077110123e-15,1.3537468868849876e-22,4.0,0.19692991217655317,6.535047226797682e-22,2.764645477493522e-16,3.193307855801842e-15,0.8182575623784147,0.0,0.0,0.0,3.602009561861811,-7.120982643320866e-15,-4.031982328311745e-16,4.1326937680211164e-17,626.2820166907932,626.2820166907912,626.2820166907914,626.2820166907933
0.328,3.885803936304791e-17,4.0,0.10941126342404989,2.0813585826943943e-13,-2.6118603207991695e-15,-2.198471331462538e-15,1.3509813838554584e-22,4.0,0.20061331550596206,6.521697099769571e-22,2.8407497220739294e-16,3.1521204218497766e-15,0.8330818287639306,0.0,0.0,0.0,3.5368424346955143,-5.355228855399031e-15,-2.3730961640637903e-16,2.718774304974801e-17,624.7586544889692,624.7586544889679,624.7586544889679,624.7586544889693
0.332,3.9870469236067275e-17,4.0,0.11284548729146189,1.9905321461471021e-13,-3.4162655397037226e-15,-2.1393635728205322e-15,1.3482004315324648e-22,4.0,0.20431729591605982,6.508272393170205e-22,2.92690221507234e-16,3.090147828311273e-15,0.8476927255876356,0.0,0.0,0.0,3.4714655552600178,-3.626726473015524e-15,-4.461210528858668e-17,2.1230543213370543e-17,623.2266475058603,623.2266475058594,623.2266475058594,623.2266475058605
0.336,4.086962513010231e-17,4.0,0.11633662859142589,1.8909541704508249e-13,-4.302120337481065e-15,-2.080391214264586e-15,1.345404315421812e-22,4.0,0.20804147313858343,6.494774485243878e-22,3.0242942004970324e-16,3.0081683924640883e-15,0.8620859827438861,0.0,0.0,0.0,3.4059057648004263,-1.9836881764556354e-15,1.3875608787907954e-16,1.8961553499841972e-17,621.6865631489578,621.6865631489574,621.6865631489574,621.6865631489579
0.34,4.1852091987359207e-17,4.0,0.11988375352658544,1.7842607994436044e-13,-5.251700103791589e-15,-2.021865175317366e-15,1.3425933181491317e-22,4.0,0.21178547074140378,6.4812047403311975e-22,3.1305466408789094e-16,2.907440242873156e-15,0.876254942512124,0.0,0.0,0.0,3.3403074915852042,-4.718625957002672e-16,3.126206664861611e-16,1.7061326909600285e-17,620.1417467199323,620.1417467199324,620.1417467199321,620.1417467199324
0.34400000000000003,4.281440537586285e-17,4.0,0.12348590840382599,1.6717633884917447e-13,-6.2642745272706536e-15,-1.9624032982590872e-15,1.3397677194842704e-22,4.0,0.21554891609604357,6.467564508986818e-22,3.243180324673255e-16,2.789676338671302e-15,0.8901907386469009,0.0,0.0,0.0,3.274736457246431,9.354885316137065e-16,4.935126590051674e-16,1.3564848853772416e-17,618.5937162956064,618.5937162956069,618.5937162956067,618.5937162956066
0.34800000000000003,4.3752773318061235e-17,4.0,0.1271421351096791,1.5546587333176193e-13,-7.3269189801639e-15,-1.904852071698833e-15,1.336927796365486e-22,4.0,0.21933144034544824,6.453855128096246e-22,3.360817744654751e-16,2.656642931317048e-15,0.9038882732987419,0.0,0.0,0.0,3.209227668245261,2.2427753471748278e-15,6.704601843779363e-16,1.3355091076194042e-17,617.0432772483682,617.0432772483691,617.0432772483689,617.0432772483684
0.35200000000000004,4.466318857760545e-17,4.0,0.1308514975989678,1.4341394894369212e-13,-8.422269308319809e-15,-1.848599158351694e-15,1.3340738229234577e-22,4.0,0.22313267837200762,6.440077920991751e-22,3.4814040271559386e-16,2.5100059654384847e-15,0.9173485180405241,0.0,0.0,0.0,3.143762570500366,3.442297343284967e-15,8.363970131931273e-16,1.2508483971477945e-17,615.4899705833767,615.489970583378,615.4899705833777,615.4899705833769
0.35600000000000004,4.554162837533577e-17,4.0,0.13461303633567956,1.3115597879369994e-13,-9.540348310815919e-15,-1.7911453248357974e-15,1.3312060705051085e-22,4.0,0.2269522687658269,6.426234197567353e-22,3.6024344437608886e-16,2.3515712599317926e-15,0.9305716112111784,0.0,0.0,0.0,3.0784144265195406,4.507042832989887e-15,9.966539490346869e-16,8.795689984608796e-18,613.9355194552548,613.9355194552566,613.9355194552562,613.9355194552552
0.36000000000000004,4.6384022331603956e-17,4.0,0.1384257444048108,1.1893885485851327e-13,-1.0671176453595664e-14,-1.7301036875572178e-15,1.3283248076972413e-22,4.0,0.23078985379324476,6.412325254392936e-22,3.7220902677302806e-16,2.1838081043016015e-15,0.9435511814685993,0.0,0.0,0.0,3.013305785760868,5.2975744610291414e-15,1.1509738877875705e-15,2.2453248688805724e-18,612.3828413585088,612.3828413585107,612.3828413585104,612.3828413585092
0.36400000000000005,4.7186385471630716e-17,4.0,0.14228860875942864,1.0694081253401423e-13,-1.1814747648728068e-14,-1.6673635180530237e-15,1.3254303003499914e-22,4.0,0.23464507936559706,6.398352374827454e-22,3.8389177353964697e-16,2.0099304553574114e-15,0.9562801156424021,0.0,0.0,0.0,2.9484770528585287,5.877181682053189e-15,1.3088523807873995e-15,-2.245399116002792e-18,610.8329170334587,610.8329170334608,610.8329170334603,610.8329170334591
0.36800000000000005,4.7944760610533094e-17,4.0,0.14620061465627088,9.532837300517597e-14,-1.297327371505409e-14,-1.603317204912445e-15,1.322522811600096e-22,4.0,0.23851759500822398,6.384316829131264e-22,3.9523346762633615e-16,1.8335068210799008e-15,0.9687557170956096,0.0,0.0,0.0,2.883959881732548,6.247355400470907e-15,1.4735209904072476e-15,-6.347498385856384e-18,609.2865271607478,609.2865271607501,609.2865271607495,609.2865271607483
0.37200000000000005,4.865521218969982e-17,4.0,0.15016075595349856,8.417430898660191e-14,-1.4152293537273432e-14,-1.5361111082000092e-15,1.3196026018939817e-22,4.0,0.24240705382971905,6.370219874577579e-22,4.063063721273965e-16,1.657319276970881e-15,0.9809785493157669,0.0,0.0,0.0,2.819765136378073,6.439629869426192e-15,1.6478038316901804e-15,-1.2556641472855056e-17,607.7439601080091,607.7439601080115,607.7439601080109,607.7439601080096
0.37600000000000006,4.931364508321559e-17,4.0,0.15416805045936563,7.36398459374158e-14,-1.5345151781120597e-14,-1.4701890720600496e-15,1.3166699290106726e-22,4.0,0.24631311249141832,6.356062755563054e-22,4.171190476518187e-16,1.4839481445969606e-15,0.992951796827024,0.0,0.0,0.0,2.755872311156803,6.4200783476070105e-15,1.8223395797538096e-15,-1.3709114658824516e-17,606.2047504403301,606.2047504403325,606.204750440332,606.2047504403307
0.38000000000000006,4.9916038853751643e-17,4.0,0.15822148851714457,6.378707212008058e-14,-1.655295097262092e-14,-1.4044292699502682e-15,1.3137250480845188e-22,4.0,0.25023543117712754,6.341846703717503e-22,4.276166502647097e-16,1.3156986504701864e-15,1.0046760117356612,0.0,0.0,0.0,2.6923645390467676,6.293009008820124e-15,2.003220153276571e-15,-1.6123933219188338e-17,604.670934143676,604.6709341436786,604.6709341436778,604.6709341436766
0.38400000000000006,5.0458171920324e-17,4.0,0.16232008395685302,5.4708613624621874e-14,-1.7757949299948322e-14,-1.3329021478760743e-15,1.3107682116277478e-22,4.0,0.25417367356308584,6.327572938012765e-22,4.377113140746975e-16,1.154945476990901e-15,1.0161511337952844,0.0,0.0,0.0,2.629222475214034,6.018040190973983e-15,2.17175370360741e-15,-2.546333754499585e-17,603.1420833772727,603.1420833772752,603.1420833772744,603.1420833772733
0.388,5.093575523908292e-17,4.0,0.16646281698463303,4.6425169969652965e-14,-1.8931679774487915e-14,-1.2587026484235059e-15,1.3077996695528396e-22,4.0,0.2581275067881643,6.313242664870715e-22,4.470831831564722e-16,1.0033446179550181e-15,1.027375509407613,0.0,0.0,0.0,2.5665419864945864,5.6722883158382815e-15,2.3128889800440237e-15,-3.142917779062801e-17,601.6205660325958,601.6205660325982,601.6205660325973,601.6205660325963
0.392,5.1344808873541925e-17,4.0,0.1706486792219895,3.9005707468597324e-14,-2.0062300506214603e-14,-1.1762152166636965e-15,1.3048196691947264e-22,4.0,0.2620966014242975,6.298857078270434e-22,4.553862514514372e-16,8.625193077374284e-16,1.038347397256903,0.0,0.0,0.0,2.504328656850504,5.197420176195628e-15,2.4398198442864437e-15,-4.406979070808979e-17,600.1065739492979,600.1065739493001,600.1065739492992,600.1065739492984
0.396,5.1680705192217884e-17,4.0,0.17487669111681794,3.2416984826273936e-14,-2.1057426468330608e-14,-1.097738153874233e-15,1.3018284553328195e-22,4.0,0.2660806314471459,6.284417359854539e-22,4.618963563770982e-16,7.335934511976278e-16,1.0490694108896084,0.0,0.0,0.0,2.4425524229888937,4.707467655029729e-15,2.468623264240317e-15,-4.2690130895593994e-17,598.5994298546876,598.5994298546898,598.5994298546889,598.5994298546882
0.4,5.193966276570647e-17,4.0,0.17914584254000632,2.6645699262882125e-14,-2.186301949791807e-14,-1.0326819230076065e-15,1.2988262702128635e-22,4.0,0.27007927420698796,6.26992467903468e-22,4.655330570714743e-16,6.171650630238424e-16,1.0595425572443917,0.0,0.0,0.0,2.3813029148911626,4.1808410547816056e-15,2.420882435733694e-15,-3.015836236760516e-17,597.1013805410126,597.1013805410146,597.1013805410137,597.1013805410132
0.404,5.211898789080078e-17,4.0,0.18345512798415697,2.1701684495258777e-14,-2.2466472961654978e-14,-9.719222589987237e-16,1.2958133535686192e-22,4.0,0.2740922103998405,6.2553801930962145e-22,4.653290557983919e-16,5.136125078261268e-16,1.0697648386331804,0.0,0.0,0.0,2.3205993526187716,3.590862135689145e-15,2.337709133676e-15,-2.773861750001108e-17,595.6129664853639,595.6129664853657,595.612966485365,595.6129664853646
0.40800000000000003,5.221646729484129e-17,4.0,0.1878035497637841,1.7504015699954392e-14,-2.282926298587026e-14,-9.212716151740174e-16,1.2927899426433773e-22,4.0,0.2781191240388044,6.240785047302058e-22,4.607404022970862e-16,4.2304395263757295e-16,1.079736233371831,0.0,0.0,0.0,2.2604543652948115,3.042262588641678e-15,2.194067408403468e-15,-1.835681899852037e-17,594.1345709187761,594.1345709187779,594.134570918777,594.1345709187767
0.41200000000000003,5.2231089177767155e-17,4.0,0.19219012672622918,1.4080354777580568e-14,-2.294908048947778e-14,-8.874293659629528e-16,1.2897562722113032e-22,4.0,0.2821597024256353,6.226140374995729e-22,4.51476653122488e-16,3.4545343487364095e-16,1.0894595660769835,0.0,0.0,0.0,2.2008627045185687,2.4132549617441283e-15,2.020692329673415e-15,-7.375189853358917e-19,592.6661393250937,592.6661393250952,592.6661393250944,592.6661393250944
0.41600000000000004,5.216275443873501e-17,4.0,0.19661390778514234,1.1413246645178543e-14,-2.282919321513221e-14,-8.685544527335366e-16,1.2867125745986144e-22,4.0,0.286213636122537,6.211447297703576e-22,4.3741052982088824e-16,2.8097089681004765e-16,1.0989398890674489,0.0,0.0,0.0,2.141791178691096,1.7540918725246629e-15,1.8261665700537377e-15,1.5418977546281085e-17,591.2069250226302,591.2069250226314,591.2069250226309,591.2069250226309
0.42000000000000004,5.201252119312633e-17,4.0,0.20107391900990743,9.439423841864927e-15,-2.2502804408406448e-14,-1.7968171531729486e-06,1.2836590797045924e-22,4.0,0.2902806189241754,6.196706925236212e-22,4.188400949220941e-16,2.2973740855671457e-16,1.1081791823321752,0.0,0.0,0.0,2.08331307033222,1.118935365333777e-15,1.6419105471894643e-15,2.098966564348485e-06,589.755560622392,589.7555606223927,589.7620661158214,589.7620661158215
0.42400000000000004,5.178180411157346e-17,4.0,0.20556920385024144,8.115937634036532e-15,-2.1965048808886848e-14,-4.9382233652144835e-06,1.2805960150224293e-22,4.0,0.2943603478299129,6.181920355789147e-22,3.961411525823422e-16,1.9130010652404865e-16,1.1171775918759037,0.0,0.0,0.0,2.0254208030829086,4.879009786608646e-16,1.4339616383344263e-15,3.743567741648601e-06,588.3158825036267,588.3158825036273,588.3275135822656,588.327513582266
0.42800000000000005,5.1472862540982314e-17,4.0,0.21009879796434236,7.404935540871445e-15,-2.1224710165346026e-14,-8.733290668394575e-06,1.2775236056599113e-22,4.0,0.29845252301625963,6.167088676042639e-22,3.6961623933559577e-16,1.651157377310785e-16,1.1259353957783407,0.0,0.0,0.0,1.9681573820776501,-1.4247943127674022e-16,1.2117822095539559e-15,4.636488260448491e-06,586.8895111391257,586.8895111391262,586.9039514530785,586.9039514530789
0.43200000000000005,5.108812637918956e-17,4.0,0.2146617456778412,7.22831803631084e-15,-2.0239622794504718e-14,-1.2995626188986694e-05,1.2744420743599398e-22,4.0,0.3025568478095416,6.152212961260752e-22,3.391417709497497e-16,1.505024602520098e-16,1.1344533016915959,0.0,0.0,0.0,1.9115327055893014,-7.230472380441955e-16,9.23464973339402e-16,5.33877880199758e-06,585.4759151807849,585.475915180785,585.4925828883888,585.4925828883894
0.43600000000000005,5.063117864591667e-17,4.0,0.21925710948047644,7.52159219230973e-15,-1.9006380757979807e-14,-1.757291928271204e-05,1.2713516415208908e-22,4.0,0.3066730286587831,6.137294275389641e-22,3.0446686203922153e-16,1.4650660332945158e-16,1.1427337251625231,0.0,0.0,0.0,1.8555371699415537,-1.2647237469145763e-15,5.995956683876906e-16,5.882631529983527e-06,584.0748965856016,584.0748965856016,584.0933062309892,584.0933062309898
0.44000000000000006,5.0106419516630965e-17,4.0,0.2238839933170074,8.223947795947369e-15,-1.752233325513162e-14,-2.2336530116078226e-05,1.2682525252168158e-22,4.0,0.31080077510880194,6.12233367115507e-22,2.653921325758987e-16,1.5205159045489433e-16,1.1507831346133228,0.0,0.0,0.0,1.8001133706434183,-1.7677272505040556e-15,2.435595389563284e-16,6.2894653174690944e-06,582.6850719344603,582.6850719344601,582.7048016872626,582.7048016872633
0.44400000000000006,4.9518927322687226e-17,4.0,0.22854152564968813,9.232093511685676e-15,-1.577373747463251e-14,-2.7174900642040365e-05,1.265144941217482e-22,4.0,0.31493979977351666,6.107332190159153e-22,2.2193737780179466e-16,1.658343471769185e-16,1.1586094392801198,0.0,0.0,0.0,1.74523700360595,-2.1785784118151724e-15,-1.5707375657383344e-16,6.573965034075891e-06,581.3058870783473,581.3058870783468,581.3265582031318,581.3265582031324
0.44800000000000006,4.887474603313007e-17,4.0,0.23322876622888566,1.0533565122569316e-14,-1.3757201182613689e-14,-3.199141542463476e-05,1.2620291030082563e-22,4.0,0.3190898183094629,6.09229086297634e-22,1.7402668940289377e-16,1.8662366715272915e-16,1.1662100625865868,0.0,0.0,0.0,1.691072240145075,-2.5964891749140286e-15,-5.953300724858073e-16,6.749010299229372e-06,579.9415369649673,579.9415369649665,579.9628084138704,579.962808413871
0.452,4.8181368188064026e-17,4.0,0.23794477095910838,1.2142913028663297e-14,-1.1529580123954343e-14,-3.670988079190895e-05,1.258905221809833e-22,4.0,0.32325054938951864,6.077210709248655e-22,1.220371911404712e-16,2.1377876586056646e-16,1.1735785116332362,0.0,0.0,0.0,1.637653841629973,-3.0523578306552146e-15,-1.0077959201749815e-15,6.834488096060884e-06,578.5929736207457,578.5929736207447,578.6145646772884,578.6145646772891
0.456,4.744675664165711e-17,4.0,0.24268864422550804,1.407682915781177e-14,-9.12779789556954e-15,-4.126765197514003e-05,1.2557735065978058e-22,4.0,0.32742171467683573,6.062092737780168e-22,6.677613100054048e-17,2.475449191203193e-16,1.1807150690288843,0.0,0.0,0.0,1.584910540437955,-3.549895039477597e-15,-1.4039256097744693e-15,6.8430900835290325e-06,577.2584823424402,577.2584823424388,577.2801505478922,577.280150547893
0.46,4.6679492675942495e-17,4.0,0.2474595213598343,1.632177605680222e-14,-6.597597913424253e-15,-4.5613858719027484e-05,1.2526341641220853e-22,4.0,0.3316030387989767,6.046937946630743e-22,9.300329782022767e-18,2.882104948080821e-16,1.1876291552220255,0.0,0.0,0.0,1.5328051543949373,-4.055168998785641e-15,-1.7732597865411628e-15,6.785987140850691e-06,575.9371992140522,575.9371992140505,575.9587359034159,575.9587359034166
0.464,4.5888675110128196e-17,4.0,0.2522565177300508,1.883166696748674e-14,-3.997733975752591e-15,-4.970829272752968e-05,1.2494873989261649e-22,4.0,0.33579424932225516,6.031747323209033e-22,-4.9349654944626504e-17,3.356497943199214e-16,1.194324054567053,0.0,0.0,0.0,1.4814028830374402,-4.529462248003516e-15,-2.0970432932149794e-15,6.673530456048748e-06,574.6308579819411,574.6308579819394,574.6520859215112,574.652085921512
0.468,4.508332251993068e-17,4.0,0.257078765711403,2.157629726953402e-14,-1.3600258018832994e-15,-5.3519773526256584e-05,1.2463334133662342e-22,4.0,0.3399950767262787,6.016521844364747e-22,-1.0806317299095733e-16,3.892466331112369e-16,1.200800297409868,0.0,0.0,0.0,1.4306945733945289,-4.988354317951154e-15,-2.39637082744239e-15,6.514597293303228e-06,573.33931319428,573.3393131942778,573.3600822689791,573.3600822689799
0.47200000000000003,4.427253963104515e-17,4.0,0.2619254285392579,2.4513613987338313e-14,1.279706682557331e-15,-5.70256447032034e-05,1.2431724076301416e-22,4.0,0.3442052543786918,6.001262476480197e-22,-1.6595177393325726e-16,4.483128748062713e-16,1.2070618915947517,0.0,0.0,0.0,1.3806424597677882,-5.4161079157537455e-15,-2.6664430559061233e-15,6.317844980912171e-06,572.0616859197793,572.0616859197769,572.0818727254832,572.081872725484
0.47600000000000003,4.3465008037800603e-17,4.0,0.26679565120720367,2.758122257431154e-14,3.922943823820058e-15,-6.021026153307285e-05,1.2400045797562073e-22,4.0,0.34842451851011835,5.985970175561107e-22,-2.224879035316613e-16,5.120009844051879e-16,1.2131114466260142,0.0,0.0,0.0,1.3313074892899204,-5.7862283682500025e-15,-2.9426570532716362e-15,6.0905125969459926e-06,570.7996193224461,570.7996193224436,570.8191227936354,570.8191227936362
0.48000000000000004,4.2669501766880816e-17,4.0,0.27168858892403847,3.071895132414328e-14,6.5530130048399604e-15,-6.30638403653839e-05,1.2368301256518891e-22,4.0,0.3526526081893014,5.970645887326726e-22,-2.7737131750098516e-16,5.791189487341136e-16,1.2189490061616126,0.0,0.0,0.0,1.282693479866137,-6.097135631824779e-15,-3.2097215466463694e-15,5.8387819530516935e-06,569.5533049429584,569.5533049429557,569.5720432304731,569.572043230474
0.48400000000000004,4.1894981504354373e-17,4.0,0.27660340938668626,3.392717219400693e-14,9.124766288970802e-15,-6.558168741794794e-05,1.2336492391122994e-22,4.0,0.3568892652984394,5.955290547299214e-22,-3.302036748212951e-16,6.486407407444558e-16,1.2245761387024767,0.0,0.0,0.0,1.2347993535911823,-6.415462772820058e-15,-3.43455884683608e-15,5.568173961270701e-06,568.3228098019996,568.3228098019968,568.3407183356512,568.3407183356521
0.48800000000000004,4.115049885641559e-17,4.0,0.28153929256010024,3.716414862933783e-14,1.1560211724598794e-14,-6.776343070596882e-05,1.2304621118385764e-22,4.0,0.361134234508717,5.939905080892329e-22,-3.799950586669499e-16,7.200162223041558e-16,1.2299959555720053,0.0,0.0,0.0,1.1876241234719833,-6.692112966013223e-15,-3.574879918030561e-15,5.283520984061683e-06,567.1082036355848,567.1082036355817,567.1252330670078,567.1252330670087
0.49200000000000005,4.044461269540815e-17,4.0,0.28649541725508104,4.0418781299106373e-14,1.3785378331596657e-14,-6.96138524778847e-05,1.227268933456112e-22,4.0,0.365387263256029,5.924490403499414e-22,-4.253012400968484e-16,7.927077721289238e-16,1.2352101894628487,0.0,0.0,0.0,1.1411936938662954,-6.9600283204276746e-15,-3.623381594927009e-15,4.9908052415183354e-06,565.9102484214505,565.9102484214474,565.9263684586574,565.9263684586585
0.49600000000000005,3.978488256402127e-17,4.0,0.2914709692512216,4.363674801947894e-14,1.5755454898205447e-14,-7.113824640205941e-05,1.2240698915326329e-22,4.0,0.369648101716896,5.909047420580689e-22,-4.647088298326715e-16,8.660586316596765e-16,1.240220032798062,0.0,0.0,0.0,1.0955175618045638,-7.16798943837208e-15,-3.602746582830245e-15,4.690797396889269e-06,564.7292947798746,564.7292947798715,564.7444775033513,564.7444775033524
0.5,3.917805983144501e-17,4.0,0.29646517018585095,4.6750025439382446e-14,1.742227331119129e-14,-7.234530955852469e-05,1.2208651715961403e-22,4.0,0.3739165027845708,5.893577027749847e-22,-4.971899268970394e-16,9.391501494299562e-16,1.245029274448639,0.0,0.0,0.0,1.0505464127098594,-7.29625674554126e-15,-3.5073448481053125e-15,4.387667787203776e-06,563.5641633071639,563.5641633071607,563.5783942622197,563.578394262221
0.504,3.862976335322553e-17,4.0,0.3014772589026049,4.9727530616832893e-14,1.875206639018214e-14,-7.324464722177406e-05,1.2176549571527082e-22,4.0,0.37819222204533326,5.878080110859977e-22,-5.21891734701791e-16,1.0106700034608163e-15,1.2496445153739821,0.0,0.0,0.0,1.0062676829175214,-7.383242069338385e-15,-3.346158390867741e-15,4.082812303432024e-06,562.4146234246117,562.4146234246085,562.4278926890476,562.4278926890489
0.508,1.650890679762921e-11,4.0000000000165095,0.3065065062768556,1.6078822576537409e-06,-1.607874073953761e-06,-7.455101686306436e-05,1.2144394297041396e-22,4.0,0.38247501775497295,5.862557546088794e-22,6.3799346768948575e-09,6.380017586721356e-09,1.254071943793711,0.0,0.0,0.0,0.96263821198796,-1.6851923748751507e-06,1.6851897886820428e-06,4.600333157189945e-06,561.2783046229172,561.2783046221232,561.2927687117536,561.29380347045
0.512,1.046682245483093e-10,4.000000000104671,0.31155217987405237,1.0545891125981108e-05,-1.0545633327933433e-05,-7.608229186812848e-05,1.2112187687654845e-22,4.0,0.38676465081545774,5.847010200023206e-22,7.367205246269507e-08,7.3673514881146e-08,1.258315614890932,0.0,0.0,0.0,0.9196855845336906,-9.699355856499617e-06,9.699082580791712e-06,4.9219065704684534e-06,560.1576689531777,560.1576688691077,560.1707459007921,560.1767134198899
0.516,2.3321957749457186e-10,4.00000000023323,0.3166135374002156,2.591038411793632e-05,-2.5909283162798326e-05,-7.758427358241237e-05,1.2079931518824178e-22,4.0,0.3910608847517874,5.831438929743205e-22,2.605741306939476e-07,2.6058286636262946e-07,1.262375443858722,0.0,0.0,0.0,0.8774508223657183,-1.8125653599967487e-05,1.812472146628519e-05,4.955877999969622e-06,559.0540335281195,559.0540332407941,559.0646500525119,559.0758237244592
0.52,3.457652929384493e-10,4.000000000345789,0.321689847263289,4.6389364154252426e-05,-4.6386623449633315e-05,-7.900363271836903e-05,1.20476275464848e-22,4.0,0.39536348568903,5.815844582905093e-22,5.833315354067464e-07,5.833595448294392e-07,1.2662510873834572,0.0,0.0,0.0,0.8359335710336013,-2.5788288580090977e-05,2.5786363858841264e-05,4.9264543699845624e-06,557.967122679716,557.9671220852748,557.9752969652071,557.9912251000575
0.524,3.703448564894222e-10,4.000000000370385,0.32678039001769926,7.076909838956906e-05,-7.076385652624438e-05,-8.029940056552626e-05,1.2015277507221823e-22,4.0,0.3996722223295409,5.800227997824053e-22,1.0103173778634304e-06,1.0103809691874857e-06,1.269944585130973,0.0,0.0,0.0,0.7951302418111286,-3.262601574225958e-05,3.262294796842084e-05,4.845879148810358e-06,556.8969199835178,556.8969190342293,556.9027296787038,556.9229196724383
0.528,2.2338387846905037e-10,4.000000000223434,0.3318844581999924,9.79232587203895e-05,-9.79147108987376e-05,-8.143961215606029e-05,1.198288311843974e-22,4.0,0.4039868659303618,5.784590003556064e-22,1.5114323336908072e-06,1.5115489125837798e-06,1.2734589653569417,0.0,0.0,0.0,0.755037230583447,-3.862878247000979e-05,3.86245033676939e-05,4.722979196233365e-06,555.8434126094891,555.8434112828587,555.8469681691868,555.8709179833435
0.532,-1.8661639672055154e-10,3.999999999813427,0.3370013561870546,0.0001268108156899914,-0.00012679831700900402,-8.240005325795138e-05,1.195044607853078e-22,4.0,0.40830719028079937,5.768931419979163e-22,2.0591824550446044e-06,2.0593677893762415e-06,1.2767972153796745,0.0,0.0,0.0,0.7156508768567198,-4.3789128891343416e-05,4.378373524130551e-05,4.565485152979059e-06,554.806586429222,554.8065847539284,554.808026928997,554.8352267444251
0.536,-9.556785380399156e-10,3.999999999044329,0.342130405680429,0.00015647923071182993,-0.00015646237958926774,-8.31625709313705e-05,1.19179680670419e-22,4.0,0.4126329716801816,5.753253057874065e-22,2.6285895083245713e-06,2.628855467883688e-06,1.2799628489219104,0.0,0.0,0.0,0.6769560496334688,-4.8108929208109214e-05,4.810262181491238e-05,4.379470702162447e-06,553.7861255742434,553.7861236115269,553.7856105274973,553.8155485833764
0.54,-2.1812597233249534e-09,3.9999999978186658,0.3472709543467754,0.00018607049501080533,-0.00018604919489526985,-8.371547446830143e-05,1.188545074484047e-22,4.0,0.41696398891579073,5.737555719004146e-22,3.1972556711839536e-06,3.197608420275283e-06,1.2829607853109934,0.0,0.0,0.0,0.638919566726381,-5.160340506026155e-05,5.1596459236436854e-05,4.171725516625785e-06,552.7812316975592,552.7812295322484,552.7789393794482,552.8111103960695
0.544,-3.959752723996532e-09,3.9999999960400285,0.3524223382971511,0.0002147905154936063,-0.00021476502355733946,-8.405199487095007e-05,1.1852895754278646e-22,4.0,0.4213000232409716,5.721840196194781e-22,3.7451905008146085e-06,3.745629145971338e-06,1.285793610763633,0.0,0.0,0.0,0.6015836037421372,-5.426219846042079e-05,5.425500404918889e-05,3.947504240258983e-06,551.7930987661546,551.793096519332,551.7892292280442,551.8231184672138
0.548,-6.383903134084144e-09,3.999999993615655,0.35758390917686844,0.00024192821997507383,-0.00024189917347142167,-8.416842152871777e-05,1.182030471935641e-22,4.0,0.42564085835341364,5.706107273412066e-22,4.254642482569891e-06,4.255158329914445e-06,1.288462489294641,0.0,0.0,0.0,0.5649357616699953,-5.6098068015101584e-05,5.6091065215164786e-05,3.710086489704347e-06,550.8214823854877,550.8214801946478,550.8162437905869,550.8513415992188
0.552,-9.540635051213263e-09,3.9999999904586065,0.36275504941769005,0.0002668616039295736,-0.0002668300272107084,-8.40646696336643e-05,1.1787679245883344e-22,4.0,0.42998628037360564,5.6903577258409e-22,4.710107915485975e-06,4.710683872212348e-06,1.2909716361492376,0.0,0.0,0.0,0.5289322276349029,-5.713855069725857e-05,5.7132244155597833e-05,3.4635400407605974e-06,549.8652982446599,549.865296268215,549.8589048643314,549.894716126498
0.5559999999999999,-1.3509224893707172e-08,3.9999999864895948,0.36793514986707343,0.0002890449442398873,-0.0002890122405544372,-8.374383453739671e-05,1.1755020921639103e-22,4.0,0.4343360778234618,5.674592319962459e-22,5.098407436983428e-06,5.099018227442844e-06,1.2933261097254074,0.0,0.0,0.0,0.49357364462260045,-5.7404107839867984e-05,5.739902042820169e-05,3.2115609688074475e-06,548.9246379601785,548.9246363630718,548.9173111698049,548.9533509657014
0.5599999999999999,-1.8359665044694044e-08,3.99999998163862,0.373123603546842,0.0003080076032672005,-0.0003079755297705206,-8.32124705032924e-05,1.1722331316532613e-22,4.0,0.4386900416051181,5.658811813631039e-22,5.4085479092906916e-06,5.4091604458086e-06,1.2955282638583283,0.0,0.0,0.0,0.4588730893308903,-5.691918797115144e-05,5.6915874239477035e-05,2.9583017795811416e-06,547.9999234696571,547.999922427612,547.9918920341468,548.0276882828376
0.564,-2.4151229346027344e-08,3.9999999758464067,0.3783197933885056,0.0003233537345280489,-0.0003233243597044629,-8.247887182186286e-05,1.1689611982760006e-22,4.0,0.44304796497989674,5.643016956150307e-22,5.631581905853604e-06,5.6321560601839115e-06,1.2975776419775893,0.0,0.0,0.0,0.42486849528667503,-5.5713578285793004e-05,5.5712576516085716e-05,2.7060495413776086e-06,547.0922456741636,547.0922453586217,547.0837378566807,547.1188347917692
0.568,-3.0931468616970234e-08,3.9999999690654082,0.3835231185242257,0.0003347639788342218,-0.00033473963177617914,-8.155155222814645e-05,1.165686445496129e-22,4.0,0.4474096435474388,5.627208488348921e-22,5.760579891870337e-06,5.761069713622375e-06,1.2994747195462266,0.0,0.0,0.0,0.39154479423412236,-5.382752850538429e-05,5.382935576541841e-05,2.455387071722251e-06,546.2012851456227,546.2012857221202,546.1925196389195,546.2264846953227
0.572,-3.873542191998296e-08,3.9999999612605963,0.38873300321701304,0.0003419924481625301,-0.00034197566056378364,-8.044148087662888e-05,1.1624090250375782e-22,4.0,0.4517748752250026,5.611387142655572e-22,5.7905816491290335e-06,5.790936472625671e-06,1.3012233603129695,0.0,0.0,0.0,0.3588683115969198,-5.130427621590153e-05,5.130940616161548e-05,2.2095187658912108e-06,545.3262155136695,545.326217134756,545.3174091706227,545.3498351261628
0.576,-4.758478610586835e-08,3.9999999524102954,0.3939488688867825,0.0003448692365537306,-0.00034486266556762947,-7.915961256289818e-05,1.1591290868996285e-22,4.0,0.45614346022692753,5.595553643173406e-22,5.718566039180893e-06,5.718732393147905e-06,1.3028269295682133,0.0,0.0,0.0,0.32686137894362655,-4.819344706255651e-05,4.820233587422846e-05,1.9688655207234205e-06,544.4677124347761,544.4677152481106,544.4590688743411,544.4895780459493
0.58,-5.748776828256741e-08,3.9999999425063253,0.3991701622009467,0.0003432906949775876,-0.0003432970427674943,-7.876304605879944e-05,1.155846779372206e-22,4.0,0.46051520104426125,5.579708705753873e-22,5.543333609704592e-06,5.543256786647493e-06,1.3042884618369435,0.0,0.0,0.0,0.2954894415522822,-4.454554284163334e-05,4.455851435887951e-05,2.9559267725417683e-06,543.6228696994991,543.622873811402,543.6186880357824,543.6469330373772
0.584,-6.843860494366987e-08,3.9999999315544854,0.4043963289217062,0.00033723057587891936,-0.0003372525202595753,-7.895387230215652e-05,1.152562249051055e-22,4.0,0.46488990242454936,5.563853038069967e-22,5.265470745370172e-06,5.265096543780875e-06,1.305610617500633,0.0,0.0,0.0,0.2647702501870508,-4.0424215193940085e-05,4.0441559508086713e-05,3.631308787031049e-06,542.7948212836768,542.7948267901209,542.7942160683442,542.8198886210753
0.588,-8.041770860062877e-08,3.999999919574409,0.4096268165195875,0.00032672851105165334,-0.0003267686081372976,-7.934570883610183e-05,1.1492756408527918e-22,4.0,0.4692673713517867,5.547987339688897e-22,4.887273646356325e-06,4.8865503759577215e-06,1.3067944931457909,0.0,0.0,0.0,0.2347163129305796,-3.5891637563411054e-05,3.591355055450993e-05,3.879468551903929e-06,541.9841764756767,541.9841834429819,541.9858484395963,542.0086785764632
0.592,-9.33919865491476e-08,3.9999999065992418,0.4148610842667625,0.000311885708625044,-0.0003119463043140449,-7.98529969276427e-05,1.1459870980298373e-22,4.0,0.4736474170265285,5.532112302144171e-22,4.412637910009e-06,4.411518581707161e-06,1.307841309178491,0.0,0.0,0.0,0.20531963121781893,-3.101142171135314e-05,3.103797136709802e-05,4.0359636719778445e-06,541.1902307129424,541.190239166874,541.1939876427334,541.2137448898579
0.596,-1.0731527307890166e-07,3.99999989267521,0.42009860363677803,0.0002928609870812669,-0.00029294413491646126,-8.040743369420549e-05,1.142696762185229e-22,4.0,0.4780298508461605,5.516228609007105e-22,3.846864929249287e-06,3.845308964254889e-06,1.3087536934534492,0.0,0.0,0.0,0.17657105102550186,-2.5848163668843453e-05,2.5879312586476208e-05,4.1174464523448755e-06,540.4127817635256,540.4127916962213,540.4184661356717,540.4349604500009
0.6,-1.2212892263731834e-07,3.999999877861027,0.425338857962899,0.0002698664516768495,-0.00026997383492240726,-8.095304386382006e-05,1.1394047732873175e-22,4.0,0.48241448638532647,5.500336935957759e-22,3.1965278031131555e-06,3.1945028991381283e-06,1.3095346768464657,0.0,0.0,0.0,0.1484617544365341,-2.0467467360733727e-05,2.0503073961026892e-05,4.1355160469970345e-06,539.6516423695626,539.6516537397282,539.6591141460597,539.6721968256878
0.604,-1.377625534813034e-07,3.999999862227146,0.43058134213378574,0.00024316285767385324,-0.00024329571751516507,-8.144452960704104e-05,1.1361112696843425e-22,4.0,0.48680113937651254,5.484437950855311e-22,2.4693324815765273e-06,2.466816178359339e-06,1.3101872063897406,0.0,0.0,0.0,0.12098319441595295,-1.4935368676932762e-05,1.4975162225707787e-05,4.1003462562193845e-06,538.9066324942961,538.9066452190362,538.9157642774227,538.9253284887791
0.608,-1.5413492604199372e-07,3.999999845854884,0.43582556231933467,0.0002130547012488484,-0.00021321377268848158,-8.184584221606418e-05,1.1328163881188946e-22,4.0,0.49118962769078683,5.468532313807862e-22,1.6739734395221339e-06,1.6709545342239045e-06,1.3107141547189118,0.0,0.0,0.0,0.09412704295445562,-9.317628577446091e-06,9.361243882179169e-06,4.0208776634094226e-06,538.1775776826224,538.1775916483349,538.1882507101202,538.1942315725889
0.612,-1.7115500245269597e-07,3.9999998288353584,0.4410710395385698,0.00017988026691264928,-0.0001800657272762829,-8.212861519263357e-05,1.1295202637422597e-22,4.0,0.49557977131869296,5.452620677241685e-22,8.199655113487009e-07,8.164452105545394e-07,1.3111187090362033,0.0,0.0,0.0,0.06787740196452519,-3.674276775383949e-06,3.7212229075471573e-06,3.904597732888025e-06,537.4640976251363,537.4641126773419,537.4761987409514,537.4785698804902
0.616,-1.8872318910077896e-07,3.9999998112682413,0.4463173191213382,0.00014399396620084665,-0.00014420540272728675,-8.227129235429644e-05,1.1262230301286497e-22,4.0,0.49997139235129673,5.436703685969921e-22,-8.265737135685365e-08,-8.666478102133328e-08,1.3114053461404889,0.0,0.0,0.0,0.0421987276207747,1.949913696360621e-06,-1.9002214031299728e-06,3.758288895099216e-06,536.7652746277547,536.7652905811972,536.7786988464974,536.7774628108948
0.62,-2.067321421675928e-07,3.999999793260957,0.4515639508687674,0.00010578547184710154,-0.00010602184356377562,-8.225883276236191e-05,1.1229248192893185e-22,4.0,0.5043643149613846,5.420781977260724e-22,-1.0234887418363694e-06,-1.02795516815785e-06,1.3115778745617424,0.0,0.0,0.0,0.01709499569366324,7.490725259870949e-06,-7.438945257458352e-06,3.5886670382599223e-06,536.0812630168116,536.0812796617128,536.0959070867879,536.0911079905359
0.624,-2.250678194972251e-07,3.9999997749276233,0.45681047885302695,6.568783362639121e-05,-6.594743815196257e-05,-8.208117790111753e-05,1.119625761686565e-22,4.0,0.5087583653848128,5.404856180904855e-22,-1.9916187216760523e-06,-1.9965020051015337e-06,1.311637206901462,0.0,0.0,0.0,-0.00740922942559008,1.286832386026948e-05,-1.2815248684787347e-05,3.4009239603463306e-06,535.4127815806488,535.4127986631903,535.4285337626367,535.4202675407499
0.628,-2.436111153344525e-07,3.999999756387417,0.46205646167293973,2.414549363547857e-05,-2.442595971789222e-05,-8.173115545363803e-05,1.1163259862476235e-22,4.0,0.513153371902006,5.388926919282745e-22,-2.975645444018062e-06,-2.9808892332051543e-06,1.3115842014214165,0.0,0.0,0.0,-0.03133028046313879,1.8029445546709068e-05,-1.797594989112595e-05,3.198006630107538e-06,534.759436939551,534.7594541784624,534.7761779009224,534.7645754423103
