Time_s,X,Y,Z,Roll_deg,Pitch_deg,Yaw_deg,Ref_X,Ref_Y,Ref_Z,Ref_Yaw,vx,vy,vz,p,q,r,T_pert,tau_x,tau_y,tau_z,RPM_0,RPM_1,RPM_2,RPM_3
0.0040000000000000036,-4.903789747516863e-22,2.651163644740157e-22,0.010006999594037988,-8.680907141263378e-19,-3.744612224569047e-18,2.8365274483488005e-20,6.141816469000308e-23,-7.986379719853663e-24,7.200000000000012e-05,0.0,-7.64036616901526e-20,5.827214431454023e-20,2.0013999188075973,0.0,0.0,0.0,-10.19,4.196147885932708e-18,1.080276465990221e-17,-3.3135125993209526e-20,0.0,0.0,0.0,0.0
0.008000000000000007,-7.456470377694886e-22,4.1756449329376946e-22,0.010010999365392528,-1.7001074274649245e-18,-4.808931803579917e-18,5.3847477210265266e-20,6.141816469000308e-23,-7.986379719853663e-24,0.00021513340800000038,0.0,-7.0772698143663e-20,4.9301039923361854e-20,1.1123332628213918,0.0,0.0,0.0,-0.034338475932384316,-1.4345775552712699e-19,-1.4872217500709155e-18,-3.0933992000096876e-20,534.6826504237879,534.682650423788,534.6826504237879,534.682650423788
0.01200000000000001,-9.74328951904226e-22,5.625721445207458e-22,0.010014999138470879,-2.4093953539780604e-18,-6.5421879058307034e-18,4.0726440783564064e-20,6.141816469000308e-23,-7.986379719853663e-24,0.00042854147030131276,0.0,-6.933076565403888e-20,3.246270143370826e-20,0.0009999430110161148,0.0,0.0,0.0,0.11268126575300996,9.932022871358514e-19,2.2743053262566912e-18,1.3110555147617195e-20,538.6882898259847,538.6882898259848,538.6882898259847,538.6882898259848
0.016000000000000014,-1.3534498571388656e-21,6.351610691832977e-22,0.010018998923061895,-2.3532552703544613e-18,-9.181483618044508e-18,5.085395826195301e-20,6.141816469000308e-23,-7.986379719853663e-24,0.0007113732083620786,0.0,-6.644703699292089e-20,3.5573244320455857e-20,0.00099994433466373,0.0,0.0,0.0,0.2602149979001457,-6.112677265433648e-19,5.500221951492405e-18,-1.3511483367035689e-20,542.678212188774,542.6782121887741,542.678212188774,542.678212188774
0.020000000000000018,-1.737026827233527e-21,5.673302278785343e-22,0.01002299872680076,-1.6056845262361439e-18,-1.1579213232532867e-17,8.369741926984284e-21,6.141816469000308e-23,-7.986379719853663e-24,0.0010627853561306145,0.0,-7.660118646839824e-20,1.686772010023996e-20,0.0009999475597996868,0.0,0.0,0.0,0.40825152700364814,-2.2719956826926366e-18,3.835153846122682e-18,4.752792247867618e-20,546.6524622469383,546.6524622469383,546.6524622469383,546.6524622469383
0.02400000000000002,-1.7539704779112256e-21,3.1544976465534227e-22,0.010026998553003454,-1.8517958581666826e-19,-1.2237225892694514e-17,-2.493122898740038e-19,6.141816469000308e-23,-7.986379719853663e-24,0.0014819422978531074,0.0,-5.020476928014503e-20,-3.543938386314787e-20,0.0009999524283273165,0.0,0.0,0.0,0.5567797802906806,-3.7336604768407244e-18,-2.3382183301735947e-18,3.006569544576006e-19,550.6110853091182,550.6110853091183,550.6110853091182,550.6110853091182
0.027999999999999997,-1.9736226877847872e-21,3.428966000850109e-22,0.010030998402357539,-6.0687235228244425e-19,-1.312158510993124e-17,-1.541525456724012e-19,6.141816469000308e-23,-7.986379719853663e-24,0.001968016006352204,0.0,-4.6945258901720246e-20,-2.747267447383219e-20,0.0009999580108287914,0.0,0.0,0.0,0.7057887969672496,3.563500848574426e-18,4.310803592160026e-18,-1.0091937601103501e-19,554.5541270192199,554.55412701922,554.5541270192199,554.5541270192199
0.032,-2.111579543362706e-21,2.7258597856932724e-22,0.010034998274134899,-4.3150043708829704e-19,-1.421249423670829e-17,-1.0922909517786194e-19,6.141816469000308e-23,-7.986379719853663e-24,0.002520185981773086,0.0,-3.6680770429575854e-20,-2.0563638706460047e-20,0.0009999637137162593,0.0,0.0,0.0,0.8552677281460006,-1.2665654566890262e-18,1.4794860032362144e-18,-4.6132244543316244e-20,558.4816333553961,558.4816333553962,558.4816333553961,558.4816333553961
0.036000000000000004,-2.2081409778960043e-21,2.5030249913234846e-22,0.010038998166883353,-3.3369861019768157e-19,-1.4763905020592734e-17,4.0917822943392623e-20,6.141816469000308e-23,-7.986379719853663e-24,0.003137639190793574,0.0,-3.733628372992459e-20,-7.516606074841477e-21,0.0009999692063868137,0.0,0.0,0.0,1.0052058368844594,4.2897959246995516e-19,1.3385466785369359e-18,-1.7088696951198207e-19,562.3936506320417,562.3936506320418,562.3936506320417,562.3936506320417
0.04000000000000001,-2.2375700383738437e-21,1.7693494473595843e-22,0.010042998078851941,2.2300385084219305e-19,-1.4793149000989686e-17,-9.610038053996736e-20,6.141816469000308e-23,-7.986379719853663e-24,0.0038195700062949476,0.0,-2.6911139685778917e-20,-1.1782359119794549e-20,0.0009999743340123948,0.0,0.0,0.0,1.1555924977304601,-1.228813835689357e-18,4.445375489292331e-19,1.5839892967058746e-19,566.2902254890839,566.290225489084,566.2902254890839,566.2902254890839
0.04400000000000001,-2.287789940740104e-21,1.89861761210955e-22,0.010046998008042185,1.7889582867096426e-19,-1.5107657283294526e-17,-4.245619984264037e-19,6.141816469000308e-23,-7.986379719853663e-24,0.004565180147490079,0.0,-1.1389676486512539e-20,-1.4049417530859023e-20,0.0009999790051411564,0.0,0.0,0.0,1.3064171965022364,9.918668372576295e-19,1.7597273847713807e-18,3.8766822803779073e-19,570.1714048878246,570.1714048878247,570.1714048878246,570.1714048878246
0.048000000000000015,-2.391467709108075e-21,2.1539740099279077e-22,0.010050997952496891,1.5333058897870662e-19,-1.5823192476315097e-17,-4.397286535389882e-19,6.141816469000308e-23,-7.986379719853663e-24,0.005373678620505558,0.0,-1.3678687919057832e-20,-3.026973049596036e-21,0.0009999831922404348,0.0,0.0,0.0,1.4576695288468429,1.862238129370172e-19,2.6591586281092314e-18,3.520750126026873e-20,574.0372360759264,574.0372360759267,574.0372360759264,574.0372360759266
0.05200000000000002,-2.4482114137523157e-21,2.4435726254021322e-22,0.01005499791044954,-1.9102009844580453e-20,-1.6232721117018464e-17,-3.5204728113115174e-19,6.141816469000308e-23,-7.986379719853663e-24,0.006244281659414513,0.0,-1.5070072534099874e-20,4.694081483884177e-21,0.000999986904118115,0.0,0.0,0.0,1.609339199563586,2.632523367935903e-19,1.2383475347646507e-18,-8.428176771043966e-20,577.8877665732455,577.8877665732456,577.8877665732455,577.8877665732455
0.055999999999999994,-2.4786911202615015e-21,2.524108183289512e-22,0.010058997880383912,1.7868098706145485e-20,-1.6460479078800433e-17,-3.48210415393382e-19,6.141816469000308e-23,-7.986379719853663e-24,0.007176212667716816,0.0,-1.2857262776974864e-20,4.806360073408214e-21,0.0009999901894942528,0.0,0.0,0.0,1.7614160218385462,-2.4962924461270953e-19,1.2687115618246417e-18,1.0085972629416027e-20,581.7230441560628,581.7230441560629,581.7230441560628,581.7230441560629
0.06,-2.5055269926476643e-21,2.6606782139004755e-22,0.010062997860970932,-3.715580581171473e-20,-1.6641873210573794e-17,-5.358169640586885e-19,6.141816469000308e-23,-7.986379719853663e-24,0.00816870216026346,0.0,-7.537215293577952e-21,3.81450967578739e-21,0.000999993107683901,0.0,0.0,0.0,1.9138899165564134,1.4701757710113224e-19,1.484345277687377e-18,2.335889091887816e-19,585.5431168439342,585.5431168439343,585.5431168439342,585.5431168439342
0.064,-2.5244628917517254e-21,2.6931949417072335e-22,0.010066997851062253,-5.178965795419593e-20,-1.6737033484792815e-17,-8.262715402444162e-19,6.141816469000308e-23,-7.986379719853663e-24,0.009220987705621774,0.0,-4.327314818826511e-21,1.5320905551784352e-21,0.0009999957046587932,0.0,0.0,0.0,2.0667509112592506,-7.799285229211898e-20,1.3558823065463835e-18,3.614728043553403e-19,589.3480328783476,589.3480328783476,589.3480328783476,589.3480328783476
0.068,-2.5542810576764765e-21,3.2560158780898595e-22,0.0100710741160948,1.9747717896575326e-18,-1.455892905155255e-17,-3.896636034683135e-19,6.141816469000308e-23,-7.986379719853663e-24,0.010332313868878387,0.0,-5.697597956883758e-21,7.880798811454959e-21,0.0010076246663652533,0.0,0.0,0.0,2.219834355294742,-1.7298405609780435e-18,-1.0674692591108124e-18,-4.758664968617816e-19,593.1340248870697,593.1340248870698,593.1340248870697,593.1340248870698
0.07200000000000001,-2.903025818371992e-21,4.592353709113331e-22,0.010077770566464188,1.0195013249657493e-17,1.3766705835500135e-17,1.4433546937306207e-18,6.141816469000308e-23,-7.986379719853663e-24,0.01150193215487664,0.0,-3.875110135759531e-20,1.8934858565653177e-20,0.0012772711560951958,0.0,0.0,0.0,2.3681199296539175,-8.77399791033387e-18,-2.8140036302951714e-17,-2.1249959352120363e-18,596.7784573940352,596.7784573940353,596.7784573940352,596.7784573940352
0.07600000000000001,-3.5248546178673514e-21,8.207391998791048e-22,0.010092013912334023,4.279850888019968e-17,7.017158151181767e-17,3.534328728308872e-18,6.141816469000308e-23,-7.986379719853663e-24,0.01272910095188534,0.0,-1.0187109055030226e-19,5.507557944687778e-20,0.002301606296503493,0.0,0.0,0.0,2.506680939049605,-3.599594453557906e-17,-6.313922765270375e-17,-2.5016994220064245e-18,600.1638873703284,600.1638873703286,600.1638873703284,600.1638873703286
0.08000000000000002,-4.251052522546515e-21,1.3487759387542102e-21,0.010118396751005454,1.0126776044959987e-16,1.5244430287312264e-16,2.2598231359887594e-18,6.141816469000308e-23,-7.986379719853663e-24,0.014013085475695667,0.0,-1.6397560153192604e-19,1.0249718539612543e-19,0.004461368463635172,0.0,0.0,0.0,2.636028830231521,-6.897931005672957e-17,-9.898075299146759e-17,1.343604099758256e-18,603.3070710904504,603.3070710904506,603.3070710904504,603.3070710904506
0.08400000000000002,-4.74594395274786e-21,1.7508643190908568e-21,0.010161089644285118,1.726663277758762e-16,2.50604077795111e-16,-2.057365360030687e-18,6.141816469000308e-23,-7.986379719853663e-24,0.015353157714143145,0.0,-1.7866063603376739e-19,1.2948180963653483e-19,0.007743779104401813,0.0,0.0,0.0,2.7568642251230835,-9.140743429295741e-17,-1.2707729086802061e-16,4.9501164057742965e-18,606.2286760014736,606.2286760014737,606.2286760014736,606.2286760014736
0.08800000000000002,-4.8097550990501504e-21,1.848400459828778e-21,0.010223854754932852,2.6106019491719915e-16,3.746344475107886e-16,-7.051732126779783e-18,6.141816469000308e-23,-7.986379719853663e-24,0.016748596372051543,0.0,-1.4729539724448226e-19,1.153136355962641e-19,0.012043756895413135,0.0,0.0,0.0,2.8698736086453462,-1.1843499422496144e-16,-1.666852335274885e-16,5.918588991478364e-18,608.9483758353562,608.9483758353562,608.9483758353562,608.9483758353563
0.09200000000000003,-4.127951154473741e-21,1.5285420288173071e-21,0.010310198391072336,3.815799779096177e-16,5.307860272235935e-16,-1.4251744936427078e-17,6.141816469000308e-23,-7.986379719853663e-24,0.018198686816595647,0.0,-7.345317968820936e-20,7.431126431989607e-20,0.017273452507486287,0.0,0.0,0.0,2.975446978775875,-1.6374176984996874e-16,-2.169580116417326e-16,8.700709422956361e-18,611.4781908209408,611.4781908209408,611.4781908209408,611.4781908209408
0.09600000000000003,-2.1398189610914026e-21,3.8081544551253924e-22,0.010423322448099449,5.305539226160924e-16,7.124229291930448e-16,-2.4723891105877498e-17,6.141816469000308e-23,-7.986379719853663e-24,0.019702721023079826,0.0,5.072548621244048e-20,1.3702201015723185e-20,0.02335853403264872,0.0,0.0,0.0,3.074081124644986,-2.1061076147389642e-16,-2.6492939734430544e-16,1.2819729263981821e-17,613.832303050895,613.832303050895,613.832303050895,613.832303050895
0.10000000000000003,1.913545309793883e-21,-2.237203856774554e-21,0.010566111716916422,6.920962199878944e-16,9.036746470066704e-16,-3.475613988397069e-17,6.141816469000308e-23,-7.986379719853663e-24,0.021259997521129365,0.0,2.7333830100717175e-19,-1.1836900318758724e-19,0.03022400402203692,0.0,0.0,0.0,3.1663083835500507,-2.440363318841628e-16,-2.9903428393368426e-16,1.2737605623877978e-17,616.0253628654247,616.0253628654245,616.0253628654247,616.0253628654247
0.10400000000000004,8.742086619890814e-21,-6.958884439805022e-21,0.010741221896370353,8.573562185369905e-16,1.0986347404028265e-15,-4.3796244091403854e-17,6.141816469000308e-23,-7.986379719853663e-24,0.022869821341291546,0.0,6.162872152686039e-19,-3.514176497377417e-19,0.037799391569844076,0.0,0.0,0.0,3.252492665126894,-2.685509295869864e-16,-3.271267647079249e-16,1.1993006732214543e-17,618.0676941273696,618.0676941273696,618.0676941273696,618.0676941273696
0.10800000000000004,1.9212191292674673e-20,-1.4543310520023708e-20,0.010951116975113341,1.008943627702306e-15,1.2799250607446764e-15,-5.177769140520075e-17,6.141816469000308e-23,-7.986379719853663e-24,0.024531503962043497,0.0,1.0847816150917752e-18,-6.991627686508824e-19,0.046027785458932845,0.0,0.0,0.0,3.332929401303306,-2.7515381773700137e-16,-3.3777489472313247e-16,1.1130601399308495e-17,619.9677544481469,619.9677544481469,619.9677544481469,619.9677544481469
0.11199999999999999,3.3824618334114764e-20,-2.5382153444369595e-20,0.011198105889974115,1.1627232994817177e-15,1.4634151525415892e-15,-6.016102906865416e-17,6.141816469000308e-23,-7.986379719853663e-24,0.026244363257203765,0.0,1.6731752499275537e-18,-1.1512104452891187e-18,0.05486359114144599,0.0,0.0,0.0,3.4078458228774506,-2.9585031861661255e-16,-3.626662712675758e-16,1.1931431554047403e-17,621.732192400543,621.7321924005429,621.7321924005429,621.7321924005429
0.11599999999999999,5.316257262103519e-20,-3.994825913643828e-20,0.011484289939286445,1.3264704806401253e-15,1.656882350616911e-15,-6.900634718737118e-17,6.141816469000308e-23,-7.986379719853663e-24,0.028007723443744872,0.0,2.333773488273587e-18,-1.66020827009381e-18,0.06426178405412405,0.0,0.0,0.0,3.477580914966498,-3.272102185919954e-16,-3.983654114199657e-16,1.2819544632577488e-17,623.3701112108521,623.370111210852,623.370111210852,623.370111210852
0.12,7.801243609131514e-20,-5.891606204759039e-20,0.011811667553934507,1.4924206744358877e-15,1.852557223195201e-15,-7.775356815878037e-17,6.141816469000308e-23,-7.986379719853663e-24,0.029820915030003513,0.0,3.070481354632399e-18,-2.2303337567673185e-18,0.07418265947606845,0.0,0.0,0.0,3.5422677333225066,-3.5310483359111466e-16,-4.28742326049399e-16,1.3072986430146254e-17,624.8856192715023,624.8856192715022,624.8856192715022,624.8856192715022
0.124,1.0909228513291755e-19,-8.289066109591831e-20,0.01218209417978904,1.6616922968997439e-15,2.0515584319120553e-15,-8.836155538598233e-17,6.141816469000308e-23,-7.986379719853663e-24,0.03168327476428597,0.0,3.903971252453165e-18,-2.882543097265502e-18,0.084592290008716,0.0,0.0,0.0,3.602124117787632,-3.80399588070567e-16,-4.606650020899563e-16,1.5611272923989442e-17,626.2846913147075,626.2846913147074,626.2846913147074,626.2846913147075
0.128,1.472067420819699e-19,-1.125632193433443e-19,0.012597241448177452,1.8283464005969457e-15,2.24795896468271e-15,-1.003208196115875e-16,6.141816469000308e-23,-7.986379719853663e-24,0.033594145583865524,0.0,4.840092785116317e-18,-3.622974344547993e-18,0.09545335091500959,0.0,0.0,0.0,3.6574554158812846,-4.026964405435911e-16,-4.877456077127073e-16,1.7631545027299418e-17,627.5752206171254,627.5752206171254,627.5752206171254,627.5752206171254
0.132,1.9299062206709172e-19,-1.4853014739877946e-19,0.013058623387567815,1.995735793000098e-15,2.4524894157896465e-15,-1.1104115662673508e-16,6.141816469000308e-23,-7.986379719853663e-24,0.035552876564369104,0.0,5.86281068316186e-18,-4.4457120641274826e-18,0.10672317677779386,0.0,0.0,0.0,3.70851972306417,-4.2841443877363445e-16,-5.261276362628144e-16,1.6682371722127242e-17,628.7638777388713,628.7638777388712,628.7638777388712,628.7638777388712
0.136,2.471690743165304e-19,-1.9138476336423772e-19,0.013567642409919404,2.167906796627581e-15,2.669177442382622e-15,-1.2060641093809508e-16,6.141816469000308e-23,-7.986379719853663e-24,0.037558822869550326,0.0,6.953932453131769e-18,-5.3413162019551e-18,0.11836614079884737,0.0,0.0,0.0,3.7554869139660414,-4.595937018074406e-16,-5.716257420891408e-16,1.578101614169303e-17,629.8551831527967,629.8551831527965,629.8551831527966,629.8551831527966
0.14,3.106296188279683e-19,-2.418035795118231e-19,0.014125605929495237,2.342273916808767e-15,2.891000771573001e-15,-1.3069065626726973e-16,6.141816469000308e-23,-7.986379719853663e-24,0.03961134570144607,0.0,8.113404864537826e-18,-6.3046931738123075e-18,0.1303542287709741,0.0,0.0,0.0,3.7984967779594307,-4.897839636681564e-16,-6.125481726464481e-16,1.6788479757006097e-17,630.8528822204164,630.8528822204163,630.8528822204164,630.8528822204164
0.14400000000000002,3.8448308525383037e-19,-3.0072105957208655e-19,0.01473374890962447,2.492961082917355e-15,3.092114553056449e-15,-1.4204708496839016e-16,6.141816469000308e-23,-7.986379719853663e-24,0.04170981225091381,0.0,9.406715327702357e-18,-7.380276444510455e-18,0.14266536377672073,0.0,0.0,0.0,3.8376464580942624,-4.937306390179448e-16,-6.272995213642867e-16,1.869780659855503e-17,631.7596668395295,631.7596668395292,631.7596668395294,631.7596668395294
0.14800000000000002,4.69516166688395e-19,-3.6870249257104455e-19,0.015393205332823063,2.6240213411839837e-15,3.2735995086454125e-15,-1.510475107969661e-16,6.141816469000308e-23,-7.986379719853663e-24,0.043853595648546906,0.0,1.0861821270321888e-17,-8.602057851129962e-18,0.15527786237742974,0.0,0.0,0.0,3.8730933927272435,-4.975197842389731e-16,-6.39365745865433e-16,1.642187095338514e-17,632.5795672387814,632.5795672387811,632.5795672387812,632.5795672387812
0.15200000000000002,5.663771367756257e-19,-4.462622773781808e-19,0.016105003654901553,2.7369679781445017e-15,3.4428550422048065e-15,-1.5973939254298074e-16,6.141816469000308e-23,-7.986379719853663e-24,0.046042074915965056,0.0,1.2461006381412217e-17,-9.952263822228985e-18,0.16816720888842632,0.0,0.0,0.0,3.905007548739963,-5.01862863396325e-16,-6.580958972595709e-16,1.6441574228042602e-17,633.3168451506931,633.3168451506929,633.3168451506931,633.3168451506931
0.15600000000000003,6.75776284849227e-19,-5.3384174523294045e-19,0.016870108988996466,2.8339948458469365e-15,3.5962174757867045e-15,-1.7316703443514737e-16,6.141816469000308e-23,-7.986379719853663e-24,0.048274634917477216,0.0,1.4185837328985824e-17,-1.1412178826779503e-17,0.18131115599168116,0.0,0.0,0.0,3.9334767269577524,-5.073548499262444e-16,-6.733022451425505e-16,2.2341759491795048e-17,633.9738139214475,633.9738139214472,633.9738139214473,633.9738139214473
0.16000000000000003,7.981187972788296e-19,-6.316887446226424e-19,0.01768940306297144,2.9299177008015924e-15,3.754370881738892e-15,-1.895820200056188e-16,6.141816469000308e-23,-7.986379719853663e-24,0.0505506663121142,0.0,1.5994882601698482e-17,-1.294641848149425e-17,0.19469034606164687,0.0,0.0,0.0,3.9586315068399127,-5.274187782618794e-16,-7.089419646083068e-16,2.639492082162237e-17,634.5537319995138,634.5537319995136,634.5537319995137,634.5537319995137
0.16400000000000003,9.338869107916793e-19,-7.401059221082316e-19,0.018563680811910174,3.0328230733667673e-15,3.9305771550334254e-15,-2.050333662867057e-16,6.141816469000308e-23,-7.986379719853663e-24,0.052869565506028296,0.0,1.7827579511021326e-17,-1.4504652668731113e-17,0.2082845059116934,0.0,0.0,0.0,3.980612123787994,-5.579475799172185e-16,-7.619747352010636e-16,2.5956525203630173e-17,635.060039407537,635.0600394075368,635.0600394075369,635.0600394075369
0.16800000000000004,1.0838677353899251e-18,-8.595372807013914e-19,0.019493687239409918,3.138663715372439e-15,4.113403983101984e-15,-2.217093871376125e-16,6.141816469000308e-23,-7.986379719853663e-24,0.055230734605257216,0.0,1.9681376204645523e-17,-1.6086921443086627e-17,0.2220755614944437,0.0,0.0,0.0,3.9994868511730592,-5.863908133160189e-16,-8.072125519282946e-16,2.8035934788211493e-17,635.4944830134124,635.4944830134122,635.4944830134123,635.4944830134124
0.17200000000000004,1.2487402835030784e-18,-9.90329745866776e-19,0.020480102024617503,3.254074969206199e-15,4.305786053099003e-15,-2.400167237882083e-16,6.141816469000308e-23,-7.986379719853663e-24,0.05763358136884959,0.0,2.1563948609391266e-17,-1.768253384040371e-17,0.23604807936699093,0.0,0.0,0.0,4.015356875577109,-6.222959554982405e-16,-8.56110750568091e-16,3.0641818916068954e-17,635.8595370225318,635.8595370225314,635.8595370225316,635.8595370225316
0.176,1.429179186929003e-18,-1.1328629249372474e-18,0.021523528407252995,3.384974086497394e-15,4.513645128004352e-15,-2.602639203210543e-16,6.141816469000308e-23,-7.986379719853663e-24,0.06007751916234955,0.0,2.347924965484374e-17,-1.927109784587676e-17,0.25018552138566796,0.0,0.0,0.0,4.028348104769433,-6.667240084853574e-16,-9.134973918042742e-16,3.367639649184258e-17,636.1582149305552,636.158214930555,636.1582149305552,636.1582149305551
0.18,1.6258176629215305e-18,-1.2875326122564235e-18,0.022624507809501464,3.540900816966648e-15,4.752440543892957e-15,-2.823053707867168e-16,6.141816469000308e-23,-7.986379719853663e-24,0.0625619669116377,0.0,2.5372844625461593e-17,-2.0820729974358424e-17,0.26447033955282195,0.0,0.0,0.0,4.0385592882076935,-7.241635134760172e-16,-9.905039960760322e-16,3.6621953704167666e-17,636.3928791513305,636.3928791513302,636.3928791513305,636.3928791513304
0.184,1.8395737454339474e-18,-1.4548234974299875e-18,0.02378352270958752,3.730730059229874e-15,5.019214607316698e-15,-3.043499007954354e-16,6.141816469000308e-23,-7.986379719853663e-24,0.06508634905712558,0.0,2.721430275320781e-17,-2.2279453980511906e-17,0.2788869183393716,0.0,0.0,0.0,4.046085393832759,-7.95377050972778e-16,-1.0704833984785525e-15,3.755035261497569e-17,636.5657819556534,636.5657819556529,636.5657819556533,636.5657819556533
0.188,2.0717386405770567e-18,-1.6356990401591553e-18,0.02500099930475672,3.929388215115167e-15,5.28595797543069e-15,-3.272077132638922e-16,6.141816469000308e-23,-7.986379719853663e-24,0.06765009550830155,0.0,2.9058840277620216e-17,-2.3681410124779426e-17,0.2934206814626101,0.0,0.0,0.0,4.051017943376182,-8.45979296471812e-16,-1.1252828705019949e-15,3.942686210420182e-17,636.6790756017124,636.6790756017119,636.6790756017123,636.6790756017123
0.192,2.3235053416621787e-18,-1.8310190636869307e-18,0.026277309276699665,4.126591803006403e-15,5.536489151816775e-15,-3.478123708873248e-16,6.141816469000308e-23,-7.986379719853663e-24,0.0702526415986251,0.0,3.104420049137907e-17,-2.5130692901845566e-17,0.3080576367468762,0.0,0.0,0.0,4.05344674858126,-8.851609865752626e-16,-1.1616394859761615e-15,3.7756279697464596e-17,636.7348543953103,636.7348543953099,636.7348543953102,636.7348543953102
0.196,2.5956409609914063e-18,-2.0414883957834315e-18,0.0276127716589735,4.327475341569467e-15,5.790679394988324e-15,-3.648631850125121e-16,6.141816469000308e-23,-7.986379719853663e-24,0.07289342804076722,0.0,3.318884371406354e-17,-2.6659910122380124e-17,0.3227842857207414,0.0,0.0,0.0,4.0534596474225,-9.29554191634729e-16,-1.2166585961601239e-15,3.447520395403039e-17,636.7351506109643,636.7351506109637,636.7351506109641,636.7351506109641
0.2,2.8890913661324466e-18,-2.267849308442824e-18,0.0290076591715243,4.534250062384352e-15,6.050715418855364e-15,-3.823396438884188e-16,6.141816469000308e-23,-7.986379719853663e-24,0.07557190088219416,0.0,3.541552512603628e-17,-2.824267262277111e-17,0.337588001323709,0.0,0.0,0.0,4.051133378022992,-9.782270807282705e-16,-1.2777594875067434e-15,3.569805788246496e-17,636.6817267299162,636.6817267299158,636.6817267299161,636.681726729916
0.20400000000000001,3.2052865954945988e-18,-2.5113300115563268e-18,0.030462195392645223,4.703344427581892e-15,6.273068282192316e-15,-3.9582095366882347e-16,6.141816469000308e-23,-7.986379719853663e-24,0.07828751146109222,0.0,3.7815435555283197e-17,-2.997996757640118e-17,0.35245672066877565,0.0,0.0,0.0,4.046551971776667,-9.831450863623386e-16,-1.2954383212739988e-15,3.177542396923076e-17,636.5764994507111,636.5764994507106,636.5764994507109,636.5764994507109
0.20800000000000002,3.5458332044562854e-18,-2.7732905689194024e-18,0.03197655806775609,4.767466399372285e-15,6.3859952495984754e-15,-4.0064094607360633e-16,6.141816469000308e-23,-7.986379719853663e-24,0.08103971636263091,0.0,4.0691182135460114e-17,-3.2161152757064517e-17,0.36737858829766934,0.0,0.0,0.0,4.039794388221519,-9.099029949177576e-16,-1.2305896349063038e-15,2.223885513921384e-17,636.4212572415341,636.4212572415337,636.4212572415339,636.4212572415338
0.21200000000000002,3.91139249657504e-18,-3.054234341179636e-18,0.03355088229062135,4.710295830038234e-15,6.376158469993218e-15,-4.0389613500167645e-16,6.141816469000308e-23,-7.986379719853663e-24,0.08382797737556208,0.0,4.4356618644318424e-17,-3.5093887229253776e-17,0.38234231635344773,0.0,0.0,0.0,4.030934667941331,-8.019627294849979e-16,-1.133537361659793e-15,2.0636811649485457e-17,636.2176651812449,636.2176651812446,636.2176651812448,636.2176651812448
0.21600000000000003,4.301462455166472e-18,-3.3535280769300557e-18,0.03518526096626096,4.581348868382031e-15,6.29750237936433e-15,-4.051109914600821e-16,6.141816469000308e-23,-7.986379719853663e-24,0.08665176144915256,0.0,4.878166870575727e-17,-3.8758348374236266e-17,0.3973371979340331,0.0,0.0,0.0,4.020047347486633,-7.310422241793232e-16,-1.0785416548681286e-15,1.8415246489487997e-17,635.9673905992246,635.9673905992241,635.9673905992244,635.9673905992244
0.22000000000000003,4.715689404192508e-18,-3.670846639889838e-18,0.03687974641240315,4.368081916057374e-15,6.1582253321322255e-15,-4.0402448016838807e-16,6.141816469000308e-23,-7.986379719853663e-24,0.08951054065044778,0.0,5.37279399525671e-17,-4.299977875946294e-17,0.4123528187649238,0.0,0.0,0.0,4.007205133416799,-6.438935982568935e-16,-1.0301398833235077e-15,1.5805053040535743e-17,635.6720508214557,635.6720508214554,635.6720508214556,635.6720508214555
0.22400000000000003,5.153808114791272e-18,-4.0054607269355725e-18,0.03863435369639236,4.067549052407468e-15,5.9345937093342505e-15,-4.028225395456926e-16,6.141816469000308e-23,-7.986379719853663e-24,0.09240379212186403,0.0,5.912326147686e-17,-4.776869959612735e-17,0.42737930620564696,0.0,0.0,0.0,3.992475328600749,-5.427602094021215e-16,-9.509850720250184e-16,1.5653803908864323e-17,635.3331319910957,635.3331319910953,635.3331319910957,635.3331319910956
0.22800000000000004,5.6155764035728965e-18,-4.356386030967005e-18,0.04044906492806673,3.6686398309535976e-15,5.571202813317286e-15,-3.9865155466259275e-16,6.141816469000308e-23,-7.986379719853663e-24,0.09533099803910691,0.0,6.521222802122578e-17,-5.3142004773479376e-17,0.44240762960320373,0.0,0.0,0.0,3.97591778516512,-4.1923928571394724e-16,-8.017223767244475e-16,1.216425748689658e-17,634.9519426607416,634.9519426607413,634.9519426607415,634.9519426607415
0.23200000000000004,6.099598310930688e-18,-4.722287690109637e-18,0.042323818568272,3.1588074558342317e-15,5.077635724047071e-15,-3.900740285739091e-16,6.141816469000308e-23,-7.986379719853663e-24,0.09829164556941347,0.0,7.221256952222689e-17,-5.917660461783587e-17,0.4574283750354464,0.0,0.0,0.0,3.957615178122877,-2.694862875351913e-16,-6.406590522056866e-16,6.87327762050533e-18,634.5303118403817,634.5303118403815,634.5303118403816,634.5303118403815
0.23600000000000004,6.60366283828e-18,-5.10110354552683e-18,0.044258517828703534,2.5557913376859915e-15,4.4923068190765046e-15,-3.743106890964839e-16,6.141816469000308e-23,-7.986379719853663e-24,0.10128522683011584,0.0,8.003579565052774e-17,-6.586970129821969e-17,0.4724318513587858,0.0,0.0,0.0,3.937634599553833,-1.2323118282347805e-16,-5.049977337843852e-16,-1.8458772279716627e-18,634.0697060694573,634.0697060694573,634.0697060694573,634.0697060694573
0.24000000000000005,7.125755633550611e-18,-5.4906907489774505e-18,0.04625303255923015,1.8483729781442816e-15,3.796731488129282e-15,-3.533013961125676e-16,6.141816469000308e-23,-7.986379719853663e-24,0.10431123884752391,0.0,8.85225442458989e-17,-7.32012520779157e-17,0.48740908432641356,0.0,0.0,0.0,3.916040507580475,4.5293624551584276e-17,-3.4193800373356157e-16,-8.595142094356355e-18,633.5715279859209,633.5715279859209,633.5715279859209,633.5715279859209
0.244,7.66271134800119e-18,-5.888009279976046e-18,0.04830720046931909,1.0757389804082335e-15,3.0463269489946162e-15,-3.32968577296431e-16,6.141816469000308e-23,-7.986379719853663e-24,0.10736918351612453,0.0,9.749290399068015e-17,-8.10190844399001e-17,0.5023518090222903,0.0,0.0,0.0,3.8928960171403553,1.8768403457848863e-16,-2.2086444003469912e-16,-8.642957382218415e-18,633.0371467576222,633.0371467576223,633.0371467576222,633.037146757622
0.248,8.211525809124203e-18,-6.290001016621164e-18,0.05042082831445891,2.511995427081168e-16,2.2543942246296475e-15,-3.0969592360411564e-16,6.141816469000308e-23,-7.986379719853663e-24,0.1104585675580954,0.0,1.0671974245617283e-16,-8.914475987944451e-17,0.5172520633997104,0.0,0.0,0.0,3.8682629315722803,3.220721915681576e-16,-1.1063382050733941e-16,-1.2888834772157514e-17,632.4678994796548,632.467899479655,632.4678994796549,632.4678994796549
0.252,8.769153018825516e-18,-6.693474478995282e-18,0.05259368619027741,-6.185319983615818e-16,1.4231495505819237e-15,-2.8346918239498353e-16,6.141816469000308e-23,-7.986379719853663e-24,0.11357890248313052,0.0,1.159848667281565e-16,-9.739753414804256e-17,0.5321014941051923,0.0,0.0,0.0,3.8422156923256576,4.566960488011634e-16,3.0977827977365134e-18,-1.7273705318155066e-17,631.8654146082621,631.8654146082623,631.8654146082622,631.8654146082621
0.256,9.332392035096698e-18,-7.094892398312132e-18,0.05482551292264737,-1.5097003215871848e-15,5.555493575587678e-16,-2.545011760443945e-16,6.141816469000308e-23,-7.986379719853663e-24,0.11672970454857583,0.0,1.2526316400568415e-16,-1.0565162629711306e-16,0.5468917750923514,0.0,0.0,0.0,3.8148190408807627,5.738667217082881e-16,1.207443201561187e-16,-2.153310098769165e-17,631.2310966934473,631.2310966934475,631.2310966934474,631.2310966934473
0.26,9.898010961011206e-18,-7.490935794068374e-18,0.057116032196686865,-2.4290495177087756e-15,-3.5505769116373004e-16,-2.2321279842285536e-16,6.141816469000308e-23,-7.986379719853663e-24,0.11991049471987204,0.0,1.3455083495742339e-16,-1.1379850336535494e-16,0.5616162217092795,0.0,0.0,0.0,3.786106051654527,7.013627756996763e-16,2.5208452479030413e-16,-2.541541357694456e-17,630.5656166373865,630.5656166373868,630.5656166373865,630.5656166373865
0.264,1.0462530639445935e-17,-7.878147856149121e-18,0.05946494070664998,-3.377955672862707e-15,-1.3057156643833155e-15,-1.8887936245751056e-16,6.141816469000308e-23,-7.986379719853663e-24,0.12312079863130279,0.0,1.438573243434393e-16,-1.2179729507368436e-16,0.5762695617643331,0.0,0.0,0.0,3.7561344013324645,8.374218180547768e-16,3.8898439454670964e-16,-3.024174151403007e-17,629.8702146223658,629.8702146223662,629.870214622366,629.8702146223659
0.268,1.1022300099155829e-17,-8.253033969806259e-18,0.061871913529648014,-4.363876950061942e-15,-2.290512380489826e-15,-1.5118282230537363e-16,6.141816469000308e-23,-7.986379719853663e-24,0.12636014654704564,0.0,1.5315544247340374e-16,-1.2973337677765545e-16,0.5908459183159277,0.0,0.0,0.0,3.7249517900757487,9.88268540861321e-16,5.272016712307694e-16,-3.556703410874942e-17,629.1459000545581,629.1459000545588,629.1459000545583,629.1459000545583
0.272,1.1573415807783029e-17,-8.611724508297706e-18,0.06433661182667064,-5.369929055886283e-15,-3.2909702728739014e-15,-1.1349103303344932e-16,6.141816469000308e-23,-7.986379719853663e-24,0.12962807332252388,0.0,1.6234637609324836e-16,-1.3756829088308822e-16,0.6053404033095122,0.0,0.0,0.0,3.692591046395437,1.1300343109173559e-15,6.528278953812077e-16,-3.7098871022025566e-17,628.39333685505,628.3933368550506,628.3933368550502,628.39333685505
0.276,1.2111855253035562e-17,-8.949993056506772e-18,0.06685865556110944,-6.3510573317462264e-15,-4.282696227502962e-15,-8.218532322821626e-17,6.141816469000308e-23,-7.986379719853663e-24,0.13292411836605678,0.0,1.7122398265831975e-16,-1.450674720847303e-16,0.6197466503351415,0.0,0.0,0.0,3.659140878655834,1.2288486676680819e-15,7.564218580521715e-16,-3.1178743364651173e-17,627.6144901579285,627.6144901579291,627.6144901579287,627.6144901579286
0.28,1.263332389060777e-17,-9.263695149357627e-18,0.06943764578118573,-7.263583489533456e-15,-5.21173086670623e-15,-6.101168390527272e-17,6.141816469000308e-23,-7.986379719853663e-24,0.1362478256008061,0.0,1.7942797404899932e-16,-1.5180771493207583e-16,0.6340575640610843,0.0,0.0,0.0,3.6246461535717645,1.2784772793732286e-15,8.037350703470584e-16,-2.0622658425849537e-17,626.8103086442823,626.8103086442829,626.8103086442826,626.8103086442825
0.28400000000000003,1.3134083929651308e-17,-9.549253014158565e-18,0.07207317439001781,-8.095682811524647e-15,-6.0588393000611365e-15,-4.197717830225109e-17,6.141816469000308e-23,-7.986379719853663e-24,0.13959874342701678,0.0,1.8654025203850015e-16,-1.5737860249061395e-16,0.6482684137425047,0.0,0.0,0.0,3.589132579397416,1.307438151667049e-15,8.222246990183382e-16,-1.8989010327610773e-17,625.9812951931233,625.9812951931239,625.9812951931235,625.9812951931234
0.28800000000000003,1.3610739292380185e-17,-9.80332373810599e-18,0.07476479339632083,-8.826621378393016e-15,-6.806264018343822e-15,-3.145125780509866e-17,6.141816469000308e-23,-7.986379719853663e-24,0.14297642468454957,0.0,1.922672295193972e-16,-1.6156643332483336e-16,0.6623736724120268,0.0,0.0,0.0,3.552688628635101,1.3079239823447278e-15,8.14353205480262e-16,-9.828324955201147e-18,625.1294204626262,625.1294204626269,625.1294204626265,625.1294204626264
0.29200000000000004,1.4060232631758096e-17,-1.0022997641315378e-17,0.07751203425252949,-9.441502080464167e-15,-7.433286047254103e-15,-2.393001316994485e-17,6.141816469000308e-23,-7.986379719853663e-24,0.14638042661570333,0.0,1.9642027153942857e-16,-1.642053395304946e-16,0.6763664004017177,0.0,0.0,0.0,3.5153648646010804,1.2828162916522265e-15,7.751901923953921e-16,-6.748420875076732e-18,624.2557752369638,624.2557752369645,624.2557752369643,624.255775236964
0.29600000000000004,1.4480033639211598e-17,-1.020577349101152e-17,0.08031441025230404,-9.921517583818948e-15,-7.925466281106423e-15,-1.0008436427462022e-17,6.141816469000308e-23,-7.986379719853663e-24,0.14981031082832508,0.0,1.9878398088061672e-16,-1.6508918993677786e-16,0.6902408792017811,0.0,0.0,0.0,3.4772077057137114,1.2264326040701827e-15,7.081478351262037e-16,-1.4532196737694428e-17,623.3613568285258,623.3613568285264,623.361356828526,623.3613568285259
0.30000000000000004,1.4868432541644525e-17,-1.035001387314249e-17,0.08317141728599899,-1.0283265952864009e-14,-8.2994026633443e-15,6.88623135268783e-18,6.141816469000308e-23,-7.986379719853663e-24,0.15326564325920555,0.0,1.9932722527928958e-16,-1.6416994969283782e-16,0.7039926173473738,0.0,0.0,0.0,3.4382626810998342,1.1731388674195123e-15,6.445771100825368e-16,-1.857620322360506e-17,622.4471452431011,622.4471452431018,622.4471452431014,622.4471452431013
0.30400000000000005,1.522415719262178e-17,-1.0454519175002748e-17,0.08608254012332081,-1.0538915525950054e-14,-8.567263411152339e-15,2.3551448676733878e-17,6.141816469000308e-23,-7.986379719853663e-24,0.15674599413775814,0.0,1.9815254415823481e-16,-1.615388933049267e-16,0.7176178639071649,0.0,0.0,0.0,3.398563188486042,1.1230960542685466e-15,5.841726086156584e-16,-1.9002398983014924e-17,621.5138388830821,621.5138388830827,621.5138388830824,621.5138388830824
0.308,1.554628024085401e-17,-1.0518434425426791e-17,0.0890472617949113,-1.0693616309944954e-14,-8.734198410005614e-15,3.663836399852181e-17,6.141816469000308e-23,-7.986379719853663e-24,0.16025093794997908,0.0,1.9545651994616057e-16,-1.5739408690856446e-16,0.7311144722063624,0.0,0.0,0.0,3.358124004071646,1.0696150968526183e-15,5.202416767955433e-16,-1.5508348060697168e-17,620.5616997665733,620.5616997665738,620.5616997665735,620.5616997665734
0.312,1.5834355974824524e-17,-1.0541387351977478e-17,0.09206502746029793,-1.0761388604998908e-14,-8.814227838505726e-15,5.100458901257437e-17,6.141816469000308e-23,-7.986379719853663e-24,0.16378005340268723,0.0,1.913931444075541e-16,-1.5188953487542178e-16,0.7444782110058862,0.0,0.0,0.0,3.3170333535646663,1.0214614706312551e-15,4.615638914274876e-16,-1.7542732774962468e-17,619.5927231906796,619.5927231906801,619.5927231906797,619.5927231906796
0.316,1.6088129156999772e-17,-1.0523120622279653e-17,0.09513526667696298,-1.0733714881683982e-14,-8.806224311796048e-15,6.309865566075248e-17,6.141816469000308e-23,-7.986379719853663e-24,0.16733292338804037,0.0,1.860702353087101e-16,-1.4511056134946326e-16,0.757703132544084,0.0,0.0,0.0,3.2753355375779014,9.57112516022564e-16,3.943549150580493e-16,-1.5481976728668785e-17,618.6078771878838,618.6078771878842,618.6078771878839,618.6078771878838
0.32,1.6307333086717985e-17,-1.0463459265363197e-17,0.09825739592299196,-1.0575838520877659e-14,-8.675433438480241e-15,7.137713942730003e-17,6.141816469000308e-23,-7.986379719853663e-24,0.1709091349483273,0.0,1.794122005813382e-16,-1.3692249796793095e-16,0.770784643880039,0.0,0.0,0.0,3.233070296917382,8.455734673457339e-16,2.8141316562440904e-16,-1.1525798977398632e-17,617.6080267339838,617.6080267339844,617.608026733984,617.6080267339839
0.324,1.6492541814720235e-17,-1.036308986911931e-17,0.10143082725218615,-1.0292905218978916e-14,-8.428480025580515e-15,7.651413903989065e-17,6.141816469000308e-23,-7.986379719853663e-24,0.17450827924103265,0.0,1.7125483114303573e-16,-1.2712668161581838e-16,0.783720319000046,0.0,0.0,0.0,3.19026028572799,7.218325517980863e-16,1.5868413468564045e-16,-8.200972970851496e-18,616.593636072257,616.5936360722574,616.5936360722571,616.593636072257
0.328,1.6644869100210173e-17,-1.0223367576291603e-17,0.10465499670793775,-9.910017210450409e-15,-8.081599165709003e-15,8.032053651208488e-17,6.141816469000308e-23,-7.986379719853663e-24,0.17812995150417288,0.0,1.6156561147014833e-16,-1.1575004232019553e-16,0.7965114680680231,0.0,0.0,0.0,3.1468706943198033,6.109875095077948e-16,4.056827057670659e-17,-6.862902692324976e-18,615.56380643953,615.5638064395304,615.5638064395301,615.56380643953
0.332,1.676589034537484e-17,-1.0046029202388729e-17,0.10792928279972021,-9.450436134456654e-15,-7.65805219277197e-15,8.15193975917244e-17,6.141816469000308e-23,-7.986379719853663e-24,0.18177375102190127,0.0,1.506490765164913e-16,-1.0312845050924088e-16,0.8091549251723826,0.0,0.0,0.0,3.1030314624636754,5.153075975974672e-16,-6.324096458619041e-17,-3.978798216821805e-18,614.5215520926961,614.5215520926964,614.5215520926962,614.5215520926961
0.336,1.6857558681659042e-17,-9.83318872837575e-18,0.11125305490643267,-8.945928106724486e-15,-7.18960491616801e-15,8.138598519381103e-17,6.141816469000308e-23,-7.986379719853663e-24,0.18543928109038013,0.0,1.3888537333787335e-16,-8.968016867056782e-17,0.8216447080100829,0.0,0.0,0.0,3.0587761892467737,4.45973376923568e-16,-1.4070231691003652e-16,-2.477412344228873e-18,613.467610556357,613.4676105563573,613.4676105563572,613.467610556357
0.34,1.692139916117047e-17,-9.586530147519047e-18,0.11462571729498136,-8.368403302696092e-15,-6.64816720384308e-15,8.006590526777849e-17,6.141816469000308e-23,-7.986379719853663e-24,0.18912614898391797,0.0,1.2646027538808346e-16,-7.558970921674426e-17,0.8339802374153049,0.0,0.0,0.0,3.014049488499701,3.4429277769924015e-16,-2.505223237950924e-16,-1.0914004950837944e-18,612.4005990335127,612.4005990335128,612.4005990335128,612.4005990335127
0.34400000000000003,1.6959237222825923e-17,-9.308007671763183e-18,0.11804664044382221,-7.694197929392915e-15,-6.013031069926823e-15,7.66667817274311e-17,6.141816469000308e-23,-7.986379719853663e-24,0.19283396592136995,0.0,1.1323656360352428e-16,-6.071024111870856e-17,0.8461620180054601,0.0,0.0,0.0,2.9689343013115006,2.0563599814938453e-16,-3.9420807103168294e-16,1.3858682803520275e-18,611.3224329696565,611.3224329696566,611.3224329696566,611.3224329696565
0.34800000000000003,1.69735399814274e-17,-9.000254142068533e-18,0.12151517678285176,-6.934010223734894e-15,-5.2948954891635354e-15,7.220284220733533e-17,6.141816469000308e-23,-7.986379719853663e-24,0.19656234703279932,0.0,9.899635032247845e-17,-4.479762358242733e-17,0.858186386545244,0.0,0.0,0.0,2.9234827605761384,6.343173513144366e-17,-5.408190614423578e-16,2.7639683236326634e-18,610.2343024401084,610.2343024401083,610.2343024401084,610.2343024401083
0.35200000000000004,1.6967114577498678e-17,-8.666285427870116e-18,0.12503067049244035,-6.105563288895418e-15,-4.5085274483461456e-15,6.349529961478329e-17,6.141816469000308e-23,-7.986379719853663e-24,0.20031091132639836,0.0,8.384375774081573e-17,-2.79579382636733e-17,0.8700484551868308,0.0,0.0,0.0,2.877727745849007,-7.060303973078144e-17,-6.819860716711549e-16,7.899430764746135e-18,609.1369433179096,609.1369433179095,609.1369433179096,609.1369433179095
0.35600000000000004,1.694301524237854e-17,-8.309392126486647e-18,0.12859252260368023,-5.2302803762752175e-15,-3.669437239304758e-15,5.239066756492999e-17,6.141816469000308e-23,-7.986379719853663e-24,0.20407928165566647,0.0,6.802778597887509e-17,-1.049856188578101e-17,0.8817525304916085,0.0,0.0,0.0,2.8315703357624913,-1.90085415467267e-16,-8.151219752364958e-16,1.1052737213507825e-17,608.0279267058306,608.0279267058305,608.0279267058306,608.0279267058305
0.36000000000000004,1.690453145275658e-17,-7.932961946491726e-18,0.13220022018500302,-4.323307652067704e-15,-2.7986818391549336e-15,4.1520236851393074e-17,6.141816469000308e-23,-7.986379719853663e-24,0.20786708468684376,0.0,5.182728526069341e-17,7.286912681900336e-18,0.8933126091594386,0.0,0.0,0.0,2.784850619292846,-2.991228040199507e-16,-9.3284139848146e-16,1.1231487386142465e-17,606.903335923822,606.9033359238217,606.9033359238219,606.9033359238218
0.36400000000000005,1.6855158711194075e-17,-7.540643583969619e-18,0.13585318805047616,-3.414208155994399e-15,-1.92582397397562e-15,3.106119824793785e-17,6.141816469000308e-23,-7.986379719853663e-24,0.21167395086659818,0.0,3.5621325858947143e-17,2.5030447435165284e-17,0.9047353263063551,0.0,0.0,0.0,2.737706959644685,-3.8191055946736997e-16,-1.0237017081970785e-15,1.1194392554577313e-17,605.7664241258932,605.766424125893,605.7664241258932,605.766424125893
0.36800000000000005,1.6798319279047305e-17,-7.135992805138798e-18,0.1395506962490146,-2.521465138114839e-15,-1.0715635999052023e-15,1.5100625840718378e-17,6.141816469000308e-23,-7.986379719853663e-24,0.21549951438996437,0.0,1.9790407776309195e-17,4.238577743815754e-17,0.9160022707562776,0.0,0.0,0.0,2.6904675130252205,-4.455177160549614e-16,-1.0930057111324208e-15,1.80483672952069e-17,604.6250580212563,604.625058021256,604.6250580212562,604.6250580212561
0.37200000000000005,1.6738174829536733e-17,-6.7226135011814204e-18,0.1432919683153587,-1.6746542403332696e-15,-3.3642681847838366e-16,-4.7855037959709176e-18,6.141816469000308e-23,-7.986379719853663e-24,0.21934341316853212,0.0,5.095632597013678e-18,5.893334910262507e-17,0.9270879747868026,0.0,0.0,0.0,2.643245728568693,-4.773403696917998e-16,-1.0555747650080419e-15,2.3288377127996266e-17,603.4819612046755,603.4819612046751,603.4819612046754,603.4819612046753
0.37600000000000006,1.667736562632848e-17,-6.303644810005247e-18,0.1470762085431098,-8.745342605064189e-16,2.9358851831618456e-16,-2.6544980991934193e-17,6.141816469000308e-23,-7.986379719853663e-24,0.223205288798883,0.0,-7.706420764167513e-18,7.436796479248179e-17,0.9379787155982285,0.0,0.0,0.0,2.596101243214253,-5.030967367009698e-16,-1.0125268146405408e-15,2.629366587628644e-17,602.3385715648471,602.3385715648468,602.338571564847,602.338571564847
0.38000000000000006,1.6617690391321662e-17,-5.8819231905781e-18,0.15090266840569955,-1.1151611499918836e-16,8.724018159811153e-16,-4.9981611452555796e-17,6.141816469000308e-23,-7.986379719853663e-24,0.2270847865312729,0.0,-1.8513680120381247e-17,8.86311726356418e-17,0.9486754828559818,0.0,0.0,0.0,2.548959560494434,-5.363409908355292e-16,-1.0180642669633575e-15,2.9148213441520575e-17,601.1930755190987,601.1930755190983,601.1930755190987,601.1930755190986
0.38400000000000006,1.6560946556149815e-17,-5.46004742487293e-18,0.154770584441526,6.313825829358114e-16,1.4295588987689142e-15,-7.028766772554515e-17,6.141816469000308e-23,-7.986379719853663e-24,0.23098155523855898,0.0,-2.8048258590468813e-17,1.0189496399344447e-16,0.9591821109260573,0.0,0.0,0.0,2.5018707980414026,-5.868899347917025e-16,-1.056500897396702e-15,2.6457080592808017e-17,600.0466823028861,600.0466823028856,600.046682302886,600.0466823028859
0.38800000000000007,1.650903799532495e-17,-5.040655016366046e-18,0.1586792140295847,1.356367364076969e-15,1.9731788206205697e-15,-8.745839893068972e-17,6.141816469000308e-23,-7.986379719853663e-24,0.23489524738536904,0.0,-3.6840435640484816e-17,1.1434338293626139e-16,0.9695004852712461,0.0,0.0,0.0,2.4548129969244465,-6.417026350154651e-16,-1.1061061542806496e-15,2.3633264144696307e-17,598.8988506299643,598.8988506299639,598.8988506299643,598.8988506299642
0.39200000000000007,1.6463870283904356e-17,-4.626268488411142e-18,0.16262779204640654,2.068601139740609e-15,2.5039929199705113e-15,-1.0358164633977973e-16,6.141816469000308e-23,-7.986379719853663e-24,0.23882551899751153,0.0,-4.508218051372312e-17,1.2612307911666004e-16,0.9796302111089729,0.0,0.0,0.0,2.4078515532994955,-7.026562503421801e-16,-1.157699189059782e-15,2.3120828658588252e-17,597.751171950017,597.7511719500167,597.751171950017,597.7511719500169
0.3960000000000001,1.642794167301029e-17,-4.219917985497753e-18,0.16661556300979705,2.716339404489612e-15,2.958432912609859e-15,-1.1396203228847016e-16,6.141816469000308e-23,-7.986379719853663e-24,0.2427720296316244,0.0,-5.2508413529973225e-17,1.3702878081564584e-16,0.9895705146314853,0.0,0.0,0.0,2.3609873980317544,-7.108449615732502e-16,-1.143157242956206e-15,1.708156214076044e-17,596.6036699607895,596.603669960789,596.6036699607893,596.6036699607891
0.4000000000000001,1.640291200424815e-17,-3.824058662037453e-18,0.17064179982619948,3.2851445460909796e-15,3.3338848745239465e-15,-1.269967593288914e-16,6.141816469000308e-23,-7.986379719853663e-24,0.24673444234506117,0.0,-5.861716058086567e-17,1.4659906717274579e-16,0.9993242577027299,0.0,0.0,0.0,2.3141831596578997,-6.941067164939325e-16,-1.1131165255274368e-15,2.061646036794192e-17,595.4554279715015,595.4554279715012,595.4554279715015,595.4554279715014
0.4040000000000001,1.6390618949811845e-17,-3.4406848504334435e-18,0.17470576907174867,3.776837852426855e-15,3.5804375921828175e-15,-1.3769211157751226e-16,6.141816469000308e-23,-7.986379719853663e-24,0.25071242366601226,0.0,-6.285156108173929e-17,1.5449102125071908e-16,1.008894570641247,0.0,0.0,0.0,2.2674710769173805,-6.712814779205766e-16,-1.0232892292445695e-15,1.8427814570046506e-17,594.3072348941478,594.3072348941473,594.3072348941477,594.3072348941477
0.4080000000000001,1.6392360265706472e-17,-3.0716851305001806e-18,0.17880671879998217,4.175502264365911e-15,3.661464228224405e-15,-1.4834875268148264e-16,6.141816469000308e-23,-7.986379719853663e-24,0.25470564356386,0.0,-6.464944182730902e-17,1.60620718823517e-16,1.0182800810374482,0.0,0.0,0.0,2.2209083868801676,-6.255170096947862e-16,-8.775010878214237e-16,1.883139213508467e-17,593.1605019955653,593.1605019955649,593.1605019955651,593.160501995565
0.412,1.640809528001256e-17,-2.7184012539942673e-18,0.1829439234530762,4.487019752263769e-15,3.6160887200105914e-15,-1.534420985389251e-16,6.141816469000308e-23,-7.986379719853663e-24,0.25871377541976515,0.0,-6.371013202802906e-17,1.649161495178286e-16,1.0274808151792576,0.0,0.0,0.0,2.17446182069088,-5.759214186617391e-16,-7.518597981480251e-16,1.2780536237222518e-17,592.0144160456717,592.0144160456715,592.0144160456716,592.0144160456716
0.416,1.6437986588695212e-17,-2.3820027560854224e-18,0.1871166583121221,4.702494616256631e-15,3.41692961876032e-15,-1.5947532928468912e-16,6.141816469000308e-23,-7.986379719853663e-24,0.2627364959974844,0.0,-6.012409842861232e-17,1.6736642541810515e-16,1.036499206332417,0.0,0.0,0.0,2.128149172979392,-5.095163802595549e-16,-5.881492590593802e-16,1.4098331861061206e-17,590.8694211749088,590.8694211749086,590.8694211749087,590.8694211749087
0.42,1.648141674716073e-17,-2.063386160705951e-18,0.19132419118327063,4.807853001024615e-15,3.0639417992043307e-15,-1.6789306818427318e-16,6.141816469000308e-23,-7.986379719853663e-24,0.2667734854144151,0.0,-5.3905396015485736e-17,1.6787561016956568e-16,1.0453357230144233,0.0,0.0,0.0,2.0820051354114284,-4.1828439309194225e-16,-4.050260087030963e-16,1.714269179405048e-17,589.7263839216803,589.7263839216802,589.7263839216802,589.7263839216803
0.424,1.653706936969001e-17,-1.762781424535746e-18,0.19556577262462155,4.8167339278263e-15,2.5729741005733064e-15,-1.7812406453752414e-16,6.141816469000308e-23,-7.986379719853663e-24,0.27082442711286775,0.0,-4.503966583873348e-17,1.6636155001574426e-16,1.053987825635558,0.0,0.0,0.0,2.0360845228851376,-3.2875244018604868e-16,-2.2122956197448185e-16,1.9618243824567078e-17,588.5866774641112,588.5866774641111,588.5866774641112,588.5866774641112
0.428,1.66031388981421e-17,-1.4800134762685887e-18,0.19984067386798643,4.748325696028833e-15,1.961728070812302e-15,-1.8462165117865809e-16,6.141816469000308e-23,-7.986379719853663e-24,0.2748890078315629,0.0,-3.3857379863286196e-17,1.630419171903567e-16,1.062455160112949,0.0,0.0,0.0,1.9903657871779379,-2.507673919689011e-16,-4.1755621460654765e-17,1.5689583956152413e-17,587.4497848281381,587.4497848281381,587.4497848281381,587.4497848281381
0.432,1.667774970941813e-17,-1.2148168789634208e-18,0.2041481448325934,4.603344790270219e-15,1.2139133508442407e-15,-1.8230518817441768e-16,6.141816469000308e-23,-7.986379719853663e-24,0.27896691757735176,0.0,-2.0528671114736134e-17,1.5819258461226177e-16,1.0707374302901447,0.0,0.0,0.0,1.94491198224874,-1.673477835795474e-16,1.6751315958472e-16,5.673081045249693e-18,586.317294902475,586.3172949024752,586.317294902475,586.3172949024752
0.436,1.675798855406111e-17,-9.664216204729123e-19,0.2084874394083296,4.40652836381655e-15,3.7273292134746634e-16,-1.7591281111106115e-16,6.141816469000308e-23,-7.986379719853663e-24,0.28305784959715835,0.0,-5.283749311995539e-18,1.520766024433308e-16,1.078833423523304,0.0,0.0,0.0,1.8997355777129474,-1.0163511372990846e-16,3.496770288820606e-16,8.293747784009547e-19,585.1895448304202,585.1895448304205,585.1895448304202,585.1895448304203
0.44,1.6840575271931356e-17,-7.336678123424583e-19,0.21285781735189135,4.201838407224239e-15,-5.163530087356528e-16,-1.68934226603964e-16,6.141816469000308e-23,-7.986379719853663e-24,0.28716150035014176,0.0,1.1297178101998772e-17,1.4516271358293162e-16,1.0867432430580692,0.0,0.0,0.0,1.8548451168887006,-7.864194831919977e-17,4.923032763029753e-16,-1.0561875443221975e-19,584.0667759528701,584.0667759528703,584.0667759528701,584.0667759528702
0.444,1.6922414466336056e-17,-5.157223231131267e-19,0.217258544000503,3.995187974865201e-15,-1.4422812924449002e-15,-1.650719636438612e-16,6.141816469000308e-23,-7.986379719853663e-24,0.29127756948007677,0.0,2.8449640030930036e-17,1.380194998879089e-16,1.09446834199427,0.0,0.0,0.0,1.8102495851754439,-6.494841891017811e-17,6.264133863240943e-16,3.2599682931126614e-18,582.9492424352339,582.9492424352343,582.9492424352339,582.9492424352342
0.448,1.7000142868700618e-17,-3.1179432013986526e-19,0.2216888900659908,3.788426249134536e-15,-2.378054766657973e-15,-1.6337426014189988e-16,6.141816469000308e-23,-7.986379719853663e-24,0.2954057597879513,0.0,4.571202189506971e-17,1.3095925310564133e-16,1.1020101049938555,0.0,0.0,0.0,1.7659582556483993,-5.315606127237433e-17,7.378432868198833e-16,5.6414432729896786e-18,581.8372074884205,581.8372074884207,581.8372074884205,581.8372074884207
0.452,1.707032223084901e-17,-1.2107892121395075e-19,0.22614813149197857,3.585250510508953e-15,-3.2926604491250646e-15,-1.638363652178674e-16,6.141816469000308e-23,-7.986379719853663e-24,0.299545777204779,0.0,6.261416365900658e-17,1.2403381853481232e-16,1.1093698687082656,0.0,0.0,0.0,1.721980567070387,-4.4916385927210673e-17,8.180955625271841e-16,8.106133728282006e-18,580.7309403599668,580.7309403599671,580.7309403599668,580.7309403599671
0.456,1.7129944837332556e-17,5.717308686092646e-20,0.23063554936359013,3.3852945529151832e-15,-4.190159365415324e-15,-1.6656112689928423e-16,6.141816469000308e-23,-7.986379719853663e-24,0.30369733076462535,0.0,7.87193700963684e-17,1.1728219292111291e-16,1.1165489370445647,0.0,0.0,0.0,1.6783260214399358,-3.652871617179976e-17,9.002219220247256e-16,1.0779687894474429e-17,579.6307137812169,579.6307137812173,579.6307137812169,579.6307137812172
0.46,1.7176199968111148e-17,2.237410688799997e-19,0.23515042986061233,3.1929955495291597e-15,-5.084561104558592e-15,-1.7273046183405683e-16,6.141816469000308e-23,-7.986379719853663e-24,0.30786013257784606,0.0,9.399612279946234e-17,1.107435549528214e-16,1.1235485937749035,0.0,0.0,0.0,1.6350040982273844,-3.2614506357369285e-17,9.985218748460547e-16,1.4927009787334642e-17,578.536801805136,578.5368018051364,578.536801805136,578.5368018051364
0.464,1.7205860860813586e-17,3.7977571753483094e-19,0.23969206424642026,3.05196369932967e-15,-5.944842346686016e-15,-1.8316477880224237e-16,6.141816469000308e-23,-7.986379719853663e-24,0.3120338978045353,0.0,1.0845737796561615e-16,1.0468509734836772e-16,1.130370112961779,0.0,0.0,0.0,1.5920241828538944,-7.521393694311612e-17,1.0683943344865868e-15,2.0174574829536013e-17,577.449477978509,577.4494779785093,577.449477978509,577.4494779785093
0.468,1.7215838062784626e-17,5.257527651833729e-19,0.24425974888611796,2.9526102881222697e-15,-6.742873110759257e-15,-1.929511268839235e-16,6.141816469000308e-23,-7.986379719853663e-24,0.31621834462818327,0.0,1.21727854205881e-16,9.946505253304132e-17,1.1370147675246607,0.0,0.0,0.0,1.549395507320904,-1.1708954300028672e-16,1.1050258226770923e-15,1.9858898652690157e-17,576.3690138003058,576.3690138003062,576.3690138003058,576.3690138003062
0.47200000000000003,1.7203892915224493e-17,6.619790599242355e-19,0.24885278528832935,2.8846016435022617e-15,-7.513349601296026e-15,-2.043307837235929e-16,6.141816469000308e-23,-7.986379719853663e-24,0.3204131942295409,0.0,1.3359471332816906e-16,9.518675713368119e-17,1.1434838362260753,0.0,0.0,0.0,1.5071271012053065,-1.5140034763098753e-16,1.1714400928409764e-15,2.2135464705864766e-17,575.2956774250455,575.2956774250458,575.2956774250455,575.2956774250458
0.47600000000000003,1.7167123122354315e-17,7.887520208477248e-19,0.2534704861841265,2.8475791681811595e-15,-8.211559346334197e-15,-2.222309528818056e-16,6.141816469000308e-23,-7.986379719853663e-24,0.32461817076068994,0.0,1.439698818915219e-16,9.164733778103045e-17,1.1497792111357956,0.0,0.0,0.0,1.4652155374340214,-1.8738783495794012e-16,1.194245513113535e-15,3.023400449043915e-17,574.2294215543178,574.2294215543182,574.2294215543178,574.2294215543183
0.48000000000000004,1.710314070657749e-17,9.063750180243324e-19,0.25811219096152593,2.852269893203935e-15,-8.822324314537736e-15,-2.4087789217678023e-16,6.141816469000308e-23,-7.986379719853663e-24,0.3288330013193178,0.0,1.5261715416317181e-16,8.883800341949738e-17,1.1559049380198942,0.0,0.0,0.0,1.4236257507734313,-2.378190441464951e-16,1.1916980682379667e-15,3.185690329184763e-17,573.1693911433077,573.1693911433082,573.1693911433077,573.1693911433082
0.48400000000000004,1.7009701055644363e-17,1.0149471133998293e-18,0.26277722327192304,2.9016441987568384e-15,-9.315306072634566e-15,-2.6373209883966697e-16,6.141816469000308e-23,-7.986379719853663e-24,0.33305741592319466,0.0,1.589859194891417e-16,8.685081064889125e-17,1.1618629718044726,0.0,0.0,0.0,1.3824079082972567,-2.968402980702719e-16,1.148935876685307e-15,3.7554176653973286e-17,572.1169029805493,572.1169029805495,572.1169029805493,572.1169029805498
0.48800000000000004,1.6885110732760998e-17,1.1142987400763797e-18,0.26746488205763763,2.9864780675184892e-15,-9.677570553159025e-15,-2.904398954258849e-16,6.141816469000308e-23,-7.986379719853663e-24,0.3372911474848517,0.0,1.6270953781188776e-16,8.571826523842623e-17,1.1676503308714505,0.0,0.0,0.0,1.3416309318040585,-3.5136455488791196e-16,1.079296619557276e-15,4.301265829544132e-17,571.0737635087282,571.0737635087286,571.0737635087282,571.0737635087286
0.49200000000000005,1.672807770978766e-17,1.204187690004618e-18,0.2721744982175577,3.1027163789034154e-15,-9.89321542680716e-15,-3.19575662190786e-16,6.141816469000308e-23,-7.986379719853663e-24,0.34153393178645947,0.0,1.6342528054447186e-16,8.530661199785187e-17,1.1732661816928611,0.0,0.0,0.0,1.301249569958008,-4.047646224348644e-16,9.796597285861306e-16,4.696589600103533e-17,570.0388632902433,570.0388632902435,570.0388632902433,570.0388632902437
0.49600000000000005,1.6538474060617988e-17,1.2843920921216022e-18,0.27690542364928306,3.258129957944286e-15,-1.0014931284248551e-14,-3.524978024530922e-16,6.141816469000308e-23,-7.986379719853663e-24,0.3457855074549036,0.0,1.6127400592654832e-16,8.556570016636963e-17,1.178715696000476,0.0,0.0,0.0,1.261239834361845,-4.695767689620326e-16,9.19739620426488e-16,5.260769791589951e-17,569.0116308337189,569.0116308337191,569.0116308337189,569.0116308337193
0.5,1.6316422899861026e-17,1.3544947230942491e-18,0.28165699830538293,3.4530987120138036e-15,-1.0083692686576841e-14,-3.87510863530245e-16,6.141816469000308e-23,-7.986379719853663e-24,0.3500456159370581,0.0,1.5695867376145444e-16,8.650865950090992e-17,1.184001306287491,0.0,0.0,0.0,1.221643969125254,-5.40230733599011e-16,8.990744959702287e-16,5.64267220750528e-17,567.9931952669286,567.9931952669289,567.9931952669286,567.9931952669291
0.504,1.6061769774691993e-17,1.4138859612749242e-18,0.2864285817542004,3.6806218394064736e-15,-1.0094713674813345e-14,-4.228711798346095e-16,6.141816469000308e-23,-7.986379719853663e-24,0.35431400147525294,0.0,1.5128927633500294e-16,8.8136486218232e-17,1.189124282055082,0.0,0.0,0.0,1.1824405876915391,-6.082973126893063e-16,8.72947702864077e-16,5.829717341222794e-17,566.9830524415203,566.9830524415204,566.9830524415203,566.9830524415207
0.508,1.5774486626128188e-17,1.4617495718675893e-18,0.2912195171397196,3.924453712153965e-15,-1.0038369591750136e-14,-4.58093016509859e-16,6.141816469000308e-23,-7.986379719853663e-24,0.3585904110829363,0.0,1.4439498680192967e-16,9.029691251657053e-17,1.1940847982713276,0.0,0.0,0.0,1.143680863482543,-6.628618536875928e-16,8.308714269644282e-16,5.961693766089532e-17,565.982568839878,565.9825688398781,565.982568839878,565.9825688398785
0.512,1.5454403747014383e-17,1.4971159985862713e-18,0.29602915334242597,4.159089983106002e-15,-9.8699297629453e-15,-4.896408294756489e-16,6.141816469000308e-23,-7.986379719853663e-24,0.36287459452052856,0.0,1.3584004721972097e-16,9.261546660409419e-17,1.198882328947537,0.0,0.0,0.0,1.1053715586247126,-6.915786776413889e-16,7.341700160990171e-16,5.680339987755844e-17,564.9919707831478,564.991970783148,564.9919707831478,564.9919707831483
0.516,1.5102173184180553e-17,1.5190900089457639e-18,0.3008568522714444,4.364941681627829e-15,-9.594170924271764e-15,-5.190597145848918e-16,6.141816469000308e-23,-7.986379719853663e-24,0.36716630427146696,0.0,1.2527977747339421e-16,9.460518638009229e-17,1.2035180933045677,0.0,0.0,0.0,1.06750449341452,-6.970972636434581e-16,6.264164351076895e-16,5.564611359264381e-17,564.0110982951232,564.0110982951234,564.0110982951232,564.0110982951237
0.52,1.4718788952754883e-17,1.5272518111189768e-18,0.3057020026647275,4.560864172771082e-15,-9.216614785063059e-15,-5.44912174892408e-16,6.141816469000308e-23,-7.986379719853663e-24,0.3714652955184403,0.0,1.12593966915467e-16,9.606472872594174e-17,1.2079964618755767,0.0,0.0,0.0,1.0300431052427377,-7.18231791437985e-16,5.136359439952904e-16,5.272423676161772e-17,563.0390526622456,563.0390526622457,563.0390526622456,563.039052662246
0.524,1.4305683423743747e-17,1.5210094755786714e-18,0.3105639973983028,4.7435066218385005e-15,-8.754575541434683e-15,-5.689252479050881e-16,6.141816469000308e-23,-7.986379719853663e-24,0.37577132611981134,0.0,9.797059810364944e-17,9.70441543978443e-17,1.2123214539202953,0.0,0.0,0.0,0.9929960671563822,-7.374949314693463e-16,4.0848683244829296e-16,5.167516879804306e-17,562.0761053074573,562.0761053074573,562.0761053074573,562.0761053074576
