Time_s,X,Y,Z,Roll_deg,Pitch_deg,Yaw_deg,Ref_X,Ref_Y,Ref_Z,Ref_Yaw,vx,vy,vz,p,q,r,T_pert,tau_x,tau_y,tau_z,RPM_0,RPM_1,RPM_2,RPM_3
0.0040000000000000036,3.540239794309915e-22,6.0,0.010006999594037988,1.030927412343402e-18,1.9273866450044995e-18,-5.1486728461073835e-21,2.3111489085355726e-22,6.0,7.200000000000012e-05,0.0,2.453515573794988e-19,1200.0,2.0013999188075973,0.0,0.0,0.0,-10.19,-1.2038473377160515e-18,-3.682924215251166e-18,6.014464043099446e-21,0.0,0.0,0.0,0.0
0.008000000000000007,2.463424419293038e-22,6.0,0.010010999365392528,-6.049892775711399e-19,8.292770768298355e-19,2.077115276712925e-20,2.3111489085355726e-22,6.0,0.00021513340800000038,0.0,1.2433464212901758e-19,666.6666666666666,1.1123332628213918,0.0,0.0,0.0,-0.034338475932384316,1.83909593154603e-18,3.7322593574647986e-18,-3.006667449383035e-20,534.6826504237879,534.682650423788,534.6826504237879,534.682650423788
0.01200000000000001,3.5954728654889722e-22,6.0,0.01001499913738627,-1.9454571916535454e-18,1.469303538974356e-18,8.161334934260819e-21,2.3111489085355726e-22,6.0,0.00042854147030131276,0.0,2.848467212914656e-20,-7.043049079798053e-24,0.0009999429025551315,0.0,0.0,0.0,0.11268126795424338,1.6063810505885313e-18,-3.2910117433485094e-18,1.387624018908551e-20,538.6882898857357,538.6882898857358,538.6882898857357,538.6882898857358
0.016000000000000014,3.3591707905447706e-22,6.0,0.010018998918182361,-1.925208977460128e-18,1.1031900639957109e-18,1.174910783408933e-19,2.3111489085355726e-22,6.0,0.0007113732083620786,0.0,8.823707652520269e-21,-3.1371640751007084e-23,0.0009999438467103022,0.0,0.0,0.0,0.26021500563658706,1.1045130638076064e-19,1.822605757266899e-18,-1.2805121969325613e-19,542.6782123972301,542.6782123972303,542.6782123972301,542.6782123972301
0.020000000000000018,7.322736336583166e-23,6.0,0.010022998716766816,-1.9633422810211743e-18,2.8010375869315466e-20,1.8252312830619826e-19,2.3111489085355726e-22,6.0,0.0010627853561306145,0.0,-1.1244883334067506e-20,-4.077321899967822e-23,0.0009999465697017526,0.0,0.0,0.0,0.4082515376201834,1.785847245127609e-19,3.979883397615511e-18,-8.080214247427697e-20,546.6524625309181,546.6524625309182,546.6524625309181,546.6524625309181
0.02400000000000002,-3.454262592490415e-23,6.0,0.010026998537361222,-2.1646724043085572e-18,7.11468733448471e-20,1.170375380538152e-19,2.3111489085355726e-22,6.0,0.0014819422978531074,0.0,-5.267678160144666e-20,-3.912757579369933e-23,0.0009999511376240083,0.0,0.0,0.0,0.556779791992724,3.731332551349127e-19,-1.6409493834249667e-18,6.897993227388823e-20,550.6110856198836,550.6110856198837,550.6110856198836,550.6110856198836
0.027999999999999997,-6.534515365582711e-23,6.0,0.010030998381181792,-2.3839919833875464e-18,-9.654102726263046e-19,2.5962344294856854e-19,2.3111489085355726e-22,6.0,0.001968016006352204,0.0,-2.4551782538968915e-20,-3.840530955090339e-23,0.0009999566286535144,0.0,0.0,0.0,0.7057888086963886,4.0941878329474494e-19,3.98658804532583e-19,-1.713995980671237e-19,554.5541273284902,554.5541273284903,554.5541273284902,554.5541273284903
0.032,-3.568435744885306e-24,6.0,0.010034998247786846,-2.8347067485369768e-18,-7.2592171826248595e-19,2.467495865095431e-19,2.3111489085355726e-22,6.0,0.002520185981773086,0.0,-6.609428991241764e-21,-4.072491050923925e-23,0.0009999623610095973,0.0,0.0,0.0,0.8552677393185368,6.962883718867308e-19,-1.265023263224968e-18,4.328824772220611e-21,558.4816336479182,558.4816336479183,558.4816336479182,558.4816336479183
0.036000000000000004,2.1473060542565055e-23,6.0,0.010038998135860684,-3.573892054950202e-18,-5.256867918500166e-19,2.3862661028310636e-19,2.3111489085355726e-22,6.0,0.003137639190793574,0.0,1.1791378372647677e-20,-4.8981045080140043e-23,0.000999967948223969,0.0,0.0,0.0,1.0052058472119225,1.0659447117614419e-18,1.9410121915124348e-19,-7.095389699147554e-22,562.3936509005572,562.3936509005573,562.3936509005572,562.3936509005572
0.04000000000000001,6.53826434415216e-23,6.0,0.010042998043609142,-3.613468754454391e-18,-3.613599319976731e-19,1.2765560653624858e-19,2.3111489085355726e-22,6.0,0.0038195700062949476,0.0,3.9182513796019616e-21,-5.761456901244499e-23,0.0009999731915290647,0.0,0.0,0.0,1.1555925072846809,3.020313687169894e-19,-3.951774890788906e-19,1.1975011677988822e-19,566.2902257357856,566.2902257357857,566.2902257357856,566.2902257357856
0.04400000000000001,6.322124133256588e-23,6.0,0.0100469979691036,-3.829731688107254e-18,-7.233845579656368e-19,3.252286853506539e-19,2.3111489085355726e-22,6.0,0.004565180147490079,0.0,7.000405780392003e-21,-6.389465395586334e-23,0.0009999779864839492,0.0,0.0,0.0,1.3064172051269602,5.135826340083264e-19,9.488550333459417e-19,-2.361302472082053e-19,570.1714051090097,570.1714051090097,570.1714051090097,570.1714051090097
0.048000000000000015,2.7133748162583534e-23,6.0,0.010050997910452815,-3.8373490964327494e-18,-5.701634338442957e-19,3.052285085927455e-19,2.3111489085355726e-22,6.0,0.005373678620505558,0.0,-2.1285948139895193e-21,-6.62687428626206e-23,0.0009999823065586291,0.0,0.0,0.0,1.4576695363915286,2.8740272422620657e-19,2.69169806932829e-19,9.894028481284517e-21,574.0372362681105,574.0372362681106,574.0372362681105,574.0372362681105
0.05200000000000002,6.438668527608509e-23,6.0,0.010054997865825427,-3.9633264460826125e-18,-1.7511623805613742e-19,3.928272395678469e-19,2.3111489085355726e-22,6.0,0.006244281659414513,0.0,-2.262764320992935e-21,-6.777980466407469e-23,0.0009999861575543667,0.0,0.0,0.0,1.609339206141019,4.288153336470651e-19,-1.2445135928434234e-18,-1.149985477018983e-19,577.8877667396744,577.8877667396746,577.8877667396744,577.8877667396745
0.055999999999999994,8.171697125384756e-23,6.0,0.010058997833578885,-4.024631661246345e-18,-1.3980361076282186e-19,1.0466546205567932e-19,2.3111489085355726e-22,6.0,0.007176212667716816,0.0,5.693665879804041e-21,-6.868129263317113e-23,0.0009999895677802878,0.0,0.0,0.0,1.7614160276883775,3.6467714090030527e-19,1.7406856162984777e-19,3.2032463486452758e-19,581.7230443031054,581.7230443031056,581.7230443031054,581.7230443031054
0.06,7.957144452626878e-23,6.0,0.010062997812331886,-4.132706897407638e-18,-2.243720189226248e-19,1.321740874236578e-19,2.3111489085355726e-22,6.0,0.00816870216026346,0.0,4.440613406440532e-21,-7.059838386447332e-23,0.0009999925825171854,0.0,0.0,0.0,1.9138899217719287,4.2629392858232033e-19,3.227774933137148e-19,-3.6602769760987895e-20,585.5431169741771,585.5431169741772,585.5431169741771,585.5431169741772
0.064,9.450691422380943e-23,6.0,0.010066997800887142,-4.251769028634792e-18,-1.927041268193064e-19,6.396100559009826e-20,2.3111489085355726e-22,6.0,0.009220987705621774,0.0,3.662106767592281e-21,-7.263099623262185e-23,0.0009999952632672518,0.0,0.0,0.0,2.0667509159287234,4.493992965986709e-19,-2.1680918721470816e-19,7.407650053787467e-20,589.3480329942017,589.3480329942018,589.3480329942017,589.3480329942018
0.068,6.497378283086817e-23,6.0,0.010071022776728809,-4.168253158139273e-18,1.980475585499682e-18,-4.512757879195605e-19,2.3111489085355726e-22,6.0,0.010332313868878387,0.0,-1.326455627528437e-21,-7.382852312419027e-23,0.0010024955059945162,0.0,0.0,0.0,2.2199384491494962,2.239524468992641e-19,-2.016706853819489e-18,5.99067466893075e-19,593.136591068434,593.1365910684341,593.136591068434,593.136591068434
0.07200000000000001,-8.173096480486306e-22,6.0,0.010077045665749395,1.193481011190488e-18,8.686045086967987e-17,1.5293852076394018e-19,2.3111489085355726e-22,6.0,0.01150193215487664,0.0,-9.061490157727322e-20,-5.504314939786677e-23,0.0012047860287630469,0.0,0.0,0.0,2.369488570278644,-5.942395079516492e-18,-8.928986415073492e-17,-6.874396533516837e-19,596.8119909894667,596.8119909894668,596.8119909894667,596.8119909894668
0.07600000000000001,-2.670465891193364e-21,6.0,0.010090000998246853,8.772246834051131e-18,2.833539326393915e-16,1.7975103051831225e-18,2.3111489085355726e-22,6.0,0.01272910095188534,0.0,-2.821233445859236e-19,1.185111314152336e-22,0.0021003199723340638,0.0,0.0,0.0,2.509318095124861,-8.898776073307969e-18,-2.233912749482321e-16,-1.9275633575553588e-18,600.2281352443401,600.2281352443401,600.2281352443401,600.22813524434
0.08000000000000002,-4.6840293974183165e-21,6.0,0.010114630686092788,2.5588535147706074e-17,5.615292495354002e-16,2.547330563300342e-18,2.3111489085355726e-22,6.0,0.014013085475695667,0.0,-4.718687767557897e-19,9.43895847160837e-22,0.0041146316051140705,0.0,0.0,0.0,2.639651058324503,-2.021010851653124e-17,-3.4101639843914066e-16,-9.50008987444878e-19,603.3948563942521,603.3948563942521,603.3948563942521,603.394856394252
0.08400000000000002,-6.144577131898175e-21,6.0,0.010155172738597612,7.048692097369203e-17,9.279876008520096e-16,-1.9148424206357893e-18,2.3111489085355726e-22,6.0,0.015353157714143145,0.0,-5.219795455673606e-19,4.629103825854414e-21,0.0072828362395922774,0.0,0.0,0.0,2.761349474296925,-5.4170285393007137e-17,-4.716676988772621e-16,5.107455421050153e-18,606.3368511215731,606.3368511215731,606.3368511215731,606.336851121573
0.08800000000000002,-5.751057837479754e-21,6.0,0.010215580322710038,1.5122672296480968e-16,1.363122021855694e-15,-7.628523918510798e-18,2.3111489085355726e-22,6.0,0.016748596372051543,0.0,-4.081155493234171e-19,1.6960909689634953e-20,0.011499293151126695,0.0,0.0,0.0,2.874846919113843,-9.914293546294071e-17,-5.931641364847523e-16,6.752780129226031e-18,609.0677852445056,609.0677852445054,609.0677852445056,609.0677852445054
0.09200000000000003,-2.015067720112765e-21,6.0,0.01029941220202474,2.681769493300948e-16,1.8547018113997773e-15,-1.2275718099480886e-17,2.3111489085355726e-22,6.0,0.018198686816595647,0.0,-5.294689675028055e-20,4.8129528394821737e-20,0.01667585383439748,0.0,0.0,0.0,2.9808084895543767,-1.4705377644620206e-16,-7.0867114842851495e-16,5.742109019760053e-18,611.6063874842438,611.6063874842437,611.6063874842438,611.6063874842437
0.09600000000000003,7.147808215080666e-21,6.0,0.010409924712136226,4.013836128135159e-16,2.3554716047092504e-15,-1.4311329110633442e-17,2.3111489085355726e-22,6.0,0.019702721023079826,0.0,5.983721517553716e-19,1.0927008348778076e-19,0.0227261245179123,0.0,0.0,0.0,3.0797252751289443,-1.7422150144844474e-16,-7.814351568945521e-16,2.883052662531556e-18,613.9667395896104,613.9667395896103,613.9667395896104,613.9667395896103
0.10000000000000003,2.366515445317942e-20,6.0,0.010550088363943461,5.323704438043147e-16,2.844411962883814e-15,-1.5914169050747668e-17,2.3111489085355726e-22,6.0,0.021259997521129365,0.0,1.5923834056374903e-18,2.07143379487858e-19,0.029573036660424795,0.0,0.0,0.0,3.1720643952014975,-1.8101853738886976e-16,-8.306246194065181e-16,2.4620954754273365e-18,616.1619755264759,616.1619755264758,616.1619755264759,616.1619755264758
0.10400000000000004,4.8804270416356304e-20,6.0,0.010722580703769634,6.718518779405358e-16,3.3668992334412626e-15,-1.6077136605576e-17,2.3111489085355726e-22,6.0,0.022869821341291546,0.0,2.8569852273392115e-18,3.452661097048356e-19,0.03714398670926489,0.0,0.0,0.0,3.2583166571703797,-2.0026681558036344e-16,-9.263631124699375e-16,8.470256270252394e-19,618.2054633987615,618.2054633987613,618.2054633987614,618.2054633987613
0.10800000000000004,8.412505112410292e-20,6.0,0.010929880103791454,8.109587818310549e-16,3.9487674967203724e-15,-1.8184714922867146e-17,2.3111489085355726e-22,6.0,0.024531503962043497,0.0,4.307773067289577e-18,5.287540802435156e-19,0.04537515055021267,0.0,0.0,0.0,3.3387919446802727,-2.098365769073876e-16,-1.0595359493274065e-15,3.1264528666798732e-18,620.1060106359627,620.1060106359623,620.1060106359625,620.1060106359623
0.11199999999999999,1.324269966245898e-19,6.0,0.011174318721092426,9.50059464050396e-16,4.515112300202369e-15,-2.2356380110885595e-17,2.3111489085355726e-22,6.0,0.026244363257203765,0.0,6.027691016260428e-18,7.622441658176836e-19,0.054218294070393705,0.0,0.0,0.0,3.4136990956274045,-2.199079277615235e-16,-1.1256211352435816e-15,5.625446205841303e-18,621.8698383283786,621.8698383283784,621.8698383283786,621.8698383283784
0.11599999999999999,1.9591367243188868e-19,6.0,0.01145804756454535,1.0887832666880222e-15,5.054799979687881e-15,-2.9603984364091496e-17,2.3111489085355726e-22,6.0,0.028007723443744872,0.0,8.110828380660157e-18,1.047477478208776e-18,0.06363180775651733,0.0,0.0,0.0,3.4833225922553837,-2.296431345087703e-16,-1.1736397584853312e-15,9.391492198402014e-18,623.5047784413615,623.5047784413613,623.5047784413615,623.5047784413613
0.12,2.767685330908843e-19,6.0,0.011783067688324792,1.2293461314211803e-15,5.552703602137608e-15,-3.18768762546165e-17,2.3111489085355726e-22,6.0,0.029820915030003513,0.0,1.0582189295838769e-17,1.3886013817623238e-18,0.0735749248436,0.0,0.0,0.0,3.5478894695834824,-2.4203704370551483e-16,-1.2044040574669062e-15,3.879918209441511e-18,625.017153948879,625.0171539488787,625.0171539488789,625.0171539488787
0.124,3.775976447085496e-19,6.0,0.012151233213697986,1.3824626705724983e-15,5.941551895243184e-15,-3.51877501807709e-17,2.3111489085355726e-22,6.0,0.03168327476428597,0.0,1.3483770088998423e-17,1.7942103917397665e-18,0.0840089000073074,0.0,0.0,0.0,3.6076254957519023,-2.671666436465212e-16,-1.161141309265307e-15,5.1880030438863156e-18,626.4131227075021,626.4131227075019,626.413122707502,626.4131227075019
0.128,5.000532069606475e-19,6.0,0.012564211607949224,1.5429590002413537e-15,6.216525241981686e-15,-3.807297935620584e-17,2.3111489085355726e-22,6.0,0.033594145583865524,0.0,1.685139706902408e-17,2.2762420038128222e-18,0.09489369195342083,0.0,0.0,0.0,3.6628418228100528,-2.8721987728717024e-16,-1.0964589132250952e-15,4.829194373971786e-18,627.7007097120733,627.700709712073,627.7007097120733,627.700709712073
0.184,4.748111924030724e-18,6.0,0.023532443974340324,4.3057081413175806e-15,8.04963920947288e-15,-5.135178932609045e-17,2.3111489085355726e-22,6.0,0.06972692859908838,0.0,7.596827966722725e-17,1.9073711173463148e-17,0.2695809068294273,0.0,0.0,0.0,5.065978477676443,-5.568010104383194e-16,-1.274233601869287e-15,3.240835545019491e-18,659.5774280396437,659.5774280396433,659.5774280396436,659.5774280396433
0.188,5.2500219479509735e-18,6.0,0.0247022789633773,4.542851888908864e-15,8.206401009227375e-15,-4.7045486998364546e-17,2.3111489085355726e-22,6.0,0.07234636054530455,0.0,8.048170936959739e-17,2.1132559016717242e-17,0.28264815829706635,0.0,0.0,0.0,4.417453974000406,-6.197825173589347e-16,-3.4976858423057527e-15,-2.855055722696673e-18,645.0399436538077,645.0399436538066,645.0399436538074,645.0399436538067
0.192,5.7811708009640095e-18,6.0,0.025924523524617687,4.773315785401761e-15,8.362719591896847e-15,-4.478901890072816e-17,2.3111489085355726e-22,6.0,0.07500375483918649,0.0,8.50523332086423e-17,2.331511127527538e-17,0.29573654109970116,0.0,0.0,0.0,4.434534587734361,-6.313701997397339e-16,-1.7152042442320317e-15,-6.340714384917121e-19,645.4270253247792,645.4270253247786,645.4270253247789,645.4270253247787
0.196,6.3420977783029244e-18,6.0,0.027199236723599442,5.004857431708307e-15,8.519702340606787e-15,-4.2630647950399625e-17,2.3111489085355726e-22,6.0,0.07769856026636764,0.0,8.967336877572721e-17,2.5601415935821178e-17,0.30884222803143074,0.0,0.0,0.0,4.449921813750199,-6.517207941122094e-16,-1.7728004865771643e-15,-6.090094362742229e-19,645.7755327083308,645.7755327083303,645.7755327083306,645.7755327083304
0.2,6.9333730120658176e-18,6.0,0.028526466925340704,5.242648531964331e-15,8.675131342586156e-15,-4.1613107063220894e-17,2.3111489085355726e-22,6.0,0.08043023088025301,0.0,9.436416746488093e-17,2.799512473664212e-17,0.3219620845678839,0.0,0.0,0.0,4.463628544944503,-6.783459006007779e-16,-1.8293507210541354e-15,6.380070006655837e-19,646.0858200210047,646.0858200210042,646.0858200210046,646.0858200210043
0.20400000000000001,7.555385884712958e-18,6.0,0.02990625373195588,5.483362459800493e-15,8.844524935634808e-15,-4.153070018415114e-17,2.3111489085355726e-22,6.0,0.08319822595846008,0.0,9.908663518448908e-17,3.051896636139704e-17,0.33509354365817456,0.0,0.0,0.0,4.475664160053411,-7.016797596980254e-16,-1.902987522442542e-15,1.6915130344186473e-18,646.3581544775725,646.3581544775718,646.3581544775723,646.3581544775719
0.20800000000000002,8.208853588524835e-18,6.0,0.03133862956972032,5.724041600175498e-15,9.01384185044592e-15,-4.259149880833749e-17,2.3111489085355726e-22,6.0,0.08600200995959416,0.0,1.0384690567918974e-16,3.3172546560579095e-17,0.3482345030965783,0.0,0.0,0.0,4.486035172680788,-7.21927835802611e-16,-1.966051724363417e-15,3.0264733353309674e-18,646.5927313347531,646.5927313347526,646.592731334753,646.5927313347527
0.21200000000000002,8.89439566881416e-18,6.0,0.03282362098890407,5.9676404015157244e-15,9.180124841796187e-15,-4.128441735944785e-17,2.3111489085355726e-22,6.0,0.08884105248035608,0.0,1.0865622708002652e-16,3.5946898036849565e-17,0.3613832414193774,0.0,0.0,0.0,4.494745762990519,-7.457915639366342e-16,-2.025856987239699e-15,3.0694823013585515e-19,646.7896861773386,646.7896861773379,646.7896861773384,646.789686177338
0.21600000000000003,9.612562742907738e-18,6.0,0.03436124972829069,6.211201323735799e-15,9.346328658554703e-15,-3.781752733262936e-17,2.3111489085355726e-22,6.0,0.09171482821297956,0.0,1.1354812197689897e-16,3.8840240901185903e-17,0.37453834899460847,0.0,0.0,0.0,4.501798213191355,-7.665713940874613e-16,-2.0893716219989408e-15,-2.2668404934636037e-18,646.9491049482327,646.949104948232,646.9491049482325,646.9491049482322
0.22000000000000003,1.0363893239037898e-17,6.0,0.03595153358693611,6.454722660071035e-15,9.516147255518355e-15,-3.4948721950083043e-17,2.3111489085355726e-22,6.0,0.0946228169029959,0.0,1.1850643751290964e-16,4.185161336557337e-17,0.38769867156799237,0.0,0.0,0.0,4.507193264158169,-7.875166785306561e-16,-2.1582791023719724e-15,-1.7079045532771201e-18,647.0710321327641,647.0710321327635,647.071032132764,647.0710321327637
0.22400000000000003,1.114886600999462e-17,6.0,0.03759449262246724,6.695985654584521e-15,9.699926719664256e-15,-3.166852445745504e-17,2.3111489085355726e-22,6.0,0.09756450330732354,0.0,1.234799604737193e-16,4.497319833556714e-17,0.4008638124612787,0.0,0.0,0.0,4.510919276690963,-8.060383527746552e-16,-2.2400542965175978e-15,-2.303838090870205e-18,647.1552259369363,647.1552259369356,647.1552259369361,647.1552259369357
0.22800000000000004,1.1968278565640206e-17,6.0,0.03929100205714604,6.934988255763671e-15,9.89545037534891e-15,9.550344389832675e-08,2.3111489085355726e-22,6.0,0.10053937715268017,0.0,1.2843691505032283e-16,4.820485628125068e-17,0.41411932684514297,0.0,0.0,0.0,4.5112336259634525,-8.245716339747959e-16,-2.3251158498247224e-15,-1.1156312445375283e-07,647.1624860946259,647.1624860946251,647.1621709886773,647.162170988677
0.23200000000000004,1.2823395490911776e-17,6.0,0.0410433893375672,7.166555436079025e-15,1.0083503329106994e-14,3.464469615796068e-07,2.3111489085355726e-22,6.0,0.10354693309431504,0.0,1.3342876301331328e-16,5.156180556741486e-17,0.4276963488209974,0.0,0.0,0.0,4.505154752510282,-8.37074152110906e-16,-2.395483324092769e-15,-2.9707005644268995e-07,647.0253844563078,647.025384456307,647.0245452147084,647.024545214708
0.23600000000000004,1.371536408787963e-17,6.0,0.04285379601040431,7.377382325951898e-15,1.0253737135671357e-14,6.621094087398696e-07,2.3111489085355726e-22,6.0,0.10658667067505889,0.0,1.385504130569426e-16,5.5037062181935747e-17,0.4417883404688565,0.0,0.0,0.0,4.492979464890994,-8.336933556832941e-16,-2.4537955528523985e-15,-3.830007349920433e-07,646.7502945534519,646.7502945534511,646.7492120918553,646.7492120918549
0.24000000000000005,1.4645421863438547e-17,6.0,0.044723972930403595,7.530512478280494e-15,1.0375847738662506e-14,1.0255675107234952e-06,2.3111489085355726e-22,6.0,0.10965809428468952,0.0,1.43958802144052e-16,5.848947456371077e-17,0.45639054829125847,0.0,0.0,0.0,4.475426189373602,-7.858862333956909e-16,-2.478375201631321e-15,-4.5184195757243154e-07,646.3534098405538,646.3534098405531,646.3521320310808,646.3521320310805
0.244,1.5614414165341888e-17,6.0,0.046655328918589284,7.625197976497561e-15,1.0437263897451597e-14,1.4226656398087144e-06,2.3111489085355726e-22,6.0,0.11276071311961028,0.0,1.4981958059802733e-16,6.172093388655039e-17,0.47141066356902395,0.0,0.0,0.0,4.453127117951634,-7.33367209939043e-16,-2.4823040484143842e-15,-5.06135186100536e-07,645.8488226477665,645.8488226477658,645.8473901785384,645.8473901785379
0.248,1.6622640632926818e-17,6.0,0.0486489751683071,7.679167199451396e-15,1.045201921746252e-14,1.841205568894784e-06,2.3111489085355726e-22,6.0,0.11589404114283973,0.0,1.5617532523383021e-16,6.461628150689758e-17,0.4867657459026737,0.0,0.0,0.0,4.426635287760623,-6.976197076604943e-16,-2.493653275059492e-15,-5.47588046915551e-07,645.248815495146,645.2488154951453,645.2472642643165,645.2472642643162
0.252,1.7670846594214964e-17,6.0,0.050705756666030465,7.723454422648344e-15,1.0366896598364022e-14,2.2705434505825723e-06,2.3111489085355726e-22,6.0,0.11905759704430928,0.0,1.6312762094685242e-16,6.726614155787632e-17,0.5023829034969861,0.0,0.0,0.0,4.396449519793661,-6.953653364277534e-16,-2.44593062392806e-15,-5.775168997646354e-07,644.5644399109714,644.5644399109707,644.562802159234,644.5628021592337
0.256,1.8759276035571264e-17,6.0,0.052826290418142796,7.735886952478842e-15,1.0141234071480803e-14,2.701958699546341e-06,2.3111489085355726e-22,6.0,0.1222509042014676,0.0,1.709811895858462e-16,6.975275410352716e-17,0.5181983542031089,0.0,0.0,0.0,4.362999604854541,-6.665880327561081e-16,-2.339440725275634e-15,-5.977321020882308e-07,643.8051910277371,643.8051910277364,643.8034939495908,643.8034939495905
0.26,1.988736706207414e-17,6.0,0.055011015465309475,7.716459281358055e-15,9.75875229258527e-15,3.1281057984492254e-06,2.3111489085355726e-22,6.0,0.12547349064018878,0.0,1.8010620030898062e-16,7.204042978887269e-17,0.5341584048842669,0.0,0.0,0.0,4.326621162132174,-6.356346777466003e-16,-2.1958233226374827e-15,-6.094820004682337e-07,642.9784379168206,642.9784379168199,642.9767052533391,642.9767052533388
0.264,2.1053422000445023e-17,6.0,0.0572602119301015,7.699125599696902e-15,9.252641275691595e-15,3.5428065126710073e-06,2.3111489085355726e-22,6.0,0.12872488899598225,0.0,1.9046864999286748e-16,7.412391404364131e-17,0.5502188825084,0.0,0.0,0.0,4.287616892439154,-6.421384916823633e-16,-2.0671072393982682e-15,-6.138281673342145e-07,642.0908147641031,642.0908147641024,642.0890673328096,642.0890673328093
0.268,2.2255404383149634e-17,6.0,0.05957399176432949,7.658034924453239e-15,8.636251012918698e-15,3.9409852685873136e-06,2.3111489085355726e-22,6.0,0.13200463647550234,0.0,2.01905028806882e-16,7.607207209845286e-17,0.5663384661466014,0.0,0.0,0.0,4.246313406930428,-6.185863660151873e-16,-1.9406312584133987e-15,-6.118041877896999e-07,641.1495190976,641.1495190975994,641.1477748711135,641.1477748711131
0.272,2.3491347587082443e-17,6.0,0.061952336222160835,7.528988989413693e-15,7.868991573965142e-15,4.318572433142157e-06,2.3111489085355726e-22,6.0,0.1353122748183551,0.0,2.143837324190419e-16,7.772517231230331e-17,0.5824791757745272,0.0,0.0,0.0,4.202966691388356,-5.184145988200154e-16,-1.7586964726556787e-15,-6.04375586651482e-07,640.1601626956383,640.1601626956378,640.1584369848435,640.1584369848432
0.276,2.4758530905985777e-17,6.0,0.06439511400767318,7.266959866218586e-15,6.930828302889923e-15,4.672366956864711e-06,2.3111489085355726e-22,6.0,0.13864735025920014,0.0,2.2811319675319686e-16,7.853425839613011e-17,0.5986086702975971,0.0,0.0,0.0,4.157800133108289,-3.5955758057295353e-16,-1.5328541397634404e-15,-5.92388457102542e-07,639.1276343724412,639.1276343724409,639.1259401566352,639.1259401566349
0.28,2.6053362921838255e-17,6.0,0.0669021019883408,6.890947363951295e-15,5.820217639193445e-15,4.999889139148082e-06,2.3111489085355726e-22,6.0,0.1420094134901457,0.0,2.433116898389534e-16,7.804242263254126e-17,0.614700280114027,0.0,0.0,0.0,4.110998734634026,-2.13610618220975e-16,-1.2811829184520694e-15,-5.765523422509291e-07,638.0559652677274,638.0559652677271,638.0543135733462,638.0543135733459
0.28400000000000003,2.737148658634889e-17,6.0,0.06947299455617607,6.425267053673016e-15,4.545972064226432e-15,5.2994444166839755e-06,2.3111489085355726e-22,6.0,0.1453980196234343,0.0,2.5996533104306563e-16,7.61267866092369e-17,0.6307311384656095,0.0,0.0,0.0,4.06273149299075,-8.800077584187759e-17,-1.015997089689048e-15,-5.576807479730993e-07,636.948838627924,636.9488386279239,636.9472382195709,636.9472382195706
0.28800000000000003,2.8707171588276165e-17,6.0,0.07210737988293459,5.844282066679127e-15,3.1871588148861422e-15,5.5698007232746e-06,2.3111489085355726e-22,6.0,0.14881272815441696,0.0,2.777229693805777e-16,7.283533656899794e-17,0.646678270125016,0.0,0.0,0.0,4.0132182900502125,7.400287226791219e-17,-8.120393515157787e-16,-5.362424073479631e-07,635.8111267388734,635.8111267388733,635.8095850997597,635.8095850997596
0.29200000000000004,3.0055417452997326e-17,6.0,0.07480478895778478,5.165679368214955e-15,1.71350102815617e-15,5.8103556966109095e-06,2.3111489085355726e-22,6.0,0.15225310292481428,0.0,2.9619778574619424e-16,6.81065663339229e-17,0.6625203232319714,0.0,0.0,0.0,3.9625829361175375,2.236432894154093e-16,-5.702489059369241e-16,-5.129202830170029e-07,634.6455187065453,634.6455187065453,634.6440414078216,634.6440414078214
0.29600000000000004,3.141125807871664e-17,6.0,0.0775646756980954,4.339846378118513e-15,5.4081383897924614e-17,6.020879011470259e-06,2.3111489085355726e-22,6.0,0.15571871208626153,0.0,3.155779923181648e-16,6.170267140225872e-17,0.6782398045324254,0.0,0.0,0.0,3.910991494574661,4.3836700841451423e-16,-2.334372769207917e-16,-4.881221576669663e-07,633.4556944442814,633.4556944442817,633.4542859278353,633.4542859278351
0.30000000000000004,3.27684085661264e-17,6.0,0.08038644878856437,3.3497939804129387e-15,-1.7947958105916542e-15,6.20149585028166e-06,2.3111489085355726e-22,6.0,0.1592091280641363,0.0,3.3638427951322694e-16,5.327551269786712e-17,0.6938208717847172,0.0,0.0,0.0,3.8585479321377907,6.835739653067056e-16,1.40699336112117e-16,-4.6225176595125987e-07,632.2439223267603,632.2439223267606,632.2425859050061,632.242585905006
0.30400000000000005,3.4119389856006636e-17,6.0,0.08326949926637091,2.2434510520019767e-15,-3.788140510903211e-15,6.352413921320411e-06,2.3111489085355726e-22,6.0,0.16272392752166628,0.0,3.586561367110255e-16,4.2554493973697645e-17,0.7092540051749058,0.0,0.0,0.0,3.8053017370038624,8.847337195221323e-16,4.954392846615222e-16,-4.354085636356124e-07,631.0112228363921,631.0112228363926,631.0099615622889,631.0099615622888
0.308,3.545628929305054e-17,6.0,0.08621322268991728,1.0482169850045912e-15,-5.894108089558907e-15,6.474273777789486e-06,2.3111489085355726e-22,6.0,0.16626269132431507,0.0,3.8194892104042186e-16,2.972787068767287e-17,0.7245357028851943,0.0,0.0,0.0,3.751258031680047,1.062622911334971e-15,8.354098939356506e-16,-4.0810463784631037e-07,629.7575927646865,629.757592764687,629.7564082302579,629.7564082302579
0.312,3.6770925476493715e-17,6.0,0.08921694730473202,-2.1449460089854272e-16,-8.093554624810347e-15,6.567950250963681e-06,2.3111489085355726e-22,6.0,0.16982500450444443,0.0,4.0580815309546837e-16,1.5113080801853057e-17,0.7396597205801492,0.0,0.0,0.0,3.6965676460040204,1.2224197434325455e-15,1.1719156944132002e-15,-3.806379369473042e-07,628.4864164986989,628.4864164986997,628.485309452566,628.485309452566
0.316,3.805493177702697e-17,6.0,0.09227996760890794,-1.517386460690909e-15,-1.0380590472371827e-14,6.634470347979001e-06,2.3111489085355726e-22,6.0,0.1734104562262501,0.0,4.2999454541307615e-16,-1.0281719525738201e-18,0.7546149682353925,0.0,0.0,0.0,3.641315496735623,1.3558365099874662e-15,1.5185796035801178e-15,-3.532201822240265e-07,627.1995673841991,627.1995673842,627.1985379720769,627.198537972077
0.32,3.929941312412585e-17,6.0,0.09540155070920801,-2.8353136728613283e-15,-1.2724180507985924e-14,6.675000963217273e-06,2.3111489085355726e-22,6.0,0.17701863975096996,0.0,4.542646348457293e-16,-1.840427544871392e-17,0.7693922429460682,0.0,0.0,0.0,3.585574738914579,1.4635479496405455e-15,1.849993889466785e-15,-3.260550604451054e-07,625.8986581063293,625.8986581063303,625.8977058882643,625.8977058882645
0.324,4.04955618808072e-17,6.0,0.09858094757974845,-4.1638821289799505e-15,-1.5119906047516656e-14,6.690722005907773e-06,2.3111489085355726e-22,6.0,0.18064915240236215,0.0,4.783777513337283e-16,-3.674213231624186e-17,0.7839856858374933,0.0,0.0,0.0,3.5293966129411887,1.5680764863544149e-15,2.1885721496312154e-15,-2.9920387704063324e-07,624.5848005025101,624.5848005025113,624.5839248631571,624.5839248631573
0.328,4.1634620437653496e-17,6.0,0.10181741637893664,-5.523757756469577e-15,-1.758106974210286e-14,6.682916046380492e-06,2.3111489085355726e-22,6.0,0.18430159553245115,0.0,5.022154627845251e-16,-5.597640657198197e-17,0.7983930766661458,0.0,0.0,0.0,3.4727856127654344,1.6983924852807305e-15,2.5552598738085893e-15,-2.7283327524497607e-07,623.2580183630008,623.2580183630022,623.257218199196,623.2572181991964
0.332,4.270738092166935e-17,6.0,0.10511018462384371,-6.897184765650938e-15,-2.0092135375567842e-14,6.653057028224402e-06,2.3111489085355726e-22,6.0,0.1879755744875399,0.0,5.257799851826869e-16,-7.615026168095935e-17,0.8126116987915821,0.0,0.0,0.0,3.4158228318528447,1.811064704302818e-15,2.923279219769935e-15,-2.472178332568528e-07,621.9201360095029,621.9201360095043,621.9194094108428,621.9194094108433
0.336,4.3704022224039067e-17,6.0,0.10845842907793812,-8.241650500500307e-15,-2.2588403652066674e-14,6.602648010975589e-06,2.3111489085355726e-22,6.0,0.19167069857448604,0.0,5.487535122524259e-16,-9.712600119785724e-17,0.8266334559372852,0.0,0.0,0.0,3.358631219041547,1.875979026189117e-15,3.2366289927907565e-15,-2.224505483795185e-07,620.5739787826185,620.5739787826201,620.5733235593526,620.5733235593531
0.34,4.46146477403937e-17,6.0,0.11186132247056921,-9.502074808992042e-15,-2.499112365862544e-14,6.533013120886898e-06,2.3111489085355726e-22,6.0,0.19538658102724016,0.0,5.702721029791843e-16,-1.1835216697388588e-16,0.8404508405404272,0.0,0.0,0.0,3.301240583234168,1.8755326436686365e-15,3.4688831752221447e-15,-1.9838268404421586e-07,619.2201964051698,619.2201964051714,619.2196107958015,619.2196107958019
0.34400000000000003,4.5429886004842795e-17,6.0,0.11531812594282959,-1.0618570698252807e-14,-2.7240770238921324e-14,6.445336588065325e-06,2.3111489085355726e-22,6.0,0.19912283897364425,0.0,5.892883476557557e-16,-1.3901463978669898e-16,0.8540701478934182,0.0,0.0,0.0,3.2434933011102856,1.8002872695226264e-15,3.6302830692406265e-15,-1.749038500966383e-07,617.8550082499975,617.8550082499992,617.854490807444,617.8544908074446
0.34800000000000003,4.6140913908976647e-17,6.0,0.11882803915407927,-1.15670762950217e-14,-2.927041251387555e-14,6.341360088908548e-06,2.3111489085355726e-22,6.0,0.20287909340248841,0.0,6.048090401842131e-16,-1.5827504601450583e-16,0.8674945749440541,0.0,0.0,0.0,3.18553320088194,1.6878813609024972e-15,3.707467998789627e-15,-1.5271260070792457e-07,616.4817510449597,616.4817510449612,616.4812982475133,616.4812982475139
0.35200000000000004,4.673973257119899e-17,6.0,0.12239017623959153,-1.2350868200400273e-14,-3.100718263539931e-14,6.222469865369926e-06,2.3111489085355726e-22,6.0,0.20665496913082396,0.0,6.158487898084278e-16,-1.7556191908177294e-16,0.8807145825689726,0.0,0.0,0.0,3.127554923483576,1.5684762526690084e-15,3.685267991763154e-15,-1.3146411312753506e-07,615.1049972663936,615.1049972663952,615.1046065989149,615.1046065989154
0.35600000000000004,4.721932973406202e-17,6.0,0.1260037611335741,-1.3014613378903586e-14,-3.237339157242681e-14,6.089637308882219e-06,2.3111489085355726e-22,6.0,0.21045009477153076,0.0,6.213527892999702e-16,-1.9082907190440216e-16,0.8937261440178561,0.0,0.0,0.0,3.069359483211863,1.4905138829846473e-15,3.5504401512761952e-15,-1.1072965872826277e-07,613.7199817880595,613.719981788061,613.7196519938881,613.7196519938888
0.36000000000000004,4.757392283429639e-17,6.0,0.12966815952831934,-1.3595213361495168e-14,-3.3285749144248023e-14,5.943732365405038e-06,2.3111489085355726e-22,6.0,0.21426410270113733,0.0,6.201272113759044e-16,-2.0439508357483834e-16,0.9065527646144058,0.0,0.0,0.0,3.0106795898376206,1.4478969280830158e-15,3.2873566907949233e-15,-9.042964825558241e-08,612.3202655273716,612.3202655273731,612.3199955785318,612.3199955785325
0.36400000000000005,4.779967532836751e-17,6.0,0.13338268810887252,-1.412149858639282e-14,-3.36864971576914e-14,5.786482125024061e-06,2.3111489085355726e-22,6.0,0.21809662902789137,0.0,6.110848261559156e-16,-2.1683208407210252e-16,0.9192107763119808,0.0,0.0,0.0,2.9516306517150324,1.433665879416119e-15,2.9105677924446278e-15,-7.160017174458576e-08,610.9085113324974,610.9085113324988,610.9082970991246,610.9082970991251
0.36800000000000005,4.789502141943755e-17,6.0,0.13714638552681221,-1.4557226252569742e-14,-3.3540800360862644e-14,5.619569313436486e-06,2.3111489085355726e-22,6.0,0.22194731356007935,0.0,5.93418925561735e-16,-2.283152141044914e-16,0.9316742028735476,0.0,0.0,0.0,2.8927945078834223,1.3737661822809055e-15,2.4372200914185137e-15,-5.4259532399685315e-08,609.4985944788752,609.4985944788764,609.498431754521,609.4984317545213
0.37200000000000005,4.786142082550485e-17,6.0,0.14095824742476218,-1.4892808415460455e-14,-3.291173884217003e-14,5.444370054576401e-06,2.3111489085355726e-22,6.0,0.22581579977459293,0.0,5.670356211187657e-16,-2.3863297814141984e-16,0.9439032793787605,0.0,0.0,0.0,2.8342849311225593,1.296781986279012e-15,1.968256273146928e-15,-3.811799443602448e-08,608.0932631165035,608.0932631165044,608.0931485364418,608.0931485364421
0.37600000000000006,4.7701946797998176e-17,6.0,0.144817313175248,-1.510569089576476e-14,-3.1842065358491843e-14,5.262174651737294e-06,2.3111489085355726e-22,6.0,0.22970173478574046,0.0,5.326347268732775e-16,-2.4738736788328784e-16,0.9558858906825701,0.0,0.0,0.0,2.776041083583315,1.1868466379077864e-15,1.4978554520789753e-15,-2.3131235348475895e-08,606.6910827475239,606.6910827475247,606.6910130559295,606.6910130559296
0.38000000000000006,4.7421281849462187e-17,6.0,0.14872263197578436,-1.5227868401924146e-14,-3.037489512151695e-14,5.074218660106516e-06,2.3111489085355726e-22,6.0,0.23360476931430194,0.0,4.912212819798385e-16,-2.5437130108787335e-16,0.9676276397768303,0.0,0.0,0.0,2.718069599533616,1.1060306717499844e-15,1.0277356110030349e-15,-9.287796274148723e-09,605.2922355197536,605.2922355197543,605.2922074720864,605.2922074720864
0.38400000000000006,4.702556879366928e-17,6.0,0.15267325943855992,-1.5212839497956442e-14,-2.855406831256052e-14,4.881665109003053e-06,2.3111489085355726e-22,6.0,0.23752455765682534,0.0,4.436496069917925e-16,-2.595079603800339e-16,0.9791320764284321,0.0,0.0,0.0,2.660383776387455,9.647961470116122e-16,5.61754907943484e-16,3.4467107627117417e-09,603.8970665172121,603.8970665172127,603.8970769497769,603.8970769497769
0.38800000000000007,4.6522073650072713e-17,6.0,0.156668248958007,-1.5013317832530793e-14,-2.641021261409687e-14,4.685652085094035e-06,2.3111489085355726e-22,6.0,0.24146075765516284,0.0,3.9072636275970007e-16,-2.623320067580894e-16,0.9903999565949615,0.0,0.0,0.0,2.603014281285739,7.589508259672708e-16,8.986692920504769e-17,1.5053985967432324e-08,602.5063455853139,602.5063455853142,602.5063912561569,602.5063912561568
0.39200000000000007,4.592007560733907e-17,6.0,0.1607066385681018,-1.4687202286231844e-14,-2.405953094371988e-14,4.487187143516717e-06,2.3111489085355726e-22,6.0,0.2454130306662447,0.0,3.335807563392347e-16,-2.623581533469709e-16,1.0014298376766706,0.0,0.0,0.0,2.5460185794849304,6.079605584274569e-16,-2.9753849303789385e-16,2.5640018823723073e-08,601.1215012823582,601.1215012823584,601.1215792483507,601.1215792483505
0.3960000000000001,4.52287880094191e-17,6.0,0.16478750563303673,-1.4243022057079886e-14,-2.15379050869387e-14,4.28719946574577e-06,2.3111489085355726e-22,6.0,0.2493810415320896,0.0,2.7358463336972906e-16,-2.597261597625623e-16,1.0122235896750265,0.0,0.0,0.0,2.4893436839772503,4.58045650259054e-16,-6.640365009524697e-16,3.525515988263893e-08,599.7412823636103,599.7412823636104,599.7413898139686,599.7413898139683
0.4000000000000001,4.445758163683617e-17,6.0,0.16890993460833537,-1.369913827951432e-14,-1.884387242284934e-14,4.086561706761049e-06,2.3111489085355726e-22,6.0,0.2533644585500492,0.0,2.1172374070268277e-16,-2.5484579722188276e-16,1.0227858625679043,0.0,0.0,0.0,2.4330008363739086,3.2118799423301644e-16,-1.0535899038561993e-15,4.39273921542648e-08,598.3659955058253,598.3659955058253,598.3661296950456,598.3661296950453
0.4040000000000001,4.361599824654543e-17,6.0,0.17307300629704325,-1.3026340486232686e-14,-1.5941565644110178e-14,3.886112372409455e-06,2.3111489085355726e-22,6.0,0.25736295344328547,0.0,1.47926915025286e-16,-2.4772638481696154e-16,1.0331187261682224,0.0,0.0,0.0,2.3770229095315103,1.4302266156748705e-16,-1.507028319320039e-15,5.166081858847792e-08,596.9964799480366,596.9964799480364,596.9966381233186,596.9966381233182
0.4080000000000001,4.2715280735700764e-17,6.0,0.1772757854439296,-1.2226092098070412e-14,-1.2901075381702126e-14,3.6865835958617903e-06,2.3111489085355726e-22,6.0,0.26137620133147893,0.0,8.235358438787237e-17,-2.3817740111929845e-16,1.0432204212483391,0.0,0.0,0.0,2.3214681226381506,-4.27189348419619e-17,-1.9213416355940315e-15,5.8545254388779514e-08,595.6342045947288,595.6342045947282,595.6343842587701,595.6343842587695
0.412,4.1766744330700554e-17,6.0,0.1815173744976617,-1.1375555209141579e-14,-9.756481872391934e-15,3.488639333215457e-06,2.3111489085355726e-22,6.0,0.265403880701766,0.0,1.5623134734859947e-17,-2.262879504457947e-16,1.0530925294605058,0.0,0.0,0.0,2.2662861473151636,-1.4762990695684e-16,-2.316493213756092e-15,6.46302131467092e-08,594.2779808231613,594.2779808231606,594.2781796133922,594.2781796133916
0.416,4.0782535811412596e-17,6.0,0.18579688241969988,-1.0483178243532606e-14,-6.595296519689743e-15,3.29289143825996e-06,2.3111489085355726e-22,6.0,0.26944567337990455,0.0,-5.10615138238128e-17,-2.1275399679197619e-16,1.0627394320368464,0.0,0.0,0.0,2.211488807233809,-2.467080143056087e-16,-2.636921683759191e-15,6.994918380291787e-08,592.9281416935087,592.9281416935079,592.9283573336811,592.9283573336804
0.42,3.977441713304302e-17,6.0,0.19011342228960232,-9.515064273605697e-15,-3.4652498746908763e-15,3.0998934443211357e-06,2.3111489085355726e-22,6.0,0.27350126450166373,0.0,-1.1650787897164344e-16,-1.9788411933053671e-16,1.072163846319016,0.0,0.0,0.0,2.157092629177873,-3.888527825372018e-16,-2.9098208901987352e-15,7.454501586028452e-08,591.5851393392376,591.5851393392368,591.5853696691978,591.585369669197
0.424,3.875401333529521e-17,6.0,0.1944661116423105,-8.541030343119717e-15,-4.1885400185008354e-16,2.910142867876277e-06,2.3111489085355726e-22,6.0,0.27757034248443974,0.0,-1.7956405872461028e-16,-1.8174623703042318e-16,1.0813668192581225,0.0,0.0,0.0,2.103113374325732,-4.5532487401720985e-16,-3.1290850085965343e-15,7.84602240169212e-08,590.2494108154499,590.2494108154489,590.2496537912682,590.2496537912675
0.428,3.773205031442897e-17,6.0,0.19885406507882952,-7.599488739729491e-15,2.545692899397448e-15,2.724099168557838e-06,2.3111489085355726e-22,6.0,0.281652598999093,0.0,-2.3957381022115925e-16,-1.6489202397232561e-16,1.0903487134276606,0.0,0.0,0.0,2.049581708310672,-4.780265176938364e-16,-3.3456859292294755e-15,8.171860834546556e-08,588.9217669745127,588.9217669745117,588.9220206114052,588.9220206114044
0.432,3.6718673618038485e-17,6.0,0.20327637491414555,-6.701566113222554e-15,5.447194015374996e-15,2.542164204696359e-06,2.3111489085355726e-22,6.0,0.28574772894200645,0.0,-2.9633760735562143e-16,-1.4814093198612835e-16,1.0991072336036605,0.0,0.0,0.0,1.9965677149792498,-4.861706295884706e-16,-3.582691678439788e-15,8.436833059516258e-08,587.6040065553141,587.604006555313,587.6042690036188,587.604269003618
0.436,3.5723615374573265e-17,6.0,0.20773215091016542,-5.82808892578328e-15,8.311486894446319e-15,2.3646729485785325e-06,2.3111489085355726e-22,6.0,0.289855430407363,0.0,-3.502616936631524e-16,-1.3175651753041013e-16,1.1076413678745123,0.0,0.0,0.0,1.9440615989417325,-5.143484018850811e-16,-3.851193451059491e-15,8.647073580184206e-08,586.2959518057405,586.2959518057394,586.2962213942146,586.2962213942137
0.44,3.4756859785569205e-17,6.0,0.2122205376955562,-4.955775157852536e-15,1.1115997003134213e-14,5.833959397250198e-07,2.3111489085355726e-22,6.0,0.2939754046596406,0.0,-4.0156643029069395e-16,-1.155821486319418e-16,1.115955583822817,0.0,0.0,0.0,1.8920177032499348,-5.686515076774927e-16,-4.103977433254812e-15,1.9670693782134687e-06,584.993590964998,584.9935909649968,584.9997372889942,584.9997372889932
0.444,3.3828255063093255e-17,6.0,0.2167406695081847,-4.096076512500655e-15,1.3823724184574994e-14,-2.3884118940697697e-06,2.3111489085355726e-22,6.0,0.29810735610632316,0.0,-4.500227951375302e-16,-9.934478806809169e-17,1.1240537044248933,0.0,0.0,0.0,1.8404811583249225,-6.101115213095416e-16,-4.3184708492671734e-15,3.430901877547843e-06,583.7016865826998,583.7016865826985,583.7124304964743,583.7124304964731
0.448,3.2947181894627365e-17,6.0,0.22129167417708187,-3.2992609485050318e-15,1.6405043143460827e-14,-5.9325397055842985e-06,2.3111489085355726e-22,6.0,0.3022509922708257,0.0,-4.949934241664545e-16,-8.323764237327655e-17,1.1319352555125477,0.0,0.0,0.0,1.7894893918946413,-5.926095418478352e-16,-4.496881968879603e-15,4.221660847822815e-06,582.4216501062035,582.4216501062022,582.4348993182978,582.4348993182966
0.452,3.2122611053547346e-17,6.0,0.2258726897639168,-2.5605208365944854e-15,1.8821448535290734e-14,-9.88371416697008e-06,2.3111489085355726e-22,6.0,0.3064060237656324,0.0,-5.358593182511553e-16,-6.780320657344529e-17,1.13959995703177,0.0,0.0,0.0,1.7390463089794883,-5.769777747709228e-16,-4.62717471411565e-15,4.843103163312027e-06,581.1528659823953,581.1528659823938,581.1680986794956,581.1680986794944
0.456,3.136323750110669e-17,6.0,0.2304828653127688,-1.8126631692535407e-15,2.1002277315308227e-14,-1.4104558829236611e-05,2.3111489085355726e-22,6.0,0.31057216426564593,0.0,-5.717598649762164e-16,-5.3035123564058364e-17,1.1470498429895728,0.0,0.0,0.0,1.6891540134013758,-6.363538600952173e-16,-4.6704303449788266e-15,5.321058552382898e-06,579.8954204100245,579.8954204100231,579.9121926566623,579.9121926566612
0.46,3.067642457951303e-17,6.0,0.2351213604117177,-1.0711769538275477e-15,2.2927486741340613e-14,-1.8478615752533663e-05,2.3111489085355726e-22,6.0,0.31474913048174574,0.0,-6.017887820875741e-16,-3.8381292370859824e-17,1.154287635675702,0.0,0.0,0.0,1.6398151948596225,-6.787885129680805e-16,-4.668386176733755e-15,5.674340849015672e-06,578.6494255600961,578.6494255600946,578.6673498652402,578.6673498652391
0.464,3.0068406966961446e-17,6.0,0.23978734484250944,-3.5566577489878135e-16,2.45984367086889e-14,-2.2907800390083813e-05,2.3111489085355726e-22,6.0,0.31893664213455497,0.0,-6.254961969999705e-16,-2.3640950943159694e-17,1.161315951854172,0.0,0.0,0.0,1.5910329637065495,-6.984133850757697e-16,-4.6458805677938546e-15,5.919641640167284e-06,577.4150079066543,577.4150079066528,577.4337470383512,577.43374703835
0.468,2.954502178367249e-17,6.0,0.24447999830173195,2.86527898898708e-16,2.596624712981087e-14,-2.7310172755878753e-05,2.3111489085355726e-22,6.0,0.3231344219284137,0.0,-6.426307048449185e-16,-9.35632268004682e-18,1.1681373246981706,0.0,0.0,0.0,1.5428107165383733,-6.614782092590567e-16,-4.551861698276478e-15,6.071796507270376e-06,576.1923045228714,576.1923045228699,576.2115660917088,576.2115660917078
0.47200000000000003,2.911116487657578e-17,6.0,0.24919851018171127,8.542958872542313e-16,2.6975025547368095e-14,-3.161795458721982e-05,2.3111489085355726e-22,6.0,0.32734219552555666,0.0,-6.525533539914514e-16,3.927345821208085e-18,1.1747542210465534,0.0,0.0,0.0,1.495152023437958,-6.186836862348213e-16,-4.368031137039073e-15,6.143981991186732e-06,574.9814599864474,574.981459986446,575.0009915890001,575.000991588999
0.47600000000000003,2.8769477584108373e-17,6.0,0.25394207940109326,1.3749570350948695e-15,2.7674512888589893e-14,-3.5775765554067034e-05,2.3111489085355726e-22,6.0,0.33155969152049497,0.0,-6.548899465649778e-16,1.597849599141483e-17,1.1811690557605334,0.0,0.0,0.0,1.448060533685477,-6.030972353773452e-16,-4.197679125392627e-15,6.147891040505472e-06,573.7826237475238,573.7826237475225,573.802208609704,573.802208609703
0.48000000000000004,2.8522158655795604e-17,6.0,0.2587099142765788,1.864744459295658e-15,2.8049453080895933e-14,-3.973905488156888e-05,2.3111489085355726e-22,6.0,0.3357866414145993,0.0,-6.498335341473235e-16,2.704762671247554e-17,1.1873842036578124,0.0,0.0,0.0,1.4015398972036923,-6.036089335439648e-16,-3.987394827345057e-15,6.093889723657894e-06,572.5959478928725,572.5959478928712,572.6154009608821,572.6154009608811
0.48400000000000004,2.8370460564503455e-17,6.0,0.26350123242856066,2.3273336660914834e-15,2.8073890937705393e-14,-4.3472707341942234e-05,2.3111489085355726e-22,6.0,0.34002277959088345,0.0,-6.376093698008942e-16,3.747334424103749e-17,1.1934020093868958,0.0,0.0,0.0,1.3555936994131952,-6.066433570827339e-16,-3.717228610965738e-15,5.991157273311037e-06,571.4215852503833,571.4215852503821,571.4407496826354,571.4407496826345
0.48800000000000004,2.8314035359076214e-17,6.0,0.2683152478236496,2.800761406021362e-15,2.7766938781596535e-14,-4.695030551568314e-05,2.3111489085355726e-22,6.0,0.3442678432889869,0.0,-6.181019569209814e-16,4.7535649870991584e-17,1.1992235064656689,0.0,0.0,0.0,1.310251569708766,-6.525575960450673e-16,-3.4294151557418516e-15,5.84839612898815e-06,570.2603576860113,570.2603576860101,570.2791035569412,570.2791035569404
0.49200000000000005,2.8351495200060965e-17,6.0,0.27315117877995804,3.3892038560139446e-15,2.7141751425919147e-14,-5.015170151769236e-05,2.3111489085355726e-22,6.0,0.3485215725803547,0.0,-5.915885816027496e-16,5.818483512747425e-17,1.204849228857785,0.0,0.0,0.0,1.265527049893137,-8.211934112580349e-16,-3.1232863253990837e-15,5.6718274380578586e-06,569.1126835443519,569.1126835443508,569.1309001289827,569.130900128982
0.49600000000000005,2.848008016904982e-17,6.0,0.2780082761832211,4.017390393599722e-15,2.624697729182408e-14,-5.306315361085321e-05,2.3111489085355726e-22,6.0,0.3527837103436132,0.0,-5.588112230277219e-16,7.025280587572786e-17,1.2102822626198217,0.0,0.0,0.0,1.2213763203544459,-9.102090711493964e-16,-2.836223702839658e-15,5.468087974820506e-06,567.9775061913882,567.9775061913872,567.9951035218888,567.9951035218883
0.5,2.86967097134949e-17,6.0,0.28288580547442455,4.6830908916488005e-15,2.5075509312707826e-14,-5.567542248599179e-05,2.3111489085355726e-22,6.0,0.3570540022401403,0.0,-5.203924138978989e-16,8.373465163894218e-17,1.2155284597221203,0.0,0.0,0.0,1.1777911215559955,-9.997768912667331e-16,-2.5173401635937864e-15,5.241852765231658e-06,566.8546801083404,566.8546801083395,566.871582796079,566.8715827960785
0.504,2.899708360459569e-17,6.0,0.2877830566384729,5.432522033829858e-15,2.3657909244070577e-14,-5.798471802933376e-05,2.3111489085355726e-22,6.0,0.36133219668982836,0.0,-4.769650309672859e-16,9.835510887707364e-17,1.2205928452724333,0.0,0.0,0.0,1.1347424992376829,-1.1463434703828608e-15,-2.1991623274504564e-15,4.999087048503094e-06,565.7435208421506,565.7435208421497,565.7596723871835,565.7596723871832
0.508,2.937648292052846e-17,6.0,0.2926993023586847,6.34879706559836e-15,2.1988223489427728e-14,-5.9991171378625255e-05,2.3111489085355726e-22,6.0,0.36561804484703936,0.0,-4.2874486747634847e-16,1.14963601581788e-16,1.2254771889882607,0.0,0.0,0.0,1.092285683826083,-1.396212980489658e-15,-1.8492308614439082e-15,4.744194680680911e-06,564.6455204153137,564.6455204153128,564.6608782458378,564.6608782458378
0.512,2.982882043755511e-17,6.0,0.29763382869357163,7.405738431171603e-15,2.0120010734464943e-14,-6.169694302725725e-05,2.3111489085355726e-22,6.0,0.3699113005767493,0.0,-3.7641155565129565e-16,1.345385543334035e-16,1.2301817316958619,0.0,0.0,0.0,1.050414238938764,-1.6275629722422514e-15,-1.524976539436959e-15,4.479530512624191e-06,563.5605849217758,563.560584921775,563.5751139126678,563.5751139126678
0.516,3.034815103495123e-17,6.0,0.30258595262345234,8.52837578931881e-15,1.8033636637874485e-14,-6.310707942112322e-05,2.3111489085355726e-22,6.0,0.37421172043088197,0.0,-3.204991210825091e-16,1.570764453738188e-16,1.2347102212764862,0.0,0.0,0.0,1.0090857309232348,-1.7817246496289222e-15,-1.1608283553467366e-15,4.208533518479407e-06,562.4876812780232,562.4876812780224,562.5013573587889,562.5013573587893
0.52,3.0927911244500504e-17,6.0,0.3075549909938785,9.66203774735897e-15,1.5709827347435105e-14,-6.423024825313867e-05,2.3111489085355726e-22,6.0,0.37851906362482957,0.0,-2.6112359182331244e-16,1.8148596534957661e-16,1.2390668174178332,0.0,0.0,0.0,0.9683198099753199,-1.8773209671661865e-15,-7.468786318566128e-16,3.935620471468868e-06,561.4273830610247,561.427383061024,561.4401964445556,561.4401964445559
0.524,3.156087930328964e-17,6.0,0.31254024429854577,1.0767163088566782e-14,1.3126736894487966e-14,-6.507677441357699e-05,2.3111489085355726e-22,6.0,0.38283309201415927,0.0,-1.9790937406390236e-16,2.0649214919955848e-16,1.2432511431557047,0.0,0.0,0.0,0.928169082837434,-1.928265703936207e-15,-2.7756079537272886e-16,3.6630631294071765e-06,560.3811308144518,560.3811308144511,560.3930790955649,560.3930790955653
0.528,3.223822071002446e-17,6.0,0.3175410218962464,1.1854444225060074e-14,1.0348962365260668e-14,-6.56581248846868e-05,2.3111489085355726e-22,6.0,0.3871535700715045,0.0,-1.3108026651098078e-16,2.313382391070959e-16,1.2472620534355552,0.0,0.0,0.0,0.8886355384158375,-1.990516438214258e-15,1.5963869636991633e-16,3.3926002962380583e-06,559.3490525087215,559.3490525087209,559.3601390134538,559.3601390134545
0.532,3.29503723324037e-17,6.0,0.3225566327641858,1.293495159083967e-14,7.45405202027193e-15,-6.598834265149066e-05,2.3111489085355726e-22,6.0,0.39148026486363907,0.0,-6.170559962706468e-17,2.558960162099407e-16,1.251099855738691,0.0,0.0,0.0,0.8497396880267769,-2.0652333132990676e-15,5.36490813139952e-16,3.1276935089803664e-06,558.3317582564414,558.3317582564412,558.3419977160387,558.3419977160396
0.536,3.368729046895575e-17,6.0,0.327586392226114,1.3990197567887498e-14,4.532530697128483e-15,-6.607981904084424e-05,2.3111489085355726e-22,6.0,0.3958129460287329,0.0,8.326442614347857e-18,2.8025074483654e-16,1.2547656911917617,0.0,0.0,0.0,0.8114884386678065,-2.1186527278275e-15,8.30489668031063e-16,2.8669724875033308e-06,557.3295124754432,557.3295124754428,557.3389152707636,557.3389152707645
0.54,3.4439604831548937e-17,6.0,0.3326296460768445,1.497692010553098e-14,1.602530214968097e-15,-6.594642791843389e-05,2.3111489085355726e-22,6.0,0.40015138575378856,0.0,7.749357893561971e-17,3.0407720507129943e-16,1.2582628566243983,0.0,0.0,0.0,0.773839571908429,-2.1205629112354336e-15,1.1071148814297712e-15,2.6126612320579976e-06,556.3412832158467,556.3412832158465,556.3498671746459,556.3498671746469
0.544,3.51974902144039e-17,6.0,0.3376857549269714,1.5860346582158957e-14,-1.2690281712145245e-15,-6.560145900057779e-05,2.3111489085355726e-22,6.0,0.4044953587522564,0.0,1.4459912965327727e-16,3.266407205635148e-16,1.2615969889792633,0.0,0.0,0.0,0.7367817081281638,-2.077871044831281e-15,1.3209043559513215e-15,2.3646313706676698e-06,555.3668458974541,555.366845897454,555.3746285853721,555.3746285853732
0.548,3.595211965264539e-17,6.0,0.3427541026018055,1.6641173324242285e-14,-4.093180538218849e-15,-6.505970910030067e-05,2.3111489085355726e-22,6.0,0.4088446422418274,0.0,2.0896880321278093e-16,3.472357387571435e-16,1.2647729721301793,0.0,0.0,0.0,0.700285986750599,-2.0295454197505165e-15,1.5418815394212852e-15,2.1251743782038046e-06,554.4055082756441,554.4055082756441,554.4125149744991,554.4125149745003
0.552,3.669482534722253e-17,6.0,0.3478340603853279,1.735187186738108e-14,-6.8732046564109894e-15,-6.433616310540073e-05,2.3111489085355726e-22,6.0,0.41319901592240305,0.0,2.7029633920767204e-16,3.657706619576587e-16,1.2677928834260612,0.0,0.0,0.0,0.6643954113259114,-2.0126669654239246e-15,1.7708068848154807e-15,1.8951038225962447e-06,553.4584734184019,553.4584734184019,553.4647322702681,553.4647322702693
0.556,3.741671955470687e-17,6.0,0.3529250079009079,1.7966182771263306e-14,-9.569880747261045e-15,-6.344546531949887e-05,2.3111489085355726e-22,6.0,0.4175582619542385,0.0,3.2852349601496976e-16,3.824310068333172e-16,1.2706569562678296,0.0,0.0,0.0,0.6291110438475376,-1.9608251405197702e-15,1.962680551885412e-15,1.674624483621528e-06,552.5258426373628,552.5258426373629,552.5313826636484,552.5313826636497
0.56,3.81092190297391e-17,6.0,0.3580263348458463,1.8458555894708216e-14,-1.214582401402963e-14,-6.240207534749711e-05,2.3111489085355726e-22,6.0,0.4219221649362616,0.0,3.8308530241092403e-16,3.9704647139364083e-16,1.273366559714817,0.0,0.0,0.0,0.5944301962185952,-1.8729852425265197e-15,2.111127911588138e-15,1.464110276804655e-06,551.6076171165695,551.6076171165696,551.6124687813489,551.6124687813501
0.5640000000000001,3.876446609215828e-17,6.0,0.3631374408860391,1.882007121978764e-14,-1.4594688770428753e-14,-6.122017826012992e-05,2.3111489085355726e-22,6.0,0.42629051188456274,0.0,4.333541950138507e-16,4.091051617159376e-16,1.2759242073275001,0.0,0.0,0.0,0.5603501086475118,-1.7667344972299076e-15,2.244742390875394e-15,1.2638236008081365e-06,550.7037951990208,550.7037951990211,550.7079900438385,550.7079900438398
0.5680000000000001,3.937482303286338e-17,6.0,0.36825773556541563,1.903515861493447e-14,-1.6887944787599777e-14,-5.9913607307058e-05,2.3111489085355726e-22,6.0,0.4306630922110564,0.0,4.788981166505255e-16,4.1823714680213725e-16,1.2783323860007356,0.0,0.0,0.0,0.5268679226551207,-1.6336060235313976e-15,2.342522819226419e-15,1.0739262880149038e-06,549.8143716273031,549.8143716273034,549.8179419390373,549.8179419390385
0.5720000000000001,3.9933494245061434e-17,6.0,0.3733866382240632,1.9091206147016862e-14,-1.902994303012557e-14,-5.8495780199798554e-05,2.3111489085355726e-22,6.0,0.43503969770231254,0.0,5.195668629500684e-16,4.241104327551843e-16,1.280593560388993,0.0,0.0,0.0,0.49398066596470747,-1.475887257068109e-15,2.4335082801532034e-15,8.944922580325989e-07,548.9393370917722,548.9393370917727,548.942315609683,548.9423156096841
0.5760000000000001,4.043386300609551e-17,6.0,0.37852356871529536,1.9038778447694416e-14,-2.0992147790476435e-14,-5.698065314684112e-05,2.3111489085355726e-22,6.0,0.43942012249855633,0.0,5.550731374168219e-16,4.267482130506353e-16,1.2827092542592955,0.0,0.0,0.0,0.4617039284458553,-1.3663780545646208e-15,2.486639431255609e-15,7.266937677450958e-07,548.079174481386,548.0791744813863,548.0815980556758,548.0815980556771
0.5800000000000001,4.087024967463741e-17,6.0,0.3836679530802423,1.8888560912578216e-14,-2.2781868707781368e-14,-5.537996487576016e-05,2.3111489085355726e-22,6.0,0.44380416307283527,0.0,5.853454230037727e-16,4.2660163908490564e-16,1.2846806265470914,0.0,0.0,0.0,0.4300418011798337,-1.2618921396048534e-15,2.5328327499843242e-15,5.685067428071496e-07,547.2340666206397,547.2340666206402,547.2359655591532,547.2359655591544
0.5840000000000001,4.123765216795079e-17,6.0,0.38881924365900195,1.863793149331161e-14,-2.4418246871008243e-14,-5.3705533879902325e-05,2.3111489085355726e-22,6.0,0.4481916182103522,0.0,6.104964513038163e-16,4.240934272756896e-16,1.2865106488987033,0.0,0.0,0.0,0.39895739598410396,-1.1475524012692088e-15,2.588635316394303e-15,4.2050041888315876e-07,546.4030952466845,546.4030952466851,546.4045019479706,546.4045019479718
0.5880000000000001,4.15315168243095e-17,6.0,0.39397690167988375,1.8284266251359364e-14,-2.5913769821955883e-14,-5.196863294944122e-05,2.3111489085355726e-22,6.0,0.4525822889879634,0.0,6.308976268058496e-16,4.192734532911437e-16,1.288203807461824,0.0,0.0,0.0,0.36844835520487784,-1.0231072297290023e-15,2.6496815107472282e-15,2.825174855299335e-07,545.5862620283166,545.5862620283173,545.5872085502692,545.5872085502705
0.5920000000000001,4.174793030277573e-17,6.0,0.39914040165982306,1.7849702533631543e-14,-2.7298294996591287e-14,-5.0179404033744316e-05,2.3111489085355726e-22,6.0,0.45697597875383966,0.0,6.471490437481623e-16,4.122046873725816e-16,1.289763267786137,0.0,0.0,0.0,0.3385031402690055,-9.172198164593863e-16,2.7344891527889548e-15,1.5369547768201432e-07,544.7833223053442,544.7833223053449,544.7838379924128,544.7838379924141
0.5960000000000001,4.188280825672628e-17,6.0,0.40430924244821775,1.7343824446075502e-14,-2.854886173457736e-14,-4.83476072447177e-05,2.3111489085355726e-22,6.0,0.4613724931072903,0.0,6.596146338805166e-16,4.0317702363348447e-16,1.2911932379097935,0.0,0.0,0.0,0.30908740810817625,-8.166886618124083e-16,2.7923452421354604e-15,3.400115669951366e-08,543.9934145280422,543.993414528043,543.9935287761891,543.9935287761903
0.6000000000000001,4.193207525337892e-17,6.0,0.409482924946648,1.673482516395914e-14,-2.960406651692625e-14,-4.648314584284815e-05,2.3111489085355726e-22,6.0,0.46577163987874765,0.0,6.678736795423061e-16,3.9221455900971035e-16,1.2924972378725141,0.0,0.0,0.0,0.2802112905352323,-6.737858321942163e-16,2.774820378902246e-15,-7.600044743491015e-08,543.2168673244211,543.2168673244217,543.2166115882451,543.2166115882462
0.6040000000000001,4.1893313974014023e-17,6.0,0.41466094061262104,1.60359796984379e-14,-3.050927061722716e-14,-4.4595221348115295e-05,2.3111489085355726e-22,6.0,0.4701732291099119,0.0,6.715227300606145e-16,3.7917931596855603e-16,1.2936755478166138,0.0,0.0,0.0,0.2519082178366576,-5.389078295592452e-16,2.7831070652025098e-15,-1.7672469927597716e-07,542.4546399147612,542.454639914762,542.4540444127628,542.4540444127638
0.6080000000000001,4.1764293326926535e-17,6.0,0.4198427894495327,1.5195160835653305e-14,-3.1278823427888193e-14,-4.269229013027167e-05,2.3111489085355726e-22,6.0,0.47457707303405416,0.0,6.708740898390064e-16,3.6368906782115456e-16,1.2947279031424785,0.0,0.0,0.0,0.22417544223092056,-3.365274092470169e-16,2.7998194900620067e-15,-2.686658461318009e-07,541.7067194094586,541.7067194094594,541.705812846932,541.705812846933
0.6120000000000001,4.1542820469267625e-17,6.0,0.4250279735407026,1.4254450991282604e-14,-3.188976451360423e-14,-4.078274091039136e-05,2.3111489085355726e-22,6.0,0.47898298605647754,0.0,6.663099325612573e-16,3.455215423380427e-16,1.2956550919166643,0.0,0.0,0.0,0.19702309774601034,-1.7299250905255086e-16,2.783896654207178e-15,-3.515567142686988e-07,540.9734386161092,540.9734386161101,540.9722507456195,540.9722507456204
0.6160000000000001,4.122781694926429e-17,6.0,0.4302160017242954,1.3243396945235643e-14,-3.238304803900537e-14,-3.887348270523476e-05,2.3111489085355726e-22,6.0,0.4833907847351338,0.0,6.580715798635866e-16,3.2486046143552257e-16,1.2964584970793225,0.0,0.0,0.0,0.17045179542798894,-3.64728193289932e-17,2.795771002942448e-15,-4.267818264522559e-07,540.2548760260783,540.2548760260792,540.2534320600876,540.2534320600885
0.6200000000000001,4.0817717915889406e-17,6.0,0.43540639901644984,1.2204114026634101e-14,-3.2715021128841255e-14,-3.697162148242734e-05,2.3111489085355726e-22,6.0,0.4878002877613957,0.0,6.462439759530009e-16,3.025419861906156e-16,1.2971402594887382,0.0,0.0,0.0,0.1444428374248954,5.638358845158958e-17,2.75712435456837e-15,-4.938273861504759e-07,539.5505828446588,539.5505828446597,539.5489098566046,539.5489098566055
0.6240000000000001,4.031151296771855e-17,6.0,0.44059869649562666,1.1184642101270285e-14,-3.28542078774953e-14,-3.5082981745973904e-05,2.3111489085355726e-22,6.0,0.49221131594098305,0.0,6.30596506866268e-16,2.7945996466658924e-16,1.2977034940503782,0.0,0.0,0.0,0.11899757051123738,9.579820224781559e-17,2.667392623444998e-15,-5.538980352056978e-07,538.8606536110907,538.8606536110917,538.8587747128059,538.8587747128068
0.6280000000000001,3.970853133678905e-17,6.0,0.4457924475629544,1.0154698176641096e-14,-3.275027708722816e-14,-3.321313385138433e-05,2.3111489085355726e-22,6.0,0.4966236921750415,0.0,6.102562130335527e-16,2.5624145737028877e-16,1.2981512943620763,0.0,0.0,0.0,0.09408417772655442,1.699322504067838e-16,2.504345435408944e-15,-6.070505633371217e-07,538.1842792066901,538.184279206691,538.1822174194261,538.1822174194269
