Time_s,X,Y,Z,Roll_deg,Pitch_deg,Yaw_deg,Ref_X,Ref_Y,Ref_Z,Ref_Yaw,vx,vy,vz,p,q,r,T_pert,tau_x,tau_y,tau_z,RPM_0,RPM_1,RPM_2,RPM_3
0.0040000000000000036,3.540239794309915e-22,6.0,0.010006999594037988,1.030927412343402e-18,1.9273866450044995e-18,-5.1486728461073835e-21,1.0733184456825276e-06,0.00021150896244049108,7.200000000000012e-05,0.0,2.453515573794988e-19,1200.0,2.0013999188075973,0.0,0.0,0.0,-10.19,1.0,0.012507316800849676,6.014464043099446e-21,0.0,404.18803570050414,398.8198924388371,0.0
0.008000000000000007,2.463424419293038e-22,6.0,0.010010999365392528,-6.049892775711399e-19,8.292770768298355e-19,2.077115276712925e-20,3.2070368762353484e-06,0.0006319811654495395,0.00021513340800000038,0.0,1.2433464212901758e-19,666.6666666666666,1.1123332628213918,0.0,0.0,0.0,-0.034338475932384316,1.0,0.013264560330199886,-3.006667449383035e-20,333.57775592487496,678.5992588269883,675.2224134311367,340.3612282981779
0.01200000000000001,6.944924159782689e-23,6.0,0.010014999136747069,-2.642857620575492e-18,4.738092339809717e-19,2.5760769906112803e-20,6.388353677976518e-06,0.0012588939131410143,0.00042854147030131276,0.0,-5.2084766230488e-22,-9.875066055938383e-24,0.0009999428386350817,0.0,0.0,0.0,0.11268126925151128,1.0,0.01403055647372162,-6.682682853985418e-21,339.7670607063854,681.8566505174358,678.3014402851803,346.81018367828125
0.016000000000000014,3.1546287522009274e-15,5.999999999999775,0.010018998908750423,5.886875878560292e-10,8.259616271224693e-12,8.573215819685544e-12,1.0604583143046914e-05,0.0020897473501198093,0.0007113732083620786,0.0,3.1543402060074003e-13,-2.2468859227900978e-11,0.0009999429035165153,0.0,0.0,0.0,0.26021502350197095,1.0,0.014805326679023338,-1.0014871729661e-11,345.86516427438494,685.1106287631978,681.3764746260532,353.1648131620684
0.020000000000000018,5.683395911254567e-14,5.9999999999959925,0.010022998689688128,9.25685481150784e-09,1.312837414532812e-10,1.8670745720562023e-11,1.5843154535225844e-05,0.0031220642773907457,0.0010627853561306145,0.0,5.6827482243989515e-12,-4.0070029123758443e-10,0.0009999438618329276,0.0,0.0,0.0,0.4082515737352684,1.0,0.01558889181294196,-1.2148153998297514e-11,351.8763371546002,688.361006369224,684.4473281099287,359.4296686326082
0.02400000000000002,2.146298820852671e-13,5.999999999985164,0.01002699848867851,3.407441008123947e-08,4.929256107464136e-10,2.718419781730191e-11,2.2091611162817883e-05,0.004353389969660936,0.0014819422978531074,0.0,2.1459653822284753e-11,-1.4833809691690165e-09,0.0009999466254170814,0.0,0.0,0.0,0.5567798367018206,1.0,0.016381273685283682,-1.071364116823738e-11,357.8045025394019,691.6076024970466,687.5138182976365,365.6089269159778
0.027999999999999997,5.052877793626494e-13,5.999999999965745,0.010030998309962546,7.858009503531877e-08,1.1590647391436329e-09,3.433170912869613e-11,2.933760945855943e-05,0.005781291994025456,0.001968016006352204,0.0,4.8556216139326055e-11,-3.2849576966896425e-09,0.0009999512569473126,0.0,0.0,0.0,0.7057888559869256,1.0,0.017182494111679793,-9.469493889036399e-12,363.6532742245005,694.85024229724,690.5757685956515,371.7064309828677
0.032,9.42544920763797e-13,5.9999999999374,0.010034998154817095,1.4354143224380187e-07,2.1611846090891106e-09,4.046170671714342e-11,3.800719970990299e-05,0.007403597366899092,0.002520185981773086,0.0,8.220011564312642e-11,-5.417671051984753e-09,0.000999956825115641,0.0,0.0,0.0,0.8552677857325333,1.0,0.023099844647693532,-8.576773581664911e-12,368.23287178747665,698.7188455489929,692.9982945039554,378.88895040904697
0.036000000000000004,1.5419989605847543e-12,5.999999999900479,0.010038998022825851,2.2815910953453528e-07,3.535032448627218e-09,4.844309524238401e-11,4.808298670813225e-05,0.009217914845106303,0.003137639190793574,0.0,1.199199227536987e-10,-7.606522353439082e-09,0.0009999626414977513,0.0,0.0,0.0,1.0052058908990666,1.0,0.024228020736619026,-1.0994033143101885e-11,373.8795496224365,701.9881210647794,696.0151621463268,384.8845719484926
0.04000000000000001,3.109264807018029e-12,5.999998976475975,0.010046067938928604,0.002345663781942156,7.217375382530211e-09,7.886301419010399e-11,5.954773336395264e-05,0.01122187496795387,0.0038195700062949476,0.0,2.403284060553145e-10,-0.00010233200648130563,0.0013069738367215266,0.003923265653050368,4.9749808564005e-09,3.914145169548878e-11,1.1493618786134254,1.0,0.025368661793902694,-3.753690834063002e-11,379.21648639320244,705.1238694998668,698.8965100550101,390.5745547899215
0.04400000000000001,5.089409991910142e-12,5.999993574229868,0.01006626803942595,0.014722297265049665,1.182319773149853e-08,1.0404058278614073e-10,7.238435943059346e-05,0.013413129881141685,0.004565180147490079,0.0,3.8670174530090353e-10,-0.0006422011707873955,0.0029270947146852197,0.025524564090778523,1.3013661996655909e-08,8.201494919387285e-11,1.2734408086100988,1.0,0.026521826003903272,-3.266765959698922e-11,383.7122168711907,707.8326303425159,701.3460298659083,395.4438570850301
0.048000000000000015,7.456198843519197e-12,5.99998047676121,0.010109501332199039,0.044699009568743314,1.7286793760929628e-08,1.272542355502424e-10,8.657594023658645e-05,0.01578935316200879,0.005373678620505558,0.0,5.167719026840227e-10,-0.0019306183377806423,0.006794792264272061,0.07726182790908845,2.0996263068290036e-08,1.040418198609246e-10,1.3774304171009752,1.0,0.02768752104330014,-3.141463074151167e-11,387.3955642344762,710.1190383101506,703.3679772534408,399.5220395720302
0.05200000000000002,1.0216108382664385e-11,5.999956730239538,0.010184472659890151,0.0989378006518706,2.360460496788547e-08,1.5134093755014525e-10,0.0001021057054281504,0.018348239646104925,0.006244281659414513,0.0,6.124138846472869e-10,-0.004017845278664322,0.013063624542765726,0.16083877903650573,2.4774236596617768e-08,8.447295503739333e-11,1.4634363204432708,1.0,0.028865782140274736,-3.339660160882174e-11,390.36840148089647,712.0304090023096,705.0097000074207,402.9095616512626
0.05600000000000002,1.3372048572302742e-11,5.999919684514358,0.010298772063130904,0.18326471487171855,3.074931299253957e-08,1.7828857910210066e-10,0.00011895703772111153,0.021087505255077913,0.007176212667716822,0.0,7.05586020019316e-10,-0.006807199629006375,0.021447302899041266,0.2726040096558037,2.8449921982578307e-08,6.214498728002589e-11,1.5334332173114544,1.0,0.030056639625675972,-3.773827449038893e-11,392.72039229567315,713.6102237507636,706.3147278223769,405.69491363801797
0.06,1.691883075708833e-11,5.999866953753879,0.01045889121669463,0.3026904528420521,3.866705300880247e-08,2.1191029051163343e-10,0.0001371134716622904,0.024004886825867287,0.008168702160263459,0.0,7.959921439342563e-10,-0.01020623811896538,0.031672713259267744,0.408910832591865,3.19917035192653e-08,3.033963091527955e-11,1.5893980643271934,1.0,0.031260123447871414,-4.665364722320561e-11,394.53591260280655,714.9011214004065,707.3257909299417,407.96130313684176
0.064,2.0851305979822253e-11,5.9997963525393,0.010670315431385333,0.46148881558679794,4.730404070625335e-08,2.604642914120758e-10,0.0001565586924002868,0.027098141941194743,0.009220987705621773,0.0,8.808840165603451e-10,-0.014127780423771672,0.043482571108091186,0.5663235643966713,3.53005896463619e-08,-7.329041957288999e-12,1.6331561936645218,1.0,0.03247626333418601,-6.549233238227258e-11,395.88976286154167,715.9419497709416,708.0818402211966,409.7824872423161
0.068,2.52049281331271e-11,5.999705814144028,0.010937675545042574,0.6633208883386615,5.667457371306506e-08,3.2888819823897294e-10,0.00017727762709098896,0.030365042788734097,0.010332313868878385,0.0,9.638242803721652e-10,-0.018494286239947855,0.05664830300355541,0.7417895341292982,3.849823301543873e-08,-5.78870161992508e-11,1.6662568373336397,1.0,0.033717820798994415,-9.071549188935514e-11,396.84098591850864,716.7669380375165,708.6141094594661,411.2221477257134
0.07200000000000001,2.9996654071704107e-11,5.99959333751168,0.01126482464727734,0.9113014980992946,6.67457550957645e-08,4.2485467882858554e-10,0.00019925424528531555,0.033803388011268296,0.011501932154876639,0.0,1.0463242657642744e-09,-0.02323845896152523,0.07097170787415305,0.9326614358086645,4.163689955369848e-08,-1.240891454546711e-10,1.6901208388092075,1.0,0.03496013253083136,-1.2572223987477763e-10,397.4500972321446,717.4028292134242,708.9554059897722,412.32951695448645
0.07600000000000001,3.52449916921238e-11,5.999456937674465,0.011654916717341972,1.2080670788098518,7.747750897378938e-08,5.565293002750981e-10,0.00022247266362296808,0.037410996495869396,0.012729100951885338,0.0,1.1271619022347193e-09,-0.028301894093690976,0.0862808226793041,1.1366424970259963,4.464602856276223e-08,-2.1307709583319679e-10,1.706034326631715,1.0,0.036215198331189635,-1.7140534787998122e-10,397.7633515884574,717.877763522468,709.1310679924813,413.1552908792382
0.08000000000000002,4.097683458485873e-11,5.999294599439637,0.012110487210068665,1.5558447565751397,8.88466381562651e-08,7.355004322433413e-10,0.0002469171446391665,0.041185707209487145,0.014013085475695665,0.0,1.2059703060206976e-09,-0.03363337755656547,0.102424780815436,1.3517178523083053,4.751749857908608e-08,-3.2259978874521824e-10,1.7151422558135028,1.0,0.03748304773847248,-2.3210098791461354e-10,397.8235274985447,718.2153746122358,709.1648232496945,413.74162846998166
0.08400000000000002,4.723047439007905e-11,5.99910423450342,0.012633533269259326,1.9565214432850762,1.0084166752148178e-07,9.727429859760238e-10,0.0002725720955804517,0.04512537903578765,0.015353157714143143,0.0,1.283787853035407e-09,-0.03918944321047037,0.11927552239393487,1.5761773155316834,5.028501388415889e-08,-4.5523559289623444e-10,1.7184465965588185,1.0,0.03876371028420786,-3.075717012042632e-10,397.66757780191375,718.4362529836001,709.0773509726018,414.1249329910114
0.08800000000000002,5.404230726044518e-11,5.998883649636868,0.013225570673616797,2.4116953729099015,1.1344117650551459e-07,1.2808422434551547e-09,0.0002994220672294887,0.049227890613232975,0.016748596372051543,0.0,1.362227844863121e-09,-0.04493353040698424,0.13672531082348688,1.808582169085606,5.2997199849258555e-08,-6.162776251344849e-10,1.7168510001413544,1.0,0.04005721566079551,-4.001533887052691e-10,397.32849873329917,718.5588989339093,708.8872426519474,414.33766594692895
0.09200000000000003,6.144585194437191e-11,5.998630519276702,0.013887685306481247,2.9227239273843817,1.2660738812923126e-07,1.6716314354389414e-09,0.00032745175273880513,0.05349114017439259,0.018198686816595647,0.0,1.439864019043375e-09,-0.050834931008122974,0.15468362245897352,2.047723707629947,5.558723859220542e-08,-8.087890415268134e-10,1.7111700986302565,1.0,0.04136359338499338,-5.09489274574746e-10,396.835832510754,718.5999428966295,708.6112223594964,414.40884126254934
0.096,6.94702351291089e-11,5.998342362961552,0.014620576390950261,3.490765802508657,1.403034022816287e-07,2.1631463401288364e-09,0.0003566459864733991,0.05791304538647769,0.019702721023079815,0.0,1.5156084131430198e-09,-0.056868037521410876,0.17307494789911068,2.2925938222506472,5.8031122414879005e-08,-1.0261119553830051e-09,1.7021445772513761,1.0,0.04268287290980072,-6.433165984145716e-10,396.2163356176388,718.5744747990973,708.2644778685034,414.3646764977512
0.1,7.817230169122225e-11,5.998016527616938,0.015424590406692923,4.11681680632171,1.545354485341429e-07,2.771610481500495e-09,0.0003869897428621532,0.0624915431930896,0.02125999752112935,0.0,1.5908563356101449e-09,-0.06301172787707253,0.19183700461766082,2.542361095080283,6.037599931659316e-08,-1.2711457477208999e-09,1.6904587084553877,1.0,0.04401508319604566,-8.002659997902453e-10,395.4947055772902,718.496416985141,707.8610369034099,414.2292963359808
0.10400000000000001,8.760473803018736e-11,5.997650173945487,0.016299746902937638,4.801740328392802,1.6930148607611619e-07,3.516627125394321e-09,0.0004184681352579874,0.06722458965717293,0.022869821341291532,0.0,1.668229712088473e-09,-0.06924871181668724,0.21091882713621407,2.796345269152396,6.27238143807584e-08,-1.5450416589635818e-09,1.6767557181036308,1.0,0.04536025392746471,-9.849599063359552e-10,394.69420611880236,718.3788485998801,707.4140944983043,414.02533517045407
0.10800000000000001,9.781536723020395e-11,5.9972402663611755,0.01724575710483782,5.546293255548353,1.8458098298625596e-07,4.4167075174712715e-09,0.0004510664148066904,0.07211015980516532,0.02453150396204348,0.0,1.7470984156710416e-09,-0.07556494528588502,0.23027905495555623,3.0539943633423774,6.503671797764915e-08,-1.8518726545747296e-09,1.6616515890046553,1.0,0.04671841441038824,-1.196937172142188e-09,393.83722063374154,718.234294470029,706.9363057112528,413.7744663765963
0.11200000000000002,1.0884304795452378e-10,5.99678356348991,0.018262041615859363,6.351152404390833,2.0033883272957632e-07,5.492890194582924e-09,0.00048755526464669196,0.07715077219477015,0.026244363257203772,0.0,1.826109246728533e-09,-0.08194932416545589,0.24988506639048708,3.3148730549764296,6.726909593460594e-08,-2.188603557121934e-09,1.6457363027997745,1.0,0.0805464767174774,-1.4399210297669183e-09,385.76272411605277,721.9587984002743,702.4699726004718,420.2062743125701
0.11600000000000002,1.2074689240384112e-10,5.9962766130052065,0.019347737764875403,7.216934131687854,2.1669898994922428e-07,6.826910825073102e-09,0.0005278866843359023,0.08234438485704207,0.02800772344374488,0.0,1.9046043099987818e-09,-0.08839333780153152,0.26971198230556476,3.5786493404986737,6.963360766824039e-08,-2.4764655649980642e-09,1.6295942921996631,1.0,0.08389577484717024,-1.7856915311042965e-09,384.400368292466,722.0315851775856,701.7227550587162,420.3313158855543
0.12000000000000002,1.3447039186765149e-10,5.995715750814875,0.02050169754963985,8.144207788550936,2.3537728243987863e-07,8.589627631291189e-09,0.000572013111105022,0.08768897481865322,0.02982091503000352,0.0,2.0712515067440138e-09,-0.09489045826832791,0.2897408492484118,3.8450702910085726,7.522056063658507e-08,-2.8800360590249846e-09,1.6138232918760884,1.0,0.08728085113519377,-2.341732242218006e-09,383.03928247241663,722.1161467056297,700.9780821880502,420.47655394831804
0.124,1.5024459202488566e-10,5.995097097720081,0.021722490804920856,9.133514778112366,2.5649325531811285e-07,1.0831985961046011e-08,0.0006198874163177282,0.09318253794677286,0.031683274764285965,0.0,2.339713872123285e-09,-0.10143598626582495,0.3099582160853445,4.113956356332589,8.429327517724347e-08,-3.4965444790703277e-09,1.5990238008049316,1.0,0.09070181002052258,-2.975011880904356e-09,381.7024610397162,722.2246490704332,700.2484889235413,420.6628632254699
0.128,1.6807783699745703e-10,5.99441656220429,0.023008395035433272,10.1853784306938,2.797971343711348e-07,1.3612067464194426e-08,0.0006714629019577108,0.09882308879513038,0.03359414558386552,0.0,2.6668860819961783e-09,-0.10802674039332474,0.33035522033749093,4.385189158713121,9.48534356942655e-08,-4.411061772529788e-09,1.5858260455911026,1.0,0.09415873150432265,-3.695992241634257e-09,380.41436704750345,722.3698482873699,699.5471860398978,420.91209991056064
0.132,1.879461921277561e-10,5.993669840268459,0.024357390675789195,11.300319880046224,3.05013504737228e-07,1.699688185107806e-08,0.0007266932971423593,0.10460866045125233,0.0355528765643691,0.0,2.9652200099018716e-09,-0.11466107542026208,0.35092768600965357,4.658712740581388,1.0427440947185999e-07,-5.3218303867077206e-09,1.5748792907147937,1.0,0.09765169816129876,-4.5175252704538674e-09,379.2005154042848,722.5648711711916,698.887832716899,421.24670703009986
0.136,1.0527008244700107e-08,5.992852431401367,0.025767146260174276,12.478867470664314,3.547001426739619e-07,-8.667154895681243e-06,0.0007855327546629109,0.11053730438486592,0.03755882286955032,0.0,1.0381401293961375e-06,-0.12133748355064644,0.3716750263232318,4.934522193553525,-3.086241545354287e-06,-1.4828816377599217e-05,1.5668724683975734,0.9266758516494245,0.10106054190101996,1.0143758794940414e-05,394.4471078568084,714.0021640347112,689.2064550326477,436.4129237687225
0.14,3.6910879131623404e-07,5.991959964381286,0.027235057756139408,13.721614178513583,1.2183170587645913e-06,-0.00031467915646677335,0.000847935847550864,0.11660709029745964,0.03961134570144606,0.0,3.7137013101826224e-05,-0.1280220135030686,0.3925979853546761,5.2127442300381865,-0.0001243609720897247,-0.0005349723176250524,1.5624247248593988,0.7938046897550077,0.1006783716915888,0.00035782690805984027,421.64663250429186,697.1875879491965,672.8147933147728,462.37748312895906
0.14400000000000002,1.7974004095392091e-06,5.990988595370089,0.028757754154041703,15.028819221772272,4.798381839618335e-06,-0.0015554214373076738,0.0009138575656704659,0.12281610597299288,0.0417098122509138,0.0,0.00018164752172740542,-0.13462294356982063,0.4136392518994666,5.492918520572205,-0.000659719027717999,-0.0026332365016511028,1.5631674096247212,0.6553731415984827,0.0955748282255707,0.001462327489271598,447.79847116885435,677.7452183316864,657.0727048178754,488.68127186881145
0.14800000000000002,5.1150769077282016e-06,5.989935380658384,0.030330229544911727,16.399645074066306,1.3646736194990979e-05,-0.004497658661885248,0.0009832533123370845,0.12916245712974603,0.0438535956485469,0.0,0.000508872030642772,-0.1409978847976568,0.4345857126292998,5.772619567481507,-0.002008109853759308,-0.0074281848438409155,1.5725178867122156,0.5125991849629024,0.08874394645651944,0.0035010001003051056,472.0711842835931,655.8237780698919,642.1199117316594,515.980396334855
0.15200000000000002,1.1039156088812222e-05,5.988798564711132,0.031946204079211504,17.832407147384647,3.051681913980004e-05,-0.00987778666359505,0.0010560789009612754,0.1356442672733028,0.04604207491596505,0.0,0.0010362802300868511,-0.14697889711796097,0.4551052893082441,6.047950833607771,-0.0044687036327411365,-0.015248835049298068,1.593213174503963,0.36648481750004414,0.08243064286190731,0.006469973755549479,494.263767473564,631.6770683826074,627.9003516518276,544.3888708994139
0.15600000000000003,1.9581811062264734e-05,5.987579410151988,0.033599062071076574,19.325355213249274,5.656988581513127e-05,-0.017860996816280873,0.0011322905517183576,0.14225967755065644,0.04827463491747721,0.0,0.0016914557493304654,-0.15219286483691147,0.4748729790439589,6.316315685257538,-0.00797574640282224,-0.025110385247460693,1.6261271170390847,0.21717864619463945,0.08372660384119943,0.00973240030127186,514.5889918685939,607.0495717472431,612.5619561195532,573.7924233552698
0.16000000000000003,3.0403592931905912e-05,5.986281103658216,0.03528136813444469,20.8762092762035,9.200828432795283e-05,-0.028321101319541513,0.0012118448882433089,0.14900684660543134,0.05055066631211419,0.0,0.002362045843592657,-0.1561965347039487,0.49357167121279116,6.57609633138361,-0.012193426757651473,-0.035412764850416424,1.6731263868664925,0.06537696413597516,0.08910049235932627,0.012954867805016684,534.3400219196229,582.0310111838945,596.1640348184859,602.982502735473
0.16400000000000003,4.315780927748656e-05,5.984907302296354,0.03698517173167756,22.48142115631354,0.0009009288646865926,-0.040480530920568414,0.0012946989343508,0.1558839504342125,0.052869565506028296,0.0,0.0029731925132264717,-0.15873349865884823,0.510913148307967,6.824141497939801,-0.015174375675847174,-0.044535469506903416,1.7354858163193678,-0.08732384309192143,0.0939441329297315,0.015371450970217637,555.3424817493426,557.3930056928903,578.362803906144,630.0617083176711
0.16800000000000004,5.758611226355845e-05,5.983460375654145,0.03870317532798505,24.135781058231384,0.005062516299494086,-0.05184845179340106,0.0013808101107801807,0.162889182243974,0.055230734605257216,0.0,0.0035122289824078895,-0.15994089455245303,0.5268301792161878,7.054719603064989,-0.011055321899057762,-0.05041398505533645,1.8121259881483618,-0.23877876929424624,0.09498293898883466,0.01494897499673243,580.8092374149006,536.4512712928091,556.5016036319058,651.709601149933
0.17200000000000004,7.270885868808042e-05,5.9819417772838746,0.04042872538417287,25.83273436602142,0.015269424195943572,-0.059878430600619315,0.0014701431706602445,0.17002032589482927,0.05763358136884959,0.0,0.003891300368576659,-0.16011900781367083,0.5414880902300432,7.261291268779774,0.006059099676820813,-0.05175847371409087,1.90196506211581,-0.3870954775313842,0.10135218970185364,0.011520153953196267,608.8475629097599,521.740923396976,528.5806467661954,669.1349408717311
0.17600000000000005,8.76870491262359e-05,5.980348183172485,0.04215865289343654,27.561991256385543,0.03219251031480913,-0.06369461165138211,0.0015626562353994275,0.17727561372351375,0.06007751916234959,0.0,0.004026195081358331,-0.1597982619236023,0.555530674034977,7.433668712509156,0.03411881795737905,-0.05002212219742409,1.998135862464832,-0.5274937607797612,0.10563776750467874,0.006931688919520914,636.671601826667,509.86033300984366,498.88881983622537,683.4468437002722
0.18,0.00010255007997231421,5.978674570240684,0.043890797317865805,29.311769890097572,0.055808910772098846,-0.06282047059717208,0.0016583078144690882,0.18465329480953158,0.0625619669116377,0.0,0.003939859883831378,-0.1595254977834912,0.5697385685583713,7.561237488303762,0.0671262903169152,-0.04757517712440722,2.098685438742315,-0.6575502533333815,0.10009235765009085,0.0016138024180278776,664.363931107947,499.2503447708506,469.7378536887295,694.1009129871386
0.184,0.0001173489126212109,5.976915819793689,0.04562297144211106,31.0700893263469,0.0862301106362092,-0.056713902571729986,0.001757056802240417,0.19215163483727582,0.06508634905712558,0.0,0.0037607337442586023,-0.15965506794588452,0.5846006268617352,7.637612883318594,0.10159413632976073,-0.04534746119259998,2.2037296291230404,-0.7762411145871353,0.09370386700703956,-0.00453000903568499,690.822678201312,491.93363296721543,439.48022461719574,702.118536670824
0.188,0.00013215918891447382,5.975066748804855,0.04735296553080255,32.8251544753193,0.1235918229328805,-0.044871951637067635,0.001858862474845433,0.1997689159592047,0.06765009550830155,0.0,0.0035059033459353935,-0.16028916143359476,0.6002053827439744,7.662096186894738,0.1377517029547397,-0.043583892277314164,2.3133767746579217,-0.8829700462225234,0.08637668046896656,-0.011476639165379117,716.0970605089848,488.1066993285493,408.071492402433,707.5371680631265
0.192,0.00014708362271136172,5.973122144750309,0.04907852963275045,34.56482797329265,0.16801841185459915,-0.026832366153498353,0.001963684487061918,0.2075034366600676,0.0702526415986251,0.0,0.003171261037014203,-0.16151299494411625,0.6166128909928417,7.63437066801886,0.17571219828802426,-0.04254459724370093,2.427771937579257,-0.976528515766731,0.07806040358099317,-0.01919959230864359,740.1437356527589,488.01090855115547,375.581808813583,710.3006542215874
0.196,0.00016225445062269738,5.971076787656469,0.050797405167036125,36.27723574386111,0.2195955095895757,-0.0021974158130758955,0.002071482869222095,0.21535351162217206,0.07289342804076722,0.0,0.002752633318255648,-0.16341240554639647,0.6338778344977282,7.55431378979709,0.21531912624790822,-0.04250410965785363,2.546997446456217,-1.0,0.06873416659260645,-0.027642911563606293,756.5611464473911,501.42087327754564,355.9176660731044,703.5750745807715
0.2,0.00017783575990236293,5.968925475766633,0.05250734380696844,37.951033158326354,0.27836409445987836,0.029340406781400236,0.002182218024144881,0.22331747159168458,0.07557190088219416,0.0,0.0022460445331976995,-0.16607325196558845,0.6520514528341657,7.4230935771814,0.2562806549069089,-0.04366650477772177,2.6710976677962663,-1.0,0.05838548943057799,-0.03671799483323521,770.9640680462592,519.4776551318636,339.8555154700378,693.019183040451
0.20400000000000001,0.00019402644616826434,5.9666630082068375,0.05420619182817193,39.57618598134925,0.3442727870452629,0.0679487583264945,0.0022958507240915483,0.23139366324595734,0.07828751146109222,0.0,0.0016482342831725828,-0.16957669218962448,0.6711879805575902,7.244208154885095,0.2980981795715167,-0.04623917656397343,2.7999455427815887,-1.0,0.047050795341879774,-0.04627458353928875,785.8596036031335,537.7176217596567,322.1098879326437,681.6319247096297
0.20800000000000002,0.0002110625194573444,5.964284207398781,0.055891904178096,41.14435801554112,0.41715822586338264,0.11360985900621352,0.002412342107744612,0.23958044906187365,0.08103971636263091,0.0,0.0009573622461715661,-0.17399402608399211,0.6913435689284692,7.023451758834845,0.3400316664826996,-0.05040434332076567,2.933382528834392,-1.0,0.03480030454831003,-0.056103436651566245,800.9711164121827,555.7854867592962,302.988683101573,669.6620765409235
0.21200000000000002,0.00022921786930226465,5.961783984195319,0.057562494711687,42.6487181378249,0.4967411405753569,0.16613874359923891,0.0025318473639721908,0.24787801776476445,0.08382797737556208,0.0,0.00017363456179850058,-0.17938378482893697,0.7125637521410597,6.767740556400797,0.381188916330511,-0.05626219076796422,3.0713477017954993,-1.0,0.02398900348683298,-0.06600901745796102,815.8178764082526,573.7381438204126,282.1235025112642,657.6569756189251
0.21600000000000003,0.0002488038269584695,5.959157397837959,0.059215998299343944,44.08366155825858,0.5827199703979739,0.22512637225447252,0.002654326024114166,0.2562847412475127,0.08665176144915256,0.0,-0.0007004486009156848,-0.18579414548816964,0.7348693584816293,6.483319029547536,0.4207033145244429,-0.06398317169336815,3.2138552464183183,-1.0,0.010248973523101529,-0.0757224555525714,830.5716137009848,590.5339431718459,261.4841279384928,645.4126264799686
0.22000000000000003,0.00027016888488738325,5.956399637774784,0.06085052246149126,45.44456678041219,0.6747673757771431,0.2899898542888843,0.0027797379980918006,0.2647990070107148,0.08951054065044778,0.0,-0.001659971252699894,-0.19326681345673696,0.7582654304811577,6.1752947826565725,0.4578112005637801,-0.07373613949792748,3.360813967807829,-1.0,-0.004284696216318759,-0.08502432008553229,844.7805817431116,606.2394884001335,241.19177999665612,633.5202739038173
0.22400000000000003,0.0002936972587170657,5.9535060561116175,0.06246424071682131,46.72762836740706,0.7725276444889898,0.3599910588442184,0.002908043571308003,0.27341921803343777,0.09240379212186405,0.0,-0.00269750799652198,-0.20184009381260992,0.7827473261376093,5.847828815805249,0.4918252699968515,-0.08567282747075944,3.5121439374868246,-1.0,-0.01958079628283431,-0.09370974082886052,858.2492002596176,620.6383461297124,222.16887989998904,622.3035070125782
0.22800000000000004,0.00031980723713683336,5.950472169323716,0.06405541743635312,47.92971436557514,0.8756263013871216,0.4342349746215368,0.003039203401571275,0.2821437926449705,0.09533099803910693,0.0,-0.0038029773366060455,-0.21155114540298842,0.808300044275357,5.50435231619413,0.5221038055115664,-0.09978142095291062,3.6677127629396975,-1.0,-0.035614142493897646,-0.10156550527273792,870.7833490566323,633.5124277468723,205.69899149183922,612.1182948744447
0.23200000000000004,0.00034894869108387754,5.947293660639563,0.06562242991626421,49.0482530514679,0.9836569737947696,0.5117136768082582,0.0031731785160431614,0.2909711643975614,0.09829164556941349,0.0,-0.0049634194463379295,-0.2224376803216553,0.8348990527881177,5.1477188776360805,0.5480510976498197,-0.11599525471943513,3.827340438821397,-1.0,-0.05233213671655157,-0.10842325673130522,882.2403413883732,644.7173787892075,193.19957331063628,603.275169695349
0.23600000000000004,0.0003815999360959709,5.943966385831477,0.06716378512600185,50.08114297850024,1.0962423494972109,0.5912853244658082,0.0033099303082090386,0.29989978194013456,0.10128522683011586,0.0,-0.006162969853561058,-0.23453918838803062,0.8625114170708972,4.780314690894763,0.5691697647880668,-0.13426605944955933,3.9908094488064165,-1.0,-0.06974189205545704,-0.11408539718769106,892.4564440772951,654.0571001436911,186.43246111551085,596.1305435344318
0.24000000000000005,0.00041826732663573994,5.940486289740897,0.06867821099275531,51.0266632113533,1.2129543353650132,0.6716634553320341,0.00344942053487206,0.30892810889297867,0.10431123884752393,0.0,-0.007382394107110649,-0.24789773183818076,0.8911057541423336,4.404128607956492,0.5849343358175056,-0.1545101797656413,4.157712957746372,-1.0,-0.08778879413646962,-0.11833624451882684,901.243331859918,661.3107005386794,187.0239839687953,591.0775302008524
0.244,0.0004594803085811948,5.936849442898682,0.07016464047847684,51.88342416140912,1.3333150977155526,0.7514822739656983,0.003591611313170099,0.3180546237234001,0.10736918351612454,0.0,-0.008598698402140507,-0.26255839138623166,0.920649972737657,4.020832146301736,0.5948111993115838,-0.17657993326546034,4.327669479408807,-1.0,-0.10636295473479697,-0.121030355049477,908.4796026589942,666.35267040028,195.51102452335013,588.4026090323674
0.248,0.0005057863579079025,5.933052062596143,0.07162221083960742,52.65031419270635,1.4568282336669391,0.8293082648843103,0.00373646511761552,0.32727781962233427,0.11045856755809541,0.0,-0.009785253634658963,-0.27856958279084043,0.9510999317317161,3.6318532385035667,0.5983902699698562,-0.2002011195152789,4.500292569066159,-1.0,-0.1253821886858098,-0.12203249805963869,914.0529469579487,669.0504324502688,211.4676223041583,588.3507655354431
0.252,0.0005577507672499298,5.929090405526294,0.07305036515192828,53.326450575573105,1.5829001310937503,0.9035862593333495,0.003883944777157593,0.3365962043819065,0.11357890248313054,0.0,-0.010911485243579554,-0.2959830694925098,0.9824105472788037,3.2384049310281697,0.5952323320153075,-0.2251032288300152,4.6749832968896605,-1.0,-0.14472354399343207,-0.12114155940624083,917.7723194676546,669.1604445940536,234.0702134368028,591.2367645456513
0.256,0.0006159484155676381,5.924960845329587,0.0744488053266037,53.91111906276054,1.7108725813692711,0.9727158245444351,0.004034030664681097,0.34600721619878366,0.11672970454857585,0.0,-0.011942543169219801,-0.31485407282669087,1.0145338852110464,2.841469149268342,0.5848889340340863,-0.25099291828948206,4.851228410699569,-0.9965380486634692,-0.16400153262918163,-0.11824055563308503,919.1752039044862,667.009527406418,262.9913786919153,596.7404501655949
0.26,0.0006809565631740696,5.920659904226077,0.07581748534307829,54.403720501267586,1.8400301282784066,1.035086586713088,0.004186686102358304,0.3555094047518526,0.11991049471987207,0.0,-0.01283952404880905,-0.3352416091785028,1.047403976013492,2.441783291983891,0.5670895620582502,-0.27751441253375564,5.028520211312346,-0.928665490662308,-0.1834286409889524,-0.1132517956902655,912.4695122835504,670.310410790558,313.8664519250992,596.1198834861945
0.264,0.0007533468373696369,5.916184288842572,0.07715660511099413,54.80382351281965,1.9695982371950813,1.0891196972438901,0.004341874759991615,0.3651013338414912,0.12312079863130282,0.0,-0.013560256724618344,-0.3572084679969786,1.0809335759529797,2.040026973501173,0.5417702679886334,-0.3042956474676405,5.2063554900285185,-0.8540580111753113,-0.20261861760595856,-0.10614550702304046,902.9185983333052,671.622765697414,364.5079764756728,597.8172179247632
0.268,0.000833674610699929,5.911530965426618,0.07846658503031667,55.11173051128301,2.0987885546973986,1.1333006684682698,0.00449956065214988,0.3747815812718133,0.12636014654704567,0.0,-0.014060061171528374,-0.3808169380532925,1.1150140290237407,1.6379115735210834,0.5090607555191642,-0.3310061044925784,5.3842748960052536,-0.7735427732631472,-0.2213847982920337,-0.09693145868945466,890.4953711916016,670.8793008083585,414.7531945932171,601.9319850755966
0.272,0.0009224679135747157,5.906697237092356,0.07974802855097583,55.328537409978324,2.226816385376856,1.166247058623042,0.004659708135326683,0.38454873873382334,0.1296280733225239,0.0,-0.014292826004763299,-0.4061220701031772,1.1495120275756463,1.2383427544759045,0.46933990629688854,-0.3573572148190942,5.56188810092636,-0.6952928925556472,-0.2395450122185278,-0.08570102364108491,875.9527910829707,667.158375057402,462.98631524977884,609.4508812493525
0.276,0.0010202210053325569,5.901680730320382,0.08100174432388914,55.456073074323285,2.352846603262176,1.1867421726597602,0.004822281905120407,0.39440141168947235,0.1329241183660568,0.0,-0.014212067205550002,-0.43316616181435885,1.1842794687509584,0.8447530785437879,0.4231550878845969,-0.3830259199936058,5.738754049516445,-0.6131003560906381,-0.25689834540302015,-0.07259026842108732,858.6776152987741,661.4235864261238,510.53694891653726,619.2038618143691
0.28,0.001127391350235391,5.896479322118528,0.08222881066006833,55.49714806928166,2.475982435520215,1.1937182632951586,0.004987246993435936,0.40433821925661023,0.13624782560080612,0.0,-0.013771917452584274,-0.4619747735258851,1.2191766200761145,0.46083533378884656,0.37105364124291573,-0.40761619748479266,5.914294387027678,-0.5281742653085202,-0.2732606117188783,-0.057722356895253624,838.7304128559538,653.6460989674553,557.14721063426,631.085816632199
0.28400000000000003,0.001244393031181593,5.8910911598823805,0.08343055494506721,55.45520061825742,2.595208463670107,1.1862789804496818,0.00515456876570783,0.41435779409482676,0.1395987434270168,0.0,-0.0129273552199207,-0.49255468341070835,1.2540728240729648,0.09002296257183448,0.31351266195624516,-0.43057684642492255,6.087964002235239,-0.44137938946884997,-0.2883316590932651,-0.04125271915522943,816.1391624309681,643.8845800398416,602.6198192695464,644.9021078620897
0.28800000000000003,0.001371592865331992,5.885514613748114,0.08460859163155603,55.334715437871544,2.7094076239217464,1.1637237795979771,0.005324212918144809,0.42445878229217476,0.1429764246845496,0.0,-0.011635154768946334,-0.5248897001649668,1.2888512644178558,-0.26389684412368436,0.2509898011277829,-0.45144868925912285,6.259132796815111,-0.35411490587456995,-0.30184772736764803,-0.023372273649418115,791.0099491641032,632.1538093021584,646.6891850868716,660.4701713874241
0.29200000000000004,0.0015093054879488823,5.8797482767651275,0.08576480546832982,55.14094810962876,2.8173267286847903,1.1255268145445607,0.005496145474995406,0.4346398432527696,0.14638042661570336,0.0,-0.009854536467260084,-0.558939126214488,1.323405156755267,-0.597255852232241,0.18390675903729956,-0.46952633152791323,6.427195616017718,-0.2675328243059589,-0.3134810855431883,-0.004255273749433464,763.3822039226998,618.4700920718722,689.1955969408532,677.6093623943996
0.29600000000000004,0.001657789365503737,5.873790944916148,0.08690134575328073,54.8797247439014,2.917708160226308,1.071208415263627,0.005670332785834609,0.44489964958525774,0.1498103108283251,0.0,-0.0075470750983838274,-0.5946358798293139,1.3576440656021787,-0.9068027470312561,0.11254167418082694,-0.4846325149702856,6.591550408320659,-0.18260759834449847,-0.32305353075420135,0.01606702441479297,733.0940058947473,602.6193760837607,730.2248154869186,696.2926278862288
0.30000000000000004,0.0018172420479006424,5.867641608752282,0.08802060577935461,54.557121078601895,3.0091212487468444,1.0004165484124623,0.005846741522871367,0.4552368869921485,0.15326564325920558,0.0,-0.004676036819261964,-0.6318920154257364,1.3914893575040579,-1.1904808131409,0.037009633817904,-0.49643959434225404,6.751628458078976,-0.09998203620514784,-0.33017570268689406,0.037466343297491184,699.9868261336796,584.5743587199123,769.7344057202707,716.3480541228022
0.30400000000000005,0.0019877935806031726,5.861299454924085,0.0891252000795079,54.17951017352302,3.0901401056837936,0.9128578268615349,0.006025468695838322,0.4656483607862709,0.15674599413775817,0.0,-0.0012064395625822077,-0.6706014284563394,1.4248757905020721,-1.4470350061683384,-0.04264624689723934,-0.5048374954433109,6.906899506170869,-0.020375952117679008,-0.3331116171082047,0.05988978053482276,663.5681391434694,564.3516319503328,807.6159296179117,737.8744955570693
0.30800000000000005,0.0021695024256952094,5.854763842351938,0.09021794579647648,53.75300151181176,3.1591589499603563,0.8083415142857663,0.006206480049326085,0.4761328053179217,0.16025093794997916,0.0,0.002895194255687348,-0.710645130614433,1.4577501188122284,-1.6761854818332924,-0.1264395797378924,-0.509542738830372,7.056864102565404,0.05612103825764203,-0.33438517093937303,0.08323064172195702,623.7635538967725,541.4581305747145,844.2129126738264,760.3334879292648
0.312,0.002362338386120099,5.848034423906687,0.09130176254023978,53.28452902900816,3.2144727070287806,0.687134113310183,0.006389741656759679,0.48668896749824714,0.16378005340268725,0.0,0.007657118635598252,-0.7518894562924325,1.4900603988425476,-1.8768850881991415,-0.21396561910265124,-0.5099529854308587,7.201219629408294,0.12816255127609366,-0.33208207533431733,0.10696381557252425,580.611379113416,516.5544184896339,878.8152939310476,783.38525857541
0.316,0.002566182833634072,5.841111054367339,0.09237969698938502,52.7813875529864,3.2544650071744474,0.5496792030038353,0.00657521991767389,0.497315606693625,0.1673329233880404,0.0,0.013099097782161404,-0.7941815200504807,1.5217671609915986,-2.0474157719450505,-0.3045109495352506,-0.5052837752348831,7.339610322651485,0.1948822985808592,-0.3261100077986605,0.1308726706012428,533.7859403314658,489.59130319985815,911.336683920283,806.8295569343768
0.32,0.0027808222644694148,5.833993798911917,0.09345487241772259,52.25106584839823,3.2774811170107876,0.3967324395193193,0.006762881555009556,0.5080114946208635,0.17090913494832732,0.0,0.01923073888915195,-0.8373472315961917,1.5528535126641363,-2.1860493585710303,-0.39724474246346625,-0.4952129436736934,7.471778852168077,0.25557917980283873,-0.316154143388372,0.1545755709319714,483.00224365107204,460.88386193035996,941.5253322883947,830.3140261868061
0.324,0.0030059467561341755,5.826682868264118,0.0945304938578455,51.70102503836733,3.2821343591441416,0.22908825672470393,0.006952693612430675,0.5187754152432148,0.17450827924103268,0.0,0.026053062563327782,-0.8811990052118135,1.5833336318728344,-2.2924714706667384,-0.49154987940697126,-0.4797870422169666,7.597455013818829,0.3097923487378269,-0.30230384928399057,0.17799726992320378,427.1126801156021,430.12342618284595,969.4911349936369,853.787666107537
0.328,0.003241150628288143,5.819178532804141,0.09560986741628229,51.138294953163324,3.266924318234772,0.047744954829686576,0.007144623451662155,0.5296061646671952,0.1781299515041729,0.0,0.03355987052877219,-0.9255441973583987,1.6132509099674426,-2.367384402982794,-0.5869547767206279,-0.45887621586921873,7.7163268430802425,0.35752899725851534,-0.2842427701777066,0.2,366.5303308964575,399.50302717287934,994.3448949870633,876.0903879676144
0.332,0.003485913315122646,5.81148132907239,0.09669619387758817,50.57002854701967,3.230599751936049,-0.1459197348236694,0.007338638749848059,0.5405025510402061,0.1817737510219013,0.0,0.041735550422348514,-0.9701886860537984,1.6426557007309612,-2.4117028486825687,-0.6827008301043077,-0.4323046520257715,7.828498082660273,0.39817349183934025,-0.26183780287733277,0.2,356.03349998034383,416.83103330220484,997.5697034219033,876.1687258373762
0.336,0.003739605744314719,5.803591899752507,0.09779264657485198,50.003142753177755,3.1722697824409187,-0.35041965621785737,0.0075347074969302,0.5514633944489493,0.18543928109038016,0.0,0.05055176442664845,-1.0149369755943909,1.671600000273256,-2.425969742399542,-0.777538298065662,-0.40006316527894087,7.933917838614272,0.4315161709418932,-0.23538122767176559,0.2,345.7424939268644,432.59220217446017,999.7074202782079,877.2502181352397
0.34,0.004001508961874812,5.795510553446654,0.09890271428523004,49.443988385321774,3.0914331891770512,-0.5644868936842291,0.007732838787071595,0.562486353820238,0.189126148983918,0.0,0.059972093673460444,-1.0595935884122105,1.7002185986667768,-2.411590766322898,-0.8706411618755615,-0.36322149058322556,8.031840224893068,0.457744150561231,-0.204894263591904,0.2,335.601160625702,446.9599009217034,1000.7720506737454,879.2983455711957
0.34400000000000003,0.004270808178601522,5.787237218736688,0.10003023202478199,48.8985162303236,2.9879084474549567,-0.7868059399405498,0.007933000737029088,0.5735702869359843,0.19283396592136998,0.0,0.06995720580831159,-1.103968862448853,1.7287315178228113,-2.3705753662236497,-0.9614088485941507,-0.32301939450849054,8.121446844053018,0.4768848737072729,-0.17146748016534252,0.2,325.86795487125556,459.8395281394796,1000.8513153244032,882.183623829894
0.34800000000000003,0.004546577856117748,5.778771705211742,0.10117913043081292,48.372053804896794,2.861768159767511,-1.0160606628472937,0.008135161773054688,0.5847140630896625,0.19656234703279934,0.0,0.08046553755598104,-1.1478836333355766,1.7573700324908053,-2.3052096876931243,-1.04917858471631,-0.28026148160834946,8.20241693492237,0.48924967222674137,-0.13465666320812325,0.2,316.3599953289064,471.4812282414288,999.9293077625965,885.9055031969746
0.35200000000000004,0.004827774579201252,5.770113837923719,0.10235328420940557,47.86924614694476,2.7133214949918347,-1.250931865253292,0.00833929062831828,0.5959165629888757,0.2003109113263984,0.0,0.09145183596251108,-1.1911735853354426,1.7863047681199977,-2.2181687601004776,-1.133250658839034,-0.2354975802658684,8.274734306575656,0.49525791921079143,-0.09453782752496105,0.2,307.0010814193855,482.0356001258348,998.0457841871367,890.4052910536568
0.35600000000000004,0.005113234181450953,5.7612634754725764,0.10355646238741384,47.394186131194736,2.543248410170716,-1.4899340734049131,0.008545356340350219,0.6071766786586814,0.2040792816556665,0.0,0.10286531944636468,-1.2336910187062156,1.815667116510432,-2.112192901249124,-1.2126142377294384,-0.18917932810471755,8.338485555476527,0.49522024063486847,-0.05140164869587685,0.2,297.80374506320214,491.57875838781575,995.2486161501286,895.6148302768034
0.36000000000000004,0.005401674983394426,5.752220575938967,0.1047922299767401,46.95031870061104,2.3524658078204013,-1.731550602088736,0.008753328248503651,0.6184933133456683,0.20786708468684378,0.0,0.11464824374982326,-1.2753047326731093,1.8455647243151705,-1.989927126170936,-1.2861010539738058,-0.14167603638327458,8.393960260844414,0.4895939954178163,-0.0054749962114307715,0.2,288.7293123237405,500.2167571914705,991.59379842252,901.4611166261182
0.36400000000000005,0.005691702247318135,5.74298517823344,0.10606393072474414,46.54050095253402,2.1422183356254783,-1.9741238281245612,0.008963175991436426,0.6298653814227813,0.2116739508665982,0.0,0.1267345883811021,-1.3158998122069079,1.8760883600769318,-1.853993806836776,-1.3525037876367803,-0.09329047297604458,8.441489554120023,0.47880828003457276,0.0428776776349373,0.2,279.7871398468381,508.01626832313804,987.1459766795765,907.8618722683997
0.36800000000000005,0.005981815845043054,5.73355738951912,0.10737466677763845,46.16700478811607,1.9141096290791326,-2.2158119432234247,0.009174869504612446,0.6412918082948883,0.2154995143899644,0.0,0.13904890937419195,-1.3553778715471843,1.9073192982170526,-1.7069431366747652,-1.4103460163176353,-0.04427148621774494,8.481452934381494,0.46332730077574247,0.0931931182101643,0.2,271.0104949488494,515.026321772011,981.9814082379637,914.7241662130346
0.37200000000000005,0.006270420797249841,5.723937365892241,0.10872728854930507,45.83151369910098,1.670140121121829,-2.4545475700555923,0.009388379017822317,0.652771530305082,0.21934341316853215,0.0,0.15150245541221247,-1.393656803813353,1.9393331011330008,-1.551254591207905,-1.4578198885882965,0.005164713853519683,8.514258205039855,0.4436574471310497,0.14490041526320951,0.2,262.4598915582282,521.2795424384011,976.1899169710778,921.9434841324409
0.376,0.006555844131901301,5.714125315262952,0.1101243678683034,45.535162205939834,1.4125222176585026,-2.6882045269514925,0.009603675052723155,0.6643034946417127,0.22320528879888296,0.0,0.1639938087476582,-1.4306705435158058,1.9721961627300602,-1.3893129552660588,-1.4933620993258532,0.05484190075432662,8.54037573450206,0.4202981169569032,0.1975354007499216,0.2,254.17326233324744,526.8216997869524,969.8529711769434,929.4295835831315
0.38,0.006836349024251908,5.70412146505083,0.11156820883764046,45.27850617536551,1.1438196588412048,-2.9144454610098176,0.009820728420397417,0.6758866592461473,0.22708478653127287,0.0,0.17640859646892207,-1.466369152868738,2.0059663839473054,-1.2234397502826777,-1.5155252746773635,0.10460614516920655,8.560262774155966,0.39382011715399307,0.25047438240548636,0.2,246.22293119004027,531.6790354768361,963.0736192847254,937.0733793764138
0.384,0.007110156994072729,5.6939260567258305,0.11306083962195947,45.06163661054569,0.8667142362711111,-3.1309274117353945,0.010039510218930583,0.6875199927212464,0.23098155523855896,0.0,0.18862141232803215,-1.5007178345840708,2.040693968820363,-1.0557707703849344,-1.5231253133077107,0.15433435933996115,8.57440182087699,0.3647005598207206,0.3032359752407141,0.2,238.67361630588687,535.8826510282821,955.9362266384202,944.7911024573879
0.388,0.007375466121060925,5.6835393240372705,0.11460402202635607,44.88412820282137,0.5841203676560776,-3.335160125222774,0.010259991831007599,0.6992024742405569,0.23489524738536904,0.0,0.20049577738946525,-1.5336962981644793,2.0764214866169874,-0.8883007376426134,-1.5151411754320603,0.2039245186208592,8.583264771060652,0.3335083597982724,0.35522401339206683,0.2,231.60447663227367,539.4562674328474,948.5458233898001,952.4828108092939
0.392,0.007630472351544879,5.672961477959189,0.11619925975141758,44.74502641350838,0.2992095867506245,-3.5244664897102225,0.010482144921527905,0.7109330934582135,0.23882551899751153,0.0,0.21188284588146775,-1.5652991518758026,2.1131834876837887,-0.7230524971087195,-1.4903479933996,0.2532860077931159,8.58731530247635,0.3008631204756124,0.405745324029546,0.2,225.11904683920469,542.4131500507506,941.0238627140812,960.0383775085027
0.396,0.007873396376415185,5.66219269714507,0.11784780896664886,44.643009287670296,0.015177983892342681,-3.6961729387934366,0.010705941435238921,0.7227108504195443,0.2427720296316244,0.0,0.22262132054382752,-1.595535226910701,2.151006229216235,-0.5618410114217747,-1.4477828613612225,0.3023439580168146,8.58700390646259,0.2672323464551172,0.45427622108054005,0.2,219.32123936412165,544.7665474709798,933.4657169668282,967.3795213958115
0.4,0.008102505800445855,5.651233120241295,0.11955068564939345,44.5762673491848,-0.26459341554621124,-3.8474330087865223,0.010931353594387867,0.7345347554723746,0.24673444234506117,0.0,0.2325380221436832,-1.6244271864653332,2.1899063120251245,-0.40635316535483745,-1.38668694988294,0.3510334229962989,8.582774115860571,0.23324984045472716,0.5001342637083761,0.2,214.31670139971106,546.528454444099,925.9999871159953,974.4013596900423
0.404,0.008316142887728693,5.640082836541697,0.12130868373961005,44.542644536737434,-0.5367075502928681,-3.9753647153469256,0.011158353896391755,0.7464038291790244,0.25071242366601226,0.0,0.24144883578958204,-1.6520108539011722,2.229890668688689,-0.25817783601885996,-1.3064035533961702,0.39930289254135964,8.575040320597232,0.19941943077439414,0.5427353459070112,0.2,210.22384550362457,547.7030134503667,918.737558805312,981.0213759598303
0.40800000000000003,0.008512751567324207,5.628741879193156,0.123122393273891,44.53972390467152,-0.797832648009049,-4.077106571688021,0.011386915111525456,0.7583171022289944,0.25470564356386,0.0,0.24915960413192345,-1.6783342881320622,2.2709571328421085,-0.1185840797801333,-1.2067121563205259,0.4471061647170579,8.564187231491955,0.1661700755876095,0.5815714733594531,0.2,207.15676882001767,548.2918386157513,911.7780068811174,987.1715753693512
0.41200000000000003,0.008690904359490194,5.6172102182508175,0.12499222226426011,44.56495313453556,-1.044812477259596,-4.149901297417897,0.01161701028062767,0.7702736153523351,0.25871377541976526,0.0,0.2554714875631894,-1.7034539447985495,2.3130962907207038,0.01161336121847106,-1.0879958865027375,0.49441804660592165,8.55056170243476,0.1338036964043509,0.6162426005610592,0.2,205.22740152004621,548.290647287309,905.2007414108017,992.8048770405289
0.41600000000000004,0.008849326596091542,5.605487764673506,0.1269184057283504,44.615580034179075,-1.2745911333610762,-4.19101142109448,0.011848612712824681,0.7822724192336935,0.2627364959974845,0.0,0.2601827414310719,-1.727433257934889,2.35629046220144,0.1317561703405395,-0.9507971314366828,0.5412224669959931,8.5344981096809,0.10270857349726376,0.6462779195628504,0.2,204.52663385707322,547.6953796131487,899.1019234831077,997.8607567612779
0.42000000000000004,0.008986921055008994,5.593574370504683,0.1289010229205602,44.688698249887125,-1.4842461915310952,-4.197742477999946,0.012081695983271797,0.7943125744270337,0.2667734854144152,0.0,0.26308859056598777,-1.7503427336004524,2.400511991811634,0.241168266051843,-0.7956004797713307,0.5875080239379143,8.516301420201916,0.07323519682887136,0.671222790872933,0.1783934932181866,285.61092815964173,581.5083253262144,871.1947086002349,982.3835071905594
0.42400000000000004,0.009102791886856627,5.581469832803405,0.13094001446204598,44.78130375209853,-1.6709637522657168,-4.167538848161824,0.012316233930912279,0.8063931512710251,0.27082442711286786,0.0,0.26398126949211065,-1.7722601820935935,2.4457222554151143,0.33925267554060295,-0.6229800270409236,0.633109551305093,8.496246847868006,0.045680667109698134,0.6905855392313641,0.13581739519173114,400.278691508503,643.4112633724615,820.0514743916953,945.9131308966226
0.42800000000000005,0.009196267315881782,5.569173971102947,0.13303517024523703,44.89034226069,-1.8317633828188578,-4.098255554626749,0.012552200656253691,0.8185132298050932,0.274889007831563,0.0,0.26265526430181296,-1.7932659763872862,2.491864259241142,0.4255639139848194,-0.43364751014947656,0.6770374145993693,8.474638621066443,0.020295481523905978,0.70354996311038,0.08921685919558806,496.90240463965256,704.5467993064624,761.6189327992375,903.0768892092105
0.43200000000000005,0.009266946406202339,5.5566869782887816,0.13518584981747514,45.012864202173226,-1.963249606686921,-3.9881017846971014,0.012789570519161512,0.8306718996861302,0.27896691757735187,0.0,0.25891265653890577,-1.8134368196150716,2.5388173616712724,0.49997448675986567,-0.22798913810488344,0.7172451434247124,8.452353306448874,-0.002845242740994236,0.7086932975209361,0.038914797153035655,584.215826281341,764.5779898436584,694.6878142648384,853.1258774339838
0.43600000000000005,0.009314751038359359,5.544009715859586,0.13739069539767984,45.14613172955706,-2.0619034384573727,-3.835169911757439,0.013028318136669879,0.8428682601058565,0.28305784959715846,0.0,0.2525601672238299,-1.8328442549701385,2.5863594874432807,0.5627981936526381,-0.005790462728975649,0.7521208311228318,8.430863675347588,-0.02379645995494331,0.704798505919011,-0.015301637893362557,666.3803372976456,823.8755478520471,616.3781057591079,794.3759123203897
0.44000000000000006,0.009339928475335976,5.531143421749793,0.13964788467571923,45.28764593123864,-2.124117370716642,-3.638002154197551,0.013268418380809355,0.8551014197088328,0.2871615003501419,0.0,0.24340810434455032,-1.8515612849001566,2.6342258645600847,0.6146783361553024,0.23289190956291753,0.7802490234598506,8.411152356948108,-0.0426574640738695,0.6912058074732783,-0.07298827560605556,744.6633590447009,882.0694278570113,522.487362919388,725.2033459913083
0.44400000000000006,0.00934310660710716,5.518090120074521,0.14195472398811343,45.43502160991116,-2.1461718021715783,-3.3954364723731425,0.013509846376451577,0.8673704965111144,0.2912775694800769,0.0,0.2312763738201186,-1.869666922228485,2.6821192089068515,0.6560533426931437,0.4873670377696667,0.8003982926190949,8.395042497906307,-0.059395918726829464,0.6665978533143966,-0.13386259205456247,820.0297317501837,939.0003350795206,403.245221785042,642.5117315369035
0.44800000000000006,0.009325272958086446,5.504852285028627,0.14430797103411278,45.58591807048104,-2.1244649227139,-3.10679683890399,0.01375257749917067,0.8796746178195448,0.2954057597879514,0.0,0.21600589235670756,-1.8872493282186753,2.729720233583816,0.6869123743643133,0.7563932836890762,0.8108966518238503,8.38373012018919,-0.07390477722297686,0.6307516086609161,-0.19740773452160562,892.7198322266245,994.4177296467541,223.15817118975414,540.9808038585007
0.45200000000000007,0.009287786663715181,5.491432956837557,0.14670370265550503,45.73784969921948,-2.0553812566775456,-2.771948535772092,0.013996587373121294,0.892012920151683,0.2995457772047791,0.0,0.19746389018081006,-1.90441382517539,2.7767037724133017,0.70660397822919,1.038301570921713,0.8103548961894909,8.378697135772779,-0.08585720906365467,0.5829231202985463,-0.2,901.0225635861988,991.5422417062057,226.04507960741105,530.6527237994487
0.45600000000000007,0.009232380812384517,5.477835888824497,0.1491371422683758,45.88779331137537,-1.9354407961567899,-2.3907983073415244,0.014241851868933206,0.9043845491563606,0.30369733076462546,0.0,0.17554549100220213,-1.92129763163842,2.822696018325133,0.7133548016206765,1.3317172002100757,0.7978561897633197,8.381797450943354,-0.0944562256714913,0.5226350506500553,-0.2,907.6361251681319,985.5839266983813,245.141576116634,522.2792682528717
0.4600000000000001,0.009160954414486394,5.464062998960584,0.15160530979072165,46.033419441929226,-1.7630960879175888,-1.9638581518082963,0.014488347101622225,0.916788659534863,0.30786013257784617,0.0,0.15017347671150866,-1.938057871022585,2.867625115488493,0.7065940666678256,1.6329320937051495,0.7748151910201155,8.389534168906149,-0.10030378560906081,0.4539584221146597,-0.2,914.8070934191704,979.1626570227452,266.7352738565246,512.0301112921381
0.4640000000000001,0.009075579339154946,5.450113951696044,0.15410750586069558,46.17353338976536,-1.5386252525874762,-1.492944801015428,0.014736049428517447,0.9292244149627306,0.3120338978045354,0.0,0.12132275418384633,-1.95483529027915,2.911848378679984,0.6883925487302474,1.9347022590165448,0.7440819999811341,8.397370449238094,-0.10456268093448003,0.3786347786190387,-0.2,922.3964958319617,972.2523179114366,289.17667668294837,500.15770411054405
0.4680000000000001,0.008978609504834112,5.435987129215582,0.1566443544513965,46.307712606882305,-1.2636384929526938,-0.9808586403806587,0.014984935447204627,0.9416909880121757,0.3162183446281834,0.0,0.08904850260788934,-1.971728039729252,2.95587639250087,0.662382924746536,2.2282966119088004,0.7076864483630495,8.402639820067284,-0.10804903512842698,0.29675393366154956,-0.2,930.4194482080525,964.7371233299988,311.9080446255433,486.62352239073874
0.4720000000000001,0.008872741541800969,5.421680318236858,0.1592171287187635,46.43598480847279,-0.9407005461162913,-0.43110133649540683,0.015234981993485592,0.9541875600751094,0.320413194229541,0.0,0.053484371108220574,-1.988804812958407,2.9999632000283882,0.6311648619675017,2.5069801135958256,0.6669602849661892,8.404001866108057,-0.11125559705131748,0.20852697143066676,-0.2,938.869809134505,956.5569576751435,334.63061997576744,471.37150324017574
0.4760000000000001,0.008761035252007464,5.407191138173189,0.16182733565111113,46.55860386086808,-0.5730847237165074,0.15230317723602946,0.015486458759013482,0.9666987655917845,0.32461817076069005,0.0,0.014826020488067517,-2.0061192624260547,3.0441535300082214,0.5962679310038339,2.765863048885115,0.6229322009162306,8.400938474418366,-0.11444422206995596,0.11776677437160099,-0.2,947.4052550812719,948.0094086847099,356.3409705251873,454.98426692226656
0.48,0.008646906198615857,5.39251729711528,0.16447647157441492,46.67589889327532,-0.16461846366900365,0.7649134590342421,0.015739339527993768,0.979223978557357,0.3288330013193178,0.0,-0.026680058583805965,-2.0237191433223467,3.0883657278933128,0.5585160938757963,3.001267093761832,0.5764139903910253,8.393420319250875,-0.11771621042199615,0.01843470560946997,-0.2,956.5762681817456,938.5204676689335,378.5665490953118,436.1619046860659
0.484,0.008534099213185629,5.377656735420088,0.16716588781501968,46.788169987829335,0.28043275646585203,1.4019487011329155,0.015993598348677352,0.9917625799747741,0.33305741592319466,0.0,-0.07074302203979808,-2.0416517155808735,3.1324500221921725,0.5183097352427855,3.210300642969319,0.5280524406570456,8.381691089518757,-0.12105643266889005,-0.08556168207239423,-0.2,966.0186256117132,928.4292144520937,400.3938669702748,415.3896444072076
0.488,0.008426650218590256,5.362607701666016,0.16989672219833785,46.89562408394271,0.7574058865422016,2.0582975017125893,0.01624920953112624,1.0043139577929623,0.3372911474848517,0.0,-0.11703093406033531,-2.0599664847344585,3.176227335487914,0.4758248664092676,3.390513348973691,0.47836921418687706,8.366138156225258,-0.1243731359942952,-0.1933829141191714,-0.2,975.6480185524027,917.8093788078327,421.74543748733674,392.53651040730716
0.492,0.008328839347381564,5.347368776888699,0.17266987971735995,46.99832656745032,1.2613330642741947,2.728584214441098,0.016506147644996687,1.016877506845511,0.34153393178645947,0.0,-0.16517232256137188,-2.0787161116173665,3.219516239332813,0.4311361297919666,3.539822386642716,0.4277872483878863,8.347194965705299,-0.12751181180832663,-0.30413977715752266,-0.2,985.3741350599777,906.7485610433226,442.5614032337178,367.4038071093165
0.496,0.00824513874528462,5.331938870119414,0.1754860397021683,47.096169720841154,1.7870776021771702,3.4072827277035196,0.016764387517339528,1.0294526287898416,0.3457855074549036,0.0,-0.21476188869189733,-2.097956341312968,3.2621512037914373,0.38428642468239244,3.656661036147722,0.37664410193813935,8.325287872206097,-0.1302714757131493,-0.4169814615537314,-0.2,995.1093369004602,895.3386047906006,462.8065260227246,339.6688728701994
0.5,0.008180161811344734,5.316317250933935,0.1783456263454201,47.188861450333214,2.328997233696103,4.088349130922738,0.01702390423041769,1.0420387320468631,0.350045615937058,0.0,-0.2653563577958414,-2.117745024639015,3.303988906115309,0.3353583483924415,3.739099259074431,0.32522821436441135,8.300910279513953,-0.13242606713270474,-0.5306261314349923,-0.2,1004.7312353984548,883.7211818269453,482.3790636365676,308.94892081266113
0.504,0.008138604035336127,5.30050348262394,0.1812488737233254,47.27590063031524,2.881345513508239,4.76560299525402,0.017284673119540687,1.0546352317411058,0.3543140014752529,0.0,-0.3164752912874304,-2.1381407389917038,3.3449191820991926,0.2844874830471041,3.785232479907272,0.2737682701918864,8.274431801040325,-0.1337079223900577,-0.6440852138115397,-0.2,1014.141658012619,872.0183334269741,501.2446660348902,274.4887524693757
0.508,0.008125183862458717,5.284497467451357,0.184195778410183,47.3565803929161,3.4378652190185166,5.432292277024334,0.017546669770915964,1.067241549641334,0.35859041108293627,0.0,-0.36759534595146737,-2.1592011782338854,3.384867722290527,0.23189036239305844,3.7929567736802206,0.22245594348674028,8.246324318152714,-0.13383857520100761,-0.7558375394538973,-0.2,1023.2016470441434,860.4148303869127,519.2874864457424,235.1314768288837
0.512,0.00814457894299411,5.268299406519914,0.18718613362597175,47.42999576691406,3.9919640785076274,6.081236775601427,0.017809870019517046,1.0798571141016318,0.3628745945205285,0.0,-0.4181502421794245,-2.1809813821145916,3.4237966054462796,0.17791650452012636,3.7597566056001455,0.1714296832432125,8.216998018653596,-0.13253391685254626,-0.8644261230083513,-0.2,1031.780858562132,849.0985087831687,536.4133436172982,188.392559867959
0.516,0.008201365203019385,5.251909748273905,0.1902195738849056,47.4950559479321,4.5368387266124754,6.705001012905918,0.018074249946968275,1.0924813600029573,0.3671663042714669,0.0,-0.4675268506865707,-2.203530663859647,3.461716933567587,0.12301447509526413,3.6835713345072514,0.12084339886617732,8.18677899677131,-0.12950998837010885,-0.9678489325837814,-0.2,1039.706349422402,838.3216786377101,552.4482135817805,127.53240891940672
0.52,0.008299957516052416,5.235329114156311,0.19329564156450016,47.55052443509602,5.065850636427769,7.296210817723449,0.018339785879446062,1.105113728695166,0.37146529551844026,0.0,-0.5150859938348511,-2.2268909744951353,3.49869332015615,0.06770820782219455,3.5636419530232795,0.07076324712123079,8.155863342062544,-0.1245162304179726,-1.0,-0.2,1041.5205594944034,834.9845631596966,557.4010370662431,94.6540783763834
0.524,0.008444538576131103,5.218558337353452,0.1964137329885438,47.59512326762799,5.5723226379718795,7.84742340127994,0.018606454385596514,1.1177536679394944,0.37577132611981123,0.0,-0.5601756329027225,-2.251094601179787,3.5348346791224152,0.012668587657757014,3.40020318027954,0.02125432026709379,8.124559545801864,-0.11741297779505663,-1.0,-0.2,1040.492929287835,835.1693392486854,557.6777928415473,82.58241097066175
