Time_s,X,Y,Z,Roll_deg,Pitch_deg,Yaw_deg,Ref_X,Ref_Y,Ref_Z,Ref_Yaw,vx,vy,vz,p,q,r,T_pert,tau_x,tau_y,tau_z,RPM_0,RPM_1,RPM_2,RPM_3
0.0040000000000000036,-6.51783449945208e-23,4.0,0.010006999594037988,-3.861262043247411e-18,-1.3963409037126566e-18,6.720055526330817e-20,1.494038018717053e-22,4.0,0.010074639714689831,7.2122854763592815e-22,5.628567488317738e-19,800.0,2.0013999188075973,0.0,0.0,0.0,0.13727673356390743,4.508920778836622e-18,4.131065662548703e-18,-3.0228665552082376e-20,539.3555031529193,539.3555031529194,539.3555031529193,539.3555031529194
0.007999999999999993,3.266149571333397e-23,4.0,0.01001099936604295,-5.077545963358211e-18,-1.5806513993925031e-18,1.779515296619247e-19,1.4939310914910226e-22,4.0,0.01021705724096241,7.21176929827702e-22,3.2358006469408643e-19,444.44444444444446,1.112333262893661,0.0,0.0,0.0,0.28307763445396705,1.684336394644241e-18,-3.1500568163016392e-18,-1.3044070718372069e-19,543.2938902409246,543.2938902409246,543.2938902409246,543.2938902409246
0.011999999999999997,1.407076584761572e-22,4.0,0.010014999147004025,-5.318706777052454e-18,-1.639684111117076e-18,2.761434306337637e-19,1.4937716658724108e-22,4.0,0.010429397942859043,7.210999690637008e-22,-5.8682554324860094e-21,-8.569108595430525e-23,0.000999943864330756,0.0,0.0,0.0,0.42940121619331495,6.288259324557946e-19,-2.190217055542735e-20,-1.2031933251943465e-19,547.2178991675321,547.2178991675322,547.2178991675321,547.2178991675321
0.016,1.877018328793566e-22,4.0,0.010018998946029293,-6.792664248954473e-18,-1.2900319197511338e-18,3.3241307827056944e-19,1.493560377581251e-22,4.0,0.010710815098006973,7.209979722299813e-22,1.3613647803768918e-20,-1.0127493510055886e-22,0.000999946631403438,0.0,0.0,0.0,0.5762362186425524,2.084893676906602e-18,3.2573574558362077e-19,-7.53814436432153e-20,551.1275382989265,551.1275382989267,551.1275382989265,551.1275382989267
0.020000000000000004,3.561504976844513e-22,4.0,0.010022998767401186,-6.9079643467845925e-18,-6.13704864723824e-19,7.209812095315814e-19,1.4932978565759922e-22,4.0,0.0110604696579496,7.208712434312662e-22,1.4514719843096625e-20,-1.1120033295036144e-22,0.0009999512708235361,0.0,0.0,0.0,0.7235715097454171,5.99138153959007e-19,-2.1562487861244097e-18,-4.658711269265365e-19,555.0228180234129,555.022818023413,555.0228180234129,555.0228180234129
0.024000000000000007,5.124904148254777e-22,4.0,0.010026998612427269,-8.257716526251793e-18,-1.4046732715392736e-18,9.359217271867248e-19,1.4929847270999597e-22,4.0,0.011477530186265229,7.207200840133721e-22,4.1208189469371444e-20,-1.2470479109015447e-22,0.000999956851879813,0.0,0.0,0.0,0.8713960695306959,2.0485323356693652e-18,9.649652820826933e-19,-2.7900440970972527e-19,558.9037502648109,558.9037502648109,558.9037502648109,558.9037502648109
0.027999999999999997,5.830352249731836e-22,4.0,0.010030998480593734,-9.124759532020833e-18,-6.606792107769945e-19,1.1461113646292796e-18,1.492621607727464e-22,4.0,0.011961172797154362,7.2054479258546825e-22,2.831195076338822e-20,-1.3891235204216e-22,0.0009999626813309709,0.0,0.0,0.0,1.0196989904770508,1.5771564513268236e-18,9.375675061030961e-20,-2.8228275049937248e-19,562.7703484418339,562.770348441834,562.7703484418339,562.7703484418339
0.032,6.575336051899164e-22,4.0,0.010034998370453267,-9.582058378900245e-18,-1.0079125340657376e-19,6.458665698540641e-19,1.4922091114095602e-22,4.0,0.012510581094492131,7.203456650421662e-22,2.0678013450538717e-20,-1.55433282880272e-22,0.0009999683502622675,0.0,0.0,0.0,1.1684694770318276,1.1579753802333108e-18,-7.175817416755235e-19,5.389839365421823e-19,566.622627407873,566.6226274078731,566.622627407873,566.622627407873
0.036000000000000004,5.890745580696354e-22,4.0,0.010038998280237207,-1.1184817445940169e-17,-7.281624553165309e-19,7.674608204139635e-19,1.4917478455194605e-22,4.0,0.013124946111342446,7.201229945854423e-22,6.056941523977346e-21,-1.7440021761657006e-22,0.000999973653412374,0.0,0.0,0.0,1.317696845166443,2.526837568007747e-18,2.3384340886377057e-18,-1.6688278291618818e-19,570.4606033947092,570.4606033947093,570.4606033947092,570.4606033947092
0.04000000000000001,7.231910373896245e-22,4.0,0.010042998208036466,-1.1538574244067672e-17,-2.337065473408284e-19,8.724269902298028e-19,1.4912384118976031e-22,4.0,0.013803466249930549,7.198770717463939e-22,1.6013114023464765e-21,-1.8987986478772059e-22,0.000999978510894499,0.0,0.0,0.0,1.467370522263902,1.1779376223934896e-18,-2.835991255900088e-18,-1.5245368660702694e-19,574.2842939674629,574.284293967463,574.2842939674629,574.284293967463
0.044,7.545903378506349e-22,4.0,0.010046998151852013,-1.2120557492132442e-17,-3.725911124073118e-19,1.0636131068220028e-18,1.49068140689638e-22,4.0,0.014545347222070593,7.196081844068313e-22,1.756266913005691e-20,-2.0254453452846415e-22,0.0009999828890638537,0.0,0.0,0.0,1.6174800464171455,1.4686357707100226e-18,1.2580615891051303e-18,-2.574845827195499e-19,578.0937179669293,578.0937179669294,578.0937179669293,578.0937179669293
0.048,8.137469366646944e-22,4.0,0.010050998109900795,-1.2216345884044967e-17,-3.443575650259733e-20,1.2381711426701425e-18,1.490077421424523e-22,4.0,0.015349801990044966,7.193166178207048e-22,9.727444061838027e-21,-2.092898021432376e-22,0.0009999867901481704,0.0,0.0,0.0,1.7680150649560011,9.406876812664277e-19,-7.251154633986544e-19,-2.459132227501519e-19,581.8888954352705,581.8888954352705,581.8888954352705,581.8888954352705
0.052000000000000005,8.422084222898953e-22,4.0,0.010054998080633102,-1.2394986366487982e-17,5.87651745991992e-20,1.3265092317419214e-18,1.489427040991157e-22,4.0,0.016216050707932004,7.1900265463537025e-22,1.3800236050967226e-20,-2.133187443294557e-22,0.0009999902558363236,0.0,0.0,0.0,1.9189653340774306,1.043986988948568e-18,1.9531503311412491e-19,-1.5236479064088894e-19,585.6698475725921,585.6698475725922,585.6698475725921,585.6698475725921
0.05600000000000001,8.511811755496102e-22,4.0,0.01005899806261874,-1.2508948665255579e-17,7.221540180797987e-20,1.5699550306725964e-18,1.488730845749516e-22,4.0,0.01714332066337891,7.186665749126929e-22,6.1469849206335005e-21,-2.1602416509759403e-22,0.0009999933434088823,0.0,0.0,0.0,2.0703207181731274,9.80676038479001e-19,1.766033816784722e-19,-3.3718478806854652e-19,589.4365966881046,589.4365966881047,589.4365966881046,589.4365966881047
0.06,8.389074109746521e-22,4.0,0.010062998054617127,-1.2599996355249293e-17,2.740960406463127e-20,1.6504626964757272e-18,1.4879894105403274e-22,4.0,0.01813084621981657,7.183086561499908e-22,5.213552219003417e-22,-2.18646579942754e-22,0.0009999960851303155,0.0,0.0,0.0,2.222071188529079,9.617109197861729e-19,2.8022013160072776e-19,-1.5684620350701303e-19,593.1891661380661,593.1891661380662,593.1891661380661,593.1891661380661
0.064,8.52888241914769e-22,4.0,0.010067350178648075,3.0927671095612616e-17,9.098756818719184e-20,1.1471383586444523e-18,1.4872033049348697e-22,4.0,0.019177868759113068,7.179291733008196e-22,7.23071311832637e-22,-1.0417185785820111e-22,0.001035210835679222,0.0,0.0,0.0,2.373492182998259,-4.9967049781916404e-17,-3.79113149060597e-19,5.218537087856638e-19,596.9100742438254,596.9100742438255,596.9100742438254,596.9100742438254
0.068,8.466196586672205e-22,4.0,0.010075850500229478,2.9899332646040434e-16,2.3713854817599906e-18,7.514129285461871e-19,1.4863730932776999e-22,4.0,0.02028363662466268,7.175283987955997e-22,6.925543028939779e-22,2.9195983558649876e-21,0.0014852442802729474,0.0,0.0,0.0,2.517573118228149,-3.1514385764191216e-16,-2.452143036811074e-18,4.1682696905530106e-19,600.429204301473,600.429204301473,600.4292043014729,600.429204301473
0.07200000000000001,7.7260580262409935e-22,4.0,0.01009367409184366,8.206310904623984e-16,1.1672336176975907e-17,1.6088673495433289e-18,1.4854993347290582e-22,4.0,0.02144740506490721,7.171066025620859e-22,-7.461264313249941e-21,2.269913799554804e-20,0.0028676037821561903,0.0,0.0,0.0,2.651384534905654,-6.295791891175882e-16,-1.0235935156480618e-17,-1.0308378524891955e-18,603.6791315120278,603.6791315120277,603.6791315120275,603.6791315120278
0.07600000000000001,5.283925025766858e-22,4.0,0.010125514453108036,1.6163873305216527e-15,4.018739777858515e-17,3.4180838593934986e-18,1.48458258330695e-22,4.0,0.02266843617728647,7.166640520456819e-22,-3.516232685619001e-20,9.585839011978915e-20,0.005476788220966193,0.0,0.0,0.0,2.775729173051684,-9.853470417519702e-16,-3.205815455540902e-17,-2.1778586935207584e-18,606.6835302677694,606.6835302677692,606.6835302677691,606.6835302677695
0.08000000000000002,2.204018543730034e-22,4.0,0.010175631088639803,2.691682343859773e-15,8.459085684525449e-17,5.164834823530252e-18,1.483623387928908e-22,4.0,0.023945998852614794,7.162010122296011e-22,-6.826116169275671e-20,2.887542096100676e-19,0.00923382562690641,0.0,0.0,0.0,2.8913286481526224,-1.3661892226871211e-15,-5.365814285349711e-17,-2.179183722916072e-18,609.4633450636326,609.4633450636322,609.4633450636322,609.4633450636326
0.08399999999999999,-3.1583698261955465e-23,4.0,0.010247894389063593,4.047507412633578e-15,1.456214051362685e-16,4.354637740294248e-18,1.482622292453437e-22,4.0,0.025279368719880475,7.157177456548731e-22,-9.181833134392802e-20,6.967252637716025e-19,0.014032803770158869,0.0,0.0,0.0,2.9988274086151687,-1.7673044803294716e-15,-7.745045980843839e-17,7.360062674460412e-19,612.0370329545703,612.03703295457,612.0370329545699,612.0370329545703
0.088,-1.323041859417042e-22,4.0,0.010345825946792134,5.6978078773190986e-15,2.3214671042856263e-16,2.343520488301316e-18,1.4815798357211431e-22,4.0,0.026667828091465062,7.152145124401982e-22,-1.04400643127552e-19,1.4413669000049421e-18,0.01977882193652733,0.0,0.0,0.0,3.09880057090776,-2.203887474468344e-15,-1.1254890435370016e-16,2.1721377519147544e-18,614.4208713557477,614.4208713557472,614.4208713557472,614.4208713557479
0.092,1.5419043081398772e-22,4.0,0.01047262095796823,7.650604271329432e-15,3.471222827239318e-16,-3.827820761219693e-19,1.480496551595551e-22,4.0,0.028110665908779343,7.146915703016515e-22,-1.0346063461835548e-19,2.6688437649613782e-18,0.0263854369701182,0.0,0.0,0.0,3.1917889913063013,-2.669973231415934e-15,-1.545618883319289e-16,3.0901677319339e-18,616.6298877473026,616.629887747302,616.629887747302,616.6298877473027
0.096,1.324037485844436e-21,4.0,0.010631158742520554,9.89912403677123e-15,4.776147808659458e-16,-7.08690155235355e-18,1.4793729690036084e-22,4.0,0.029607177688313134,7.141491745722366e-22,-6.209294951180495e-20,4.545050519205105e-18,0.03377145800697243,0.0,0.0,0.0,3.2783226666762584,-3.1488358423115187e-15,-1.8664905175776382e-16,7.848835120547438e-18,618.6784812675193,618.6784812675184,618.6784812675184,618.6784812675193
0.1,3.6657261555407704e-21,4.0,0.010824121850596667,1.2458410675239291e-14,6.384034858205261e-16,-1.5726130030622763e-17,1.4782096119758852e-22,4.0,0.031156665468095743,7.1358757822129e-22,2.0346687417329625e-20,7.254639370346002e-18,0.0418690449402152,0.0,0.0,0.0,3.3587000216806295,-3.665487503006776e-15,-2.3505586420297263e-16,1.0384638591488239e-17,620.5752723361154,620.5752723361144,620.5752723361144,620.5752723361153
0.10400000000000001,7.726547439953716e-21,4.0,0.01105396845497166,1.5322453855363437e-14,8.283790594268386e-16,-2.4035435465374055e-17,1.4770069996864635e-22,4.0,0.03275843775456411,7.130070318737389e-22,1.4567763536359624e-19,1.0997693714398733e-17,0.0506219454153042,0.0,0.0,0.0,3.433281870301453,-4.196371681004561e-15,-2.8750563407391103e-16,1.0353988238383301e-17,622.3301267710233,622.3301267710222,622.3301267710222,622.3301267710233
0.10800000000000001,1.435055778444261e-20,4.0,0.011322949950491594,1.8483787673410582e-14,1.0283261287077849e-15,-3.4081280167441016e-17,1.4757656464925262e-22,4.0,0.034411809469835686,7.124077838292109e-22,3.416995556806925e-19,1.5986679273049292e-17,0.059977153728622834,0.0,0.0,0.0,3.5024005475602573,-4.739377656585061e-15,-3.2344190096878375e-16,1.272374490388703e-17,623.9520304889702,623.952030488969,623.9520304889688,623.9520304889702
0.11200000000000002,2.4132471699383764e-20,4.0,0.01163312105002965,2.184073731076316e-14,1.249328503571664e-15,-4.958994752862174e-17,1.4744860619736423e-22,4.0,0.03611610189938309,7.117900800809994e-22,6.238390012134685e-19,2.2409083800378508e-17,0.06988316388410708,0.0,0.0,0.0,3.5663745769126227,-5.183984091601909e-15,-3.7082271446685574e-16,1.9517697670529765e-17,625.4494645667689,625.4494645667675,625.4494645667676,625.4494645667688
0.11600000000000002,3.781412021334122e-20,4.0,0.011986333201817079,2.527352529050962e-14,1.4954495177797338e-15,-6.701947125120235e-17,1.473168750970754e-22,4.0,0.03787064264010755,7.111541643348835e-22,9.704650253613698e-19,3.036549260398294e-17,0.08028990378495249,0.0,0.0,0.0,3.6255421979014617,-5.502099160221712e-15,-4.2662726280843997e-16,2.2398394761288783e-17,626.8312113331865,626.8312113331849,626.831211333185,626.8312113331865
0.12,5.635537379794284e-20,4.0,0.012384299506449533,2.869705097918389e-14,1.7585588025131366e-15,-8.430813990456177e-17,1.4718142136248654e-22,4.0,0.03967476554880826,7.105002780278049e-22,1.3933660244631486e-18,3.986619740179591e-17,0.09115313116614518,0.0,0.0,0.0,3.680116466225658,-5.726025467941401e-15,-4.778503649865362e-16,2.2949563399725288e-17,628.1029942681647,628.1029942681632,628.1029942681632,628.1029942681648
0.124,8.087121415649252e-20,4.0,0.01282863009468847,3.202774012422073e-14,2.0231355152333663e-15,-9.963081883450171e-17,1.470422945415437e-22,4.0,0.041527810691044824,7.098286603464023e-22,1.9312011832063417e-18,5.08626884086147e-17,0.10243921010333594,0.0,0.0,0.0,3.7302431343199376,-5.851726036001976e-15,-5.147631241146921e-16,2.1362902165115553e-17,629.2688669587018,629.2688669587001,629.2688669587002,629.2688669587017
0.128,1.123197497027508e-19,4.0,0.013320806449502072,3.512401989441841e-14,2.291764218408796e-15,-1.1506584755238721e-16,1.4689954371984869e-22,4.0,0.04342912429038966,7.091395482454041e-22,2.59783853951173e-18,6.321444023227042e-17,0.11411880167262275,0.0,0.0,0.0,3.7761234368299785,-5.805759039546057e-15,-5.539508241203722e-16,2.2123340236904746e-17,630.3340852891869,630.3340852891852,630.3340852891854,630.3340852891868
0.132,1.5202635091921233e-19,4.0,0.01386218902311065,3.79643254070947e-14,2.5326655023587827e-15,-1.3469151555744072e-16,1.4675321752444008e-22,4.0,0.04537805867806791,7.08433176465881e-22,3.4339873752791938e-18,7.670350620506414e-17,0.12616152948362325,0.0,0.0,0.0,3.8179473361364513,-5.718580561857147e-15,-5.614498094005451e-16,2.7652478761459382e-17,631.3035587167715,631.3035587167698,631.30355871677,631.3035587167714
0.136,2.0108287968213536e-19,4.0,0.014454026644736804,4.062694668959388e-14,2.7314253954196353e-15,-1.5717792481221566e-16,1.466033641275455e-22,4.0,0.047373972242981614,7.077097775533594e-22,4.486169878245514e-18,9.116227158612204e-17,0.13853768312006004,0.0,0.0,0.0,3.855889644953913,-5.7053197584789786e-15,-5.486823112013482e-16,3.180016719111295e-17,632.1817711455689,632.1817711455672,632.1817711455674,632.1817711455687
0.14,2.600979306905648e-19,4.0,0.01509745953668108,4.310334759444477e-14,2.9068856703847063e-15,-1.761468262732895e-16,1.4645003125030508e-22,4.0,0.0494162293821156,7.069695818757961e-22,5.750994831471931e-18,1.0654895652572591e-16,0.15121931321445906,0.0,0.0,0.0,3.8901226980866586,-5.66994055000903e-15,-5.504037928221356e-16,2.861452336333812e-17,632.9730835545981,632.9730835545965,632.9730835545967,632.9730835545981
0.14400000000000002,3.297643128652363e-19,4.0,0.01579351836658776,4.533135062664382e-14,3.0597829307163678e-15,-1.9360934302610125e-16,1.4629326616646652e-22,4.0,0.05150420045132223,7.062128176414161e-22,7.168472019803242e-18,1.2276028892846592e-16,0.16417913277968468,0.0,0.0,0.0,3.920824300544195,-5.549220475135019e-15,-5.529795014301211e-16,2.7633749104477688e-17,633.6819243883713,633.6819243883697,633.6819243883698,633.6819243883712
0.14800000000000002,4.105153110944437e-19,4.0,0.016543166070396447,4.7297591887740135e-14,3.2082209686960355e-15,-2.1127042951363488e-16,1.4613311570605203e-22,4.0,0.05363726171648213,7.054397109164135e-22,8.693552808824225e-18,1.3957919416002038e-16,0.17739381587568143,0.0,0.0,0.0,3.9480909536020725,-5.39590890733428e-15,-5.728116670135079e-16,2.858277421174477e-17,634.3107947118497,634.3107947118482,634.3107947118483,634.3107947118497
0.152,5.028901146047122e-19,4.0,0.017347283103412266,4.898659544839821e-14,3.3566327635870608e-15,-2.311822954060863e-16,1.459696262589971e-22,4.0,0.0558147953050383,7.046504856425179e-22,1.0289097045632559e-17,1.5676404665299664e-16,0.19084344933017644,0.0,0.0,0.0,3.9720513346065656,-5.20662570464371e-15,-5.992224695551048e-16,3.1937258618237045e-17,634.8628959069778,634.8628959069764,634.8628959069765,634.8628959069778
0.156,6.074798286848533e-19,4.0,0.01820667089400606,5.0359487055666106e-14,3.5042782540904088e-15,-2.5244068741672833e-16,1.458028437787615e-22,4.0,0.05803618915790083,7.03845363654426e-22,1.1941946804496515e-17,1.7406486152066888e-16,0.20450842124914675,0.0,0.0,0.0,3.9928298241722535,-4.952989605796412e-15,-6.259388935775087e-16,3.4327856418612984e-17,635.3412907209708,635.3412907209694,635.3412907209695,635.3412907209707
0.16,7.250816100221284e-19,4.0,0.01912206229697675,5.142267097833419e-14,3.629724831027684e-15,-2.778391303693564e-16,1.456328137859127e-22,4.0,0.06030083698171933,7.030245646970997e-22,1.3700797994458146e-17,1.911988961484653e-16,0.21836982474993177,0.0,0.0,0.0,4.010532189706915,-4.6852154938597734e-15,-6.305925950874455e-16,4.003702562562389e-17,635.7485782152709,635.7485782152695,635.7485782152697,635.7485782152709
0.164,8.566567340062506e-19,4.0,0.020094122288921646,5.2179244075643824e-14,3.689367814376684e-15,-3.090500266484165e-16,1.454595813716818e-22,4.0,0.06260813820152066,7.021883064429321e-22,1.568528526416634e-17,2.0792024914651594e-16,0.23241012574901004,0.0,0.0,0.0,4.025265055696526,-4.399879138646957e-15,-5.855176039691514e-16,4.7869829066292044e-17,636.0873460583426,636.0873460583414,636.0873460583415,636.0873460583426
0.168,1.0025389471412252e-18,4.0,0.021123439228581776,5.259366883645501e-14,3.6809847218246345e-15,-3.441050110903826e-16,1.4528319120149226e-22,4.0,0.06495749791370911,7.013368045087826e-22,1.8000203013791594e-17,2.2396649565222227e-16,0.24661168956554116,0.0,0.0,0.0,4.037155029595687,-4.0520777048307276e-15,-5.26976683659536e-16,5.3641948754581946e-17,636.3606128766145,636.3606128766133,636.3606128766136,636.3606128766145
0.17200000000000001,1.1627459828854018e-18,4.0,0.022210539090461195,5.2651054612550204e-14,3.6067878201157046e-15,-3.803015296984484e-16,1.4510368751846175e-22,4.0,0.06734832683942642,7.004702724728806e-22,2.0664930473939773e-17,2.3901151435000976e-16,0.2609568630187742,0.0,0.0,0.0,4.046302355359616,-3.6634910638180715e-15,-4.631104205665561e-16,5.641490862868535e-17,636.5707656772256,636.5707656772247,636.5707656772248,636.5707656772257
0.17600000000000002,1.3369334904714377e-18,4.0,0.02335588854181603,5.2346987739265074e-14,3.4800750862931876e-15,-4.166253548380475e-16,1.4492111414687696e-22,4.0,0.0697800412782689,6.995889218916004e-22,2.3593046580127672e-17,2.5269619167329195e-16,0.27542991867003963,0.0,0.0,0.0,4.05280310177233,-3.2453352708728466e-15,-4.0621733179006395e-16,5.804996529102725e-17,636.720073182471,636.7200731824701,636.7200731824702,636.720073182471
0.18000000000000002,1.5245851915922891e-18,4.0,0.024559897776175798,5.173022210967166e-14,3.309711354298206e-15,-4.545353624153159e-16,1.447355144956419e-22,4.0,0.07225206306235925,6.986929623161074e-22,2.6741036962279474e-17,2.6477757478363915e-16,0.29001619908060433,0.0,0.0,0.0,4.056749557982437,-2.8593939887410306e-15,-3.539430931199332e-16,6.139444729857222e-17,636.8106973173986,636.810697317398,636.8106973173981,636.8106973173988
0.184,1.7250870724151762e-18,4.0,0.025822924207643237,5.081033808555941e-14,3.09643344830432e-15,-4.958614379646646e-16,1.445469315616998e-22,4.0,0.07476381951077025,6.97782601308877e-22,3.005445038939164e-17,2.75098877134255e-16,0.30470185056646787,0.0,0.0,0.0,4.058228395709086,-2.4632569227218256e-15,-2.9812016874150004e-16,6.694165870451572e-17,636.8446531688785,636.8446531688778,636.844653168878,636.8446531688786
0.188,1.937484144204955e-18,4.0,0.027145274194244656,4.957920354329167e-14,2.858714459706425e-15,-5.366376417748169e-16,1.443554079334288e-22,4.0,0.07731474338429796,6.968580444600863e-22,3.347745004683612e-17,2.834712463321804e-16,0.319473699789831,0.0,0.0,0.0,4.057324551036747,-2.0368957576277115e-15,-2.5658925032845765e-16,6.799630011784036e-17,636.8239000485303,636.8239000485297,636.8239000485298,636.8239000485304
0.192,2.160815452985903e-18,4.0,0.02852720286812601,4.804052414795184e-14,2.603205120025357e-15,-5.780166811094543e-16,1.4416098579401145e-22,4.0,0.07990427284058149,6.959194954038805e-22,3.6959045133747564e-17,2.896464008451182e-16,0.33431894658695444,0.0,0.0,0.0,4.054125011153351,-1.5935777689439176e-15,-2.2042057949925085e-16,7.037490636971955e-17,636.7504301805296,636.7504301805292,636.7504301805293,636.7504301805296
0.196,2.394002660479408e-18,4.0,0.02996891871314318,4.6310340328175144e-14,2.340991369978127e-15,-6.215412763813824e-16,1.439637069247785e-22,4.0,0.08253185138956737,6.949671558345146e-22,4.039786329295669e-17,2.9353453399030777e-16,0.34922520151459346,0.0,0.0,0.0,4.048709184343393,-1.264733301479033e-15,-1.9393580469671041e-16,7.458040836101495e-17,636.6260492010565,636.6260492010563,636.6260492010565,636.6260492010567
0.2,2.636008421829139e-18,4.0,0.031470586194063496,4.44638441365375e-14,2.075769091352134e-15,-6.597011461415046e-16,1.4376361270852708e-22,4.0,0.08519692784931539,6.94001225522371e-22,4.3768844600279494e-17,2.953329885389624e-16,0.36418090670439834,0.0,0.0,0.0,4.0411527078302365,-1.0105975029417202e-15,-1.7100147612332388e-16,7.010081743214295e-17,636.4524650073081,636.4524650073079,636.452465007308,636.4524650073082
0.20400000000000001,2.8850970506766407e-18,4.0,0.0330323245623645,4.2571873204746796e-14,1.8777480799574494e-15,-6.918594946008982e-16,1.4356074413281315e-22,4.0,0.08789895630214385,6.930219023298543e-22,4.687565947571028e-17,2.954643448484404e-16,0.37917485379648225,0.0,0.0,0.0,4.031535123096763,-8.312273859372358e-16,-2.2094949067196638e-16,6.465705541365496e-17,636.231465406556,636.2314654065558,636.231465406556,636.2314654065561
0.20800000000000002,3.140266686958765e-18,4.0,0.034654211319267325,4.063765624111203e-14,1.7631968217196427e-15,-7.18255273976092e-16,1.43355141793219e-22,4.0,0.0906373960511115,6.9202938222716405e-22,4.944197202881905e-17,2.9420673893603593e-16,0.3941961262431442,0.0,0.0,0.0,4.019930461507956,-6.525178656200583e-16,-3.016852502998319e-16,5.924598557387673e-17,635.9647031236846,635.9647031236844,635.9647031236846,635.9647031236848
0.21200000000000002,3.4013053454734983e-18,4.0,0.03633628398177416,3.863605752672725e-14,1.7018252449413054e-15,-7.40029314330236e-16,1.4314684589659545e-22,4.0,0.0934117115768337,6.910238593079458e-22,5.1395186370609756e-17,2.9161495256677186e-16,0.40923432486849665,0.0,0.0,0.0,4.006410577474822,-4.4156766815941615e-16,-3.6120503436157385e-16,5.493095599875225e-17,635.6537734541606,635.6537734541605,635.6537734541606,635.6537734541606
0.21600000000000003,3.667797881684547e-18,4.0,0.0380785416140102,3.662986314450388e-14,1.7062032215783746e-15,-7.595471202962997e-16,1.429358962642791e-22,4.0,0.09622137249463046,6.9000552580482315e-22,5.283653810599958e-17,2.876676290610458e-16,0.42427954700162757,0.0,0.0,0.0,3.991045567951518,-2.9932708980219254e-16,-4.365675886887721e-16,5.3189426397306055e-17,635.3002249285988,635.3002249285988,635.3002249285989,635.3002249285989
0.22000000000000003,3.9397321156696874e-18,4.0,0.03988094628865095,3.472621678432145e-14,1.7719055597154427e-15,-7.743933029990812e-16,1.4272233233528502e-22,4.0,0.09906585351200385,6.88974572104809e-22,5.3790005193240156e-17,2.826699236576729e-16,0.4393222686062792,0.0,0.0,0.0,3.973903864988419,-2.8188740651733925e-16,-5.156776804755072e-16,4.853369238270236e-17,634.9055623887394,634.9055623887393,634.9055623887396,634.9055623887394
0.22400000000000003,1.2391848874833298e-11,3.999999999987608,0.04174342091181625,-1.2131626770395635e-06,-1.2131767736700698e-06,-3.4368477884497507e-07,1.425061931694748e-22,4.0,0.10194463438644233,6.879311867645992e-22,2.909153650752836e-09,-2.909140887134843e-09,0.4543529699260633,0.0,0.0,0.0,3.9550595690241943,1.2722477196630685e-06,1.2722643848762307e-06,4.0147816763938667e-07,634.4704929927289,634.4711840955089,634.4719951841494,634.4719951886758
0.22800000000000004,5.097604016629526e-11,3.999999999949026,0.04366585545100868,-5.3110298218484536e-06,-5.311214311765837e-06,-8.098759027963957e-07,1.422875174507002e-22,4.0,0.10485719988354963,6.868755565257484e-22,1.8785997563075305e-08,-1.8785427508871143e-08,0.46936260873056135,0.0,0.0,0.0,3.9345754635989,4.55258440405543e-06,4.552758894757755e-06,5.586977544902338e-07,633.997112420409,633.9995873222673,633.9999606332075,633.9999606806354
0.23200000000000004,9.699882076148869e-11,3.999999999903008,0.04564811452837092,-1.1748990427319883e-05,-1.1749669094626003e-05,-1.3664964829416733e-06,1.4206634348992267e-22,4.0,0.10780303973549585,6.858078663297289e-22,5.4794275843450586e-08,-5.479164794499404e-08,0.484343298265129,0.0,0.0,0.0,3.9125000453505923,7.761854766200876e-06,7.762415651092127e-06,6.834769666557685e-07,633.4867141808883,633.4909371900645,633.4907977330392,633.4907978856143
0.236,1.2275253396832058e-10,3.9999999998772613,0.04769001772121183,-2.002866391375219e-05,-2.0030278944444247e-05,-1.9882470973328826e-06,1.4184270922830885e-22,4.0,0.11078164859978819,6.847282993328738e-22,1.0898313966575058e-07,-1.0897559649981084e-07,0.49928675779904647,0.0,0.0,0.0,3.8889226724451977,1.0668981725727692e-05,1.0670086117421988e-05,7.824157778623691e-07,632.9413264849013,632.9471362661792,632.9464907744994,632.9464910751803
0.24,9.353425331027253e-11,3.9999999999064864,0.04979136367402643,-2.9695478780247032e-05,-2.9698545251648135e-05,-2.6534203349290733e-06,1.4161665224030216e-22,4.0,0.11379252601835947,6.836370369212049e-22,1.7611345346427648e-07,-1.76097283349246e-07,0.5141845576710884,0.0,0.0,0.0,3.8638852759503886,1.3275871174680457e-05,1.327767519482765e-05,8.586713491757067e-07,632.3618233055835,632.3690593993931,632.3679231477615,632.3679236393723
0.244,-3.066389566799478e-11,4.000000000030687,0.05195192143138669,-4.032644585960291e-05,-4.0331508704060684e-05,-3.3435305110664926e-06,1.413882097366709e-22,4.0,0.11683517637697123,6.825342587251469e-22,2.517384381879084e-07,-2.5170931178010195e-07,0.5290298928364205,0.0,0.0,0.0,3.8374481163996785,1.5574789750021503e-05,1.5577379953146453e-05,9.151157903044942e-07,631.7495035007034,631.7580009827285,631.7563996496507,631.7564003561862
0.248,-2.934614637134796e-10,4.000000000293475,0.05417143536336475,-5.15315713630661e-05,-5.1539166258109014e-05,-4.043150234016331e-06,1.4115741856753268e-22,4.0,0.11990910886493009,6.814201426341275e-22,3.316884437443509e-07,-3.3164187920202563e-07,0.5438161238978794,0.0,0.0,0.0,3.80966247329792,1.7560391639750223e-05,1.756382797833098e-05,9.545625893055903e-07,631.1054570542203,631.1150477746888,631.1130166595303,631.1130175978237
0.252,-7.405123869727568e-10,4.000000000740494,0.05644962826835633,-6.295654792599101e-05,-6.296716858893541e-05,-5.858866893903478e-06,1.4092431522535571e-22,4.0,0.12301383743511429,6.802948648110655e-22,4.120827295103624e-07,-4.120145635031822e-07,0.5585371616540289,0.0,0.0,0.0,3.7805741865662768,1.923271890292875e-05,1.9237036376859897e-05,2.2870689370600063e-06,630.4287507328432,630.43926622431,630.4406390245188,630.4406402046636
0.256,-1.4182107702364154e-09,4.000000001418128,0.05878617991437766,-7.426942967426132e-05,-7.428349052224884e-05,-8.052585293932324e-06,1.4068893584793674e-22,4.0,0.12614888076430864,6.79158599706747e-22,4.893093895368308e-07,-4.89215915039161e-07,0.5731855135663319,0.0,0.0,0.0,3.7502734051063786,2.058075636894767e-05,2.0585908700169727e-05,2.8031939118660634e-06,629.7244370780942,629.7357023334149,629.7382056653214,629.7382070752384
0.26,-2.372325319450946e-09,4.00000000237213,0.06118075115488065,-8.516818878085841e-05,-8.518600164643534e-05,-1.051446336844687e-05,1.4045131622135627e-22,4.0,0.12931376221384513,6.780115200740909e-22,5.600110468641266e-07,-5.59889730901298e-07,0.5877534397702723,0.0,0.0,0.0,3.718802776185684,2.1601865681588742e-05,2.1607821003644526e-05,3.2065279525226705e-06,628.9923931644001,629.0042312485217,629.0076296071084,629.0076312386536
0.264,-3.64679581455389e-09,4.000000003646426,0.06363297888781543,-9.538136519502727e-05,-9.540311850016397e-05,-1.3155125144383089e-05,1.4021149178291082e-22,4.0,0.1325080097905475,6.768537969823041e-22,6.210997970034202e-07,-6.209490476375554e-07,0.6022348999181137,0.0,0.0,0.0,3.6862158502266364,2.2297071453063843e-05,2.2303707669015326e-05,3.5164682227938234e-06,628.2337399687875,628.2459739200054,628.2500872702248,628.2500890905029
0.268,-5.282666394180067e-09,4.000000005282044,0.06614247704286064,-0.0001046681046412391,-0.00010469384803856085,-1.5898583524389872e-05,1.3996949762402252e-22,4.0,0.13573115610797695,6.756855998309273e-22,6.697971730392857e-07,-6.696168603755236e-07,0.6166241796470299,0.0,0.0,0.0,3.65256500671927,2.2670014332037887e-05,2.2677223486596413e-05,3.7449849816305108e-06,627.4495832047195,627.4620374518119,627.466719056981,627.4667210368818
0.272,-7.317150456341785e-09,4.0000000073161806,0.06870884230369827,-0.00011281851280551866,-0.00011284814817624601,-1.8681491922898225e-05,1.397253684931264e-22,4.0,0.13898273834797736,6.745070963637731e-22,7.036459054604589e-07,-7.034374648391698e-07,0.6309160724711691,0.0,0.0,0.0,3.6178918123817616,2.272753193483248e-05,2.2735159026451585e-05,3.903724070895541e-06,626.640778206896,626.6532802772277,626.658415015391,626.6584171127747
0.276,-9.78282747965541e-09,4.000000009781399,0.07133166249030823,-0.00011965413004120617,-0.00011968740890956847,-2.1449890509087075e-05,1.394791387985353e-22,4.0,0.14226229822251726,6.733184526827556e-22,7.205269040694423e-07,-7.202934928745144e-07,0.645106831043085,0.0,0.0,0.0,3.5822214396534138,2.2479835328067394e-05,2.2487709282882095e-05,4.001049489810173e-06,625.8078025501503,625.820184917629,625.8256788924233,625.8256810605733
0.28,-1.270693712562182e-08,4.000000012704924,0.07401049242074528,-0.0001250253460098918,-0.0001250618693864595,-2.415945853305084e-05,1.3923084261128254e-22,4.0,0.14556938193582666,6.721198332616138e-22,7.186638015642712e-07,-7.184100948371171e-07,0.6591916567909551,0.0,0.0,0.0,3.5456283998390754,2.1936705203592128e-05,2.1944626085308162e-05,4.0460054448158365e-06,624.9522870458027,624.9643868547668,624.9701695845919,624.9701717686492
0.28400000000000003,-1.6110898739474085e-08,4.000000016108163,0.07674489680466852,-0.00012881146851947647,-0.0001288506947894807,-2.677363076170705e-05,1.389805136679428e-22,4.0,0.14890354014682666,6.709114009595283e-22,6.966216724821924e-07,-6.963540230563948e-07,0.6731673558906057,0.0,0.0,0.0,3.5081012700951364,2.1111937934617806e-05,2.1119713740919102e-05,4.045831653326961e-06,624.0738569421884,624.0855182646328,624.0915364056395,624.0915385527132
0.28800000000000003,-2.0009710994620592e-08,4.0000000200061,0.07953438877909416,-0.000130922521883676,-0.00013096377679561852,-2.926252171821484e-05,1.387281853734311e-22,4.0,0.15226432793184938,6.696933170346333e-22,6.533183949457818e-07,-6.530449371327913e-07,0.6870285976580812,0.0,0.0,0.0,3.469753121238007,2.002155456348296e-05,2.002900550532641e-05,4.006829640766665e-06,623.175054786829,623.1861298052848,623.1923438382503,623.19234589859
0.29200000000000004,-2.441174426917517e-08,4.000000024407099,0.08237847221479426,-0.00013129626747723512,-0.00013133875968389665,-3.160270572385401e-05,1.384738908037801e-22,4.0,0.15565130474764627,6.684657411574238e-22,5.880307103973818e-07,-5.877609449492467e-07,0.7007694454823419,0.0,0.0,0.0,3.4306128725236364,1.8684293609884855e-05,1.8691179091774875e-05,3.935318278977319e-06,622.2564574097813,622.2668079604223,622.2731915970439,622.2731935038347
0.29600000000000004,-2.9318449810461498e-08,4.000000029312603,0.08527661948573675,-0.00012990071685050754,-0.00012994355775835034,-3.377594104063089e-05,1.3821766270889596e-22,4.0,0.1590640343946827,6.67228831424059e-22,5.004076836651374e-07,-5.001524308136843e-07,0.7143832791222916,0.0,0.0,0.0,3.3907549212564403,1.7122385228426466e-05,1.7128542677372267e-05,3.836391296712052e-06,621.3197142315578,621.3292137955447,621.3357494276887,621.3357511354385
0.30000000000000004,-3.472438622622828e-08,4.000000034717171,0.0882283014626586,-0.00012672873318546497,-0.00012677095911756134,-3.5768990755542264e-05,1.379595335152929e-22,4.0,0.16250208498071647,6.659827443695634e-22,3.904557742636869e-07,-3.902266985432865e-07,0.7278662004287362,0.0,0.0,0.0,3.350193861280733,1.5357349557876133e-05,1.5362561281120953e-05,3.7151460565086683e-06,620.3650735567269,620.3736069037916,620.3802859105648,620.3802873582467
0.304,-4.061702648334537e-08,4.000000040608277,0.09123294144597703,-0.00012180726265920684,-0.0001218478644491971,-3.7573336000007135e-05,1.3769953532880655e-22,4.0,0.16596502888465847,6.647276349809245e-22,2.5856541888723373e-07,-2.583750945093461e-07,0.7412121654678608,0.0,0.0,0.0,3.3090378926265727,1.3420443343325464e-05,1.3424584963266445e-05,3.576550430072193e-06,619.3949909198362,619.4024595910896,619.4092792353949,619.4092803876333
0.308,-4.697706024930483e-08,4.0000000469666155,0.09428995024575948,-0.00011518811401664813,-0.00011522606541940832,-3.9182443716007335e-05,1.374376999372862e-22,4.0,0.1694524427207134,6.634636567100899e-22,1.055236019457195e-07,-1.0538474115465146e-07,0.7544146667830136,0.0,0.0,0.0,3.267325600395589,1.1340161092946291e-05,1.1343069527779323e-05,3.422574345998483e-06,618.410295149878,618.416616003927,618.4235714301392,618.4235722405834
0.312,-5.377881594799127e-08,4.0000000537665255,0.09739876250750724,-0.00010693700124440746,-0.000106971282788478,-4.059370207845989e-05,1.3717405881326634e-22,4.0,0.17296390730279768,6.621909614868638e-22,-6.756021234891098e-08,6.763474665448136e-08,0.7674722553929992,0.0,0.0,0.0,3.225022307552754,9.135372996630503e-06,9.1369497984278e-06,3.257530156034556e-06,617.4100834026683,617.4151833774864,617.4222772086351,617.4222776487283
0.316,-6.099031189519165e-08,4.0000000609760376,0.10055878487044334,-9.714594762310656e-05,-9.71755786136435e-05,-4.1806198030442826e-05,1.3690864311661744e-22,4.0,0.17649900760923407,6.609096997317028e-22,-2.5928950863605457e-07,2.5928742524021507e-07,0.7803850957151781,0.0,0.0,0.0,3.182197853642548,6.836392698510661e-06,6.836570453350209e-06,3.083295040075687e-06,616.3959256381225,616.3997481718147,616.4069801188607,616.4069801685547
0.32,-6.857394476609274e-08,4.000000068557567,0.10376945534764744,-8.591362115971755e-05,-8.593768077808609e-05,-4.2820699067924865e-05,1.3664148369717613e-22,4.0,0.1800573327477193,6.596200203684135e-22,-4.6802509361978685e-07,4.6793463740056e-07,0.7931537180179172,0.0,0.0,0.0,3.1388025204189587,4.4598005370837375e-06,4.4585068461529346e-06,2.901794656588422e-06,615.3665640010832,615.3690614547803,615.3764323298855,615.3764319676095
0.324,-7.648678549325218e-08,4.000000076468206,0.10703021756308062,-7.335116463799183e-05,-7.336881603403668e-05,-4.36403188075137e-05,1.3637261109735503e-22,4.0,0.18363847592056376,6.583220708367503e-22,-6.919305381566527e-07,6.917414455697753e-07,0.8057810003287355,0.0,0.0,0.0,3.0948379375620814,2.0253280100892913e-06,2.022540080146006e-06,2.715801161324985e-06,614.3219511885576,614.3230866691113,614.3305999988339,614.3305992167931
0.328,-8.468077868436152e-08,4.000000084659922,0.11034046362924614,-5.9599090768376454e-05,-5.9609615585267776e-05,-4.427072912151588e-05,1.3610205555473228e-22,4.0,0.18724203439020096,6.57015997104917e-22,-9.289452680827058e-07,9.286484954192979e-07,0.8182639133485834,0.0,0.0,0.0,3.0504215477386603,-4.276713314986513e-07,-4.3188675314042934e-07,2.528430856595639e-06,613.2647937879103,613.2645522545821,613.2722097651255,613.2722085806189
0.332,-9.310348378694223e-08,4.0000000930803035,0.11369957046903739,-4.481373042458584e-05,-4.48165552420316e-05,-4.471900334994789e-05,1.3582984700462102e-22,4.0,0.19086760944496448,6.557019436819699e-22,-1.1767027280862612e-06,1.1762912552730707e-06,0.830595938511804,0.0,0.0,0.0,3.0055987807304434,-2.867093262958767e-06,-2.8727290194488114e-06,2.3415537836282887e-06,612.1961000835153,612.1944843927417,612.202284378466,612.2022827920865
0.336,-1.0169849563471102e-07,4.000000101672975,0.11710684769035931,-2.9182902244662655e-05,-2.9177633251281956e-05,-4.499469884543672e-05,1.3555601508261892e-22,4.0,0.1945148063651308,6.543800536301256e-22,-1.432468099615473e-06,1.4319374278591997e-06,0.8427654135119015,0.0,0.0,0.0,2.9605214001710167,-5.244821917769069e-06,-5.251718956332e-06,2.158362116051289e-06,611.1194224628224,611.1164626043123,611.1243992494325,611.1243973045973
0.34,-1.1040641137884643e-07,4.000000110378563,0.12056158847840814,-1.290675444617343e-05,-1.2893200049439116e-05,-4.51060151439977e-05,1.3528058912713787e-22,4.0,0.198183234389226,6.530504685769728e-22,-1.6931897172460423e-06,1.6925379401680023e-06,0.8547637262821336,0.0,0.0,0.0,2.915240088934638,-7.526161358641657e-06,-7.5341454514907355e-06,1.9776621650050026e-06,610.0359254864289,610.0316711708049,610.0397252364105,610.0397229810434
0.34400000000000003,-1.1916578494920583e-07,4.000000119135656,0.1240631121436766,3.818507210947368e-06,3.840326175328523e-06,-4.506153523305743e-05,1.3500359818191402e-22,4.0,0.20187250668059403,6.517133287275891e-22,-1.9556258244228825e-06,1.9548543366497163e-06,0.8665878774583451,0.0,0.0,0.0,2.8697197611492387,-9.6939379290841e-06,-9.702845099956091e-06,1.8002385617074819e-06,608.9447242167066,608.9392350859318,608.9473847441153,608.9473822234812
0.34800000000000003,-1.279138455302706e-07,4.000000127881515,0.12761075685910217,2.0800240153338467e-05,2.0830083100303178e-05,-4.487037592097015e-05,1.3472507099849831e-22,4.0,0.20558224029422514,6.503687728765637e-22,-2.2165600265059986e-06,2.215673611140882e-06,0.8782428857801371,0.0,0.0,0.0,2.8239392971553707,-1.173288055949876e-05,-1.1742465984166249e-05,1.6270673384987113e-06,607.8452632993396,607.8386079456952,607.8468298446495,607.8468271271656
0.35200000000000004,-1.3658715602023494e-07,4.0000001365527345,0.13120385565695605,3.784403605027806e-05,3.788143558499038e-05,-4.4541756813277736e-05,1.3444503603872766e-22,4.0,0.2093120561438421,6.49016938419927e-22,-2.472821567458877e-06,2.4718284113633602e-06,0.8897312497357648,0.0,0.0,0.0,2.7779257490714597,-1.3621805857356716e-05,-1.3631796968844023e-05,1.4586429442377156e-06,606.7381430204308,606.73040241056,606.7386685312022,606.738665693532
0.35600000000000004,-1.4512238236967348e-07,4.000000145086008,0.13484174861493667,5.475939876338554e-05,5.480365950144293e-05,-4.408586630617883e-05,1.3416352147717686e-22,4.0,0.21306157896924247,6.476579613669869e-22,-2.7212831424092064e-06,2.7201945940723674e-06,0.9010538195484527,0.0,0.0,0.0,2.731681658898507,-1.534422088343758e-05,-1.535431479061047e-05,1.2964756662782108e-06,605.6233757727351,605.6146406714115,605.6229226989708,605.622919826823
0.36000000000000004,-1.534569016515011e-07,4.000000153418741,0.13852372127629092,7.134589862734155e-05,7.139609628877306e-05,-4.351345402703259e-05,1.3388055520359148e-22,4.0,0.21683043730389515,6.462919763520729e-22,-2.958805454087354e-06,2.9576365130351943e-06,0.91220560018805,0.0,0.0,0.0,2.6853343787580934,-1.6868939769479384e-05,-1.687883956286747e-05,1.141639479696901e-06,604.5039892584382,604.4943687224182,604.5026325032859,604.5026296811513
0.36400000000000005,-1.615296458037561e-07,4.000000161489889,0.1422490496672794,8.740747969456192e-05,8.746246875201005e-05,-4.283469248883678e-05,1.335961648253018e-22,4.0,0.22061826344278904,6.449191166461891e-22,-3.1822434651074912e-06,3.181012667925472e-06,0.9231802714453006,0.0,0.0,0.0,2.638921692619226,-1.8177603748345815e-05,-1.8186974860618837e-05,9.939016379518777e-07,603.3808685286554,603.3704827145285,603.378687933127,603.3786852567274
0.36800000000000005,-1.6928184151682104e-07,4.000000169240698,0.14601700932371456,0.0001027569913535419,0.00010281541823967149,-4.205956842421865e-05,1.3331037766961788e-22,4.0,0.22442469341053228,6.435395141685768e-22,-3.388502393672854e-06,3.387231432660882e-06,0.9339739086358806,0.0,0.0,0.0,2.5924634249238716,-1.9257946298490365e-05,-1.92664205876608e-05,8.534628363114817e-07,602.2544701963424,602.2434469570004,602.2515501543659,602.2515477295703
0.372,-1.766576889735687e-07,4.000000176615382,0.14982687516417711,0.00011721819273414132,0.0001172785137825741,-4.1197829149162854e-05,1.3302322078620608e-22,4.0,0.22824936692969977,6.421532994981856e-22,-3.5746632441809134e-06,3.5733768456516374e-06,0.9445863878074723,0.0,0.0,0.0,2.545979729155597,-2.0100682088950104e-05,-2.0107912124402198e-05,7.204534856568044e-07,601.1252632111187,601.1137364350107,601.1216916404558,601.121689567797
0.376,-1.8360499202332748e-07,4.000000183561754,0.1536779214587705,0.0001306276291593801,0.0001306881333510893,-4.025893454306527e-05,1.327347209494469e-22,4.0,0.23209192738942783,6.407606018850573e-22,-3.738023420348984e-06,3.736748872203026e-06,0.9550175553997409,0.0,0.0,0.0,2.499490897494598,-2.0713208431477996e-05,-2.071888156233481e-05,5.978142218140336e-07,599.9937239016532,599.9818239766278,599.9895960450013,599.989594415597
0.38,-1.9007572223134904e-07,4.000000190031788,0.1575694284784436,0.00014283685549286158,0.0001428956900592945,-3.925153991130068e-05,1.3244490466077465e-22,4.0,0.23595202181425312,6.393615492616187e-22,-3.876133224769623e-06,3.874900175613901e-06,0.9652679149543726,0.0,0.0,0.0,2.453003803002892,-2.1090723759014004e-05,-2.109447156055363e-05,4.820519299267258e-07,598.8600108074791,598.8478716390636,598.855413162058,598.8554120835971
0.384,-1.960265103260344e-07,4.0000001959821105,0.16150069290598498,0.00015371461818728318,0.0001537698155357789,-3.818445993873932e-05,1.321537981509987e-22,4.0,0.2398293008331952,6.3795626825388785e-22,-3.9868381457040185e-06,3.9856780262871996e-06,0.9753396753483609,0.0,0.0,0.0,2.4065040527720454,-2.1233951563322538e-05,-2.1235477957402466e-05,3.7370342293543824e-07,597.7237588593272,597.7115146670426,597.7187798396224,597.7187793995546
0.388,-2.014191601651847e-07,4.0000002013745135,0.16547098382996053,0.00016314441213909555,0.00016319392912919658,-3.7066178975001934e-05,1.318614273826066e-22,4.0,0.24372341864907998,6.365448841925927e-22,-4.068292819979118e-06,4.067238300178793e-06,0.9852323500024595,0.0,0.0,0.0,2.360066095796752,-2.1141249298920496e-05,-2.1140202298526595e-05,2.7274060953615235e-07,596.5867778551059,596.5745646262496,596.5815067804681,596.5815070828996
0.392,-2.062209888677588e-07,4.000000206176295,0.1694795686972251,0.00017102750951642634,0.000171069263933219,-3.590464181456884e-05,1.3156781805204944e-22,4.0,0.24763403300810277,6.351275211242021e-22,-4.118970475634311e-06,4.1180546220081785e-06,0.9949432112943744,0.0,0.0,0.0,2.3137126433809208,-2.081681128392172e-05,-2.081292813311304e-05,1.7887802419931533e-07,595.4496229996722,595.4375750582851,595.4441476150894,595.4441487388997
0.396,-2.1040513269410198e-07,4.000000210360566,0.17352571565789038,0.00017728390329066926,0.00017731581232804328,-3.470736418889977e-05,1.312729955920091e-22,4.0,0.25156080516962903,6.3370430182187175e-22,-4.137680307383387e-06,4.1369362733898e-06,1.004470978725523,0.0,0.0,0.0,2.267461753241432,-2.0267161908664997e-05,-2.0260221985269812e-05,9.193767244443627e-08,594.3127397541153,594.3009884082502,594.3071458730897,594.3071478853934
0.4,-2.1395083486855247e-07,4.000000213906536,0.17760868070231822,0.0001818537928144369,0.0001818738182708768,-3.348188979874192e-05,1.3097698517364791e-22,4.0,0.25550339987623083,6.322753477963038e-22,-4.123599111368253e-06,4.123059230638605e-06,1.0138145409344088,0.0,0.0,0.0,2.2213576191145723,-1.9501727030209837e-05,-1.94914833022319e-05,1.2258351785905629e-08,593.1772213059684,593.1658931698545,593.1715935516626,593.1715965276253
0.404,-2.1684357654525724e-07,4.000000216799644,0.18172771588548933,0.0001846973763504714,0.00018470356706652144,-3.22345637831466e-05,1.3067981170884081e-22,4.0,0.25946148532395785,6.30840779306522e-22,-4.076289562360322e-06,4.075984390868281e-06,1.022972324468661,0.0,0.0,0.0,2.1754281832186004,-1.8532384906181687e-05,-1.8518699250185513e-05,-6.125224724286747e-08,592.0437707855851,592.0329862649803,592.0381874450791,592.038191428587
0.40800000000000003,-2.1907500916179274e-07,4.000000219031494,0.18588210664147117,0.0001857918851943801,0.00018578240435979343,-3.097111145908055e-05,1.3038149985238988e-22,4.0,0.2634347331328405,6.294007153705624e-22,-3.9956889752126655e-06,3.9956467087803265e-06,1.0319462424338326,0.0,0.0,0.0,2.1296258347929644,-1.7371065503358377e-05,-1.7353822309678606e-05,-1.2905914855248444e-07,590.9112261500007,590.901099352715,590.9057610320338,590.905766060659
0.41200000000000003,-2.2064292978262825e-07,4.000000220599829,0.19007117779921162,0.00018512941339436298,0.00018510256092615001,-2.969726408530051e-05,1.3008207400422168e-22,4.0,0.26742281831762377,6.279552737760812e-22,-3.882065492751598e-06,3.882311577177564e-06,1.0407443047992495,0.0,0.0,0.0,2.0838897411514403,-1.6027771330403494e-05,-1.6006868802111422e-05,-1.9092143708279863e-07,589.7780869521436,589.7687267668066,589.7728121006951,589.7728182082004
0.41600000000000004,-2.2155172170261914e-07,4.000000221508971,0.19429419169462245,0.00018273021415876007,0.00018268449474687234,-2.841898585777367e-05,1.2978155831156734e-22,4.0,0.2714254192587302,6.265045710908776e-22,-3.7360607075552555e-06,3.7366169524473156e-06,1.0493657949436148,0.0,0.0,0.0,2.0383646476441153,-1.452350698523196e-05,-1.4498943791506717e-05,-2.463323871215426e-07,588.6479506938379,588.6394543639647,588.6429340244861,588.6429412153767
0.42000000000000004,-2.2181199251123685e-07,4.000000221769463,0.19855039945307146,0.0001786354078727424,0.00017856957417845506,-2.7141065288118868e-05,1.2947997667112564e-22,4.0,0.27544221767345006,6.250487226733373e-22,-3.558750644140327e-06,3.5596346510855793e-06,1.057804748034656,0.0,0.0,0.0,1.9930932636312062,-1.288158069856364e-05,-1.2853428709495737e-05,-2.9642078415135466e-07,587.5219062636972,587.5143578995785,587.5172057401319,587.5172139974359
0.42400000000000004,-2.2144014914030467e-07,4.0000002213976416,0.2028390848396657,0.00017289883085768918,0.00017281190283276575,-2.586788823388515e-05,1.291773527312091e-22,4.0,0.279472898587357,6.235878426827912e-22,-3.35160782123467e-06,3.3528318009764304e-06,1.0660594551853286,0.0,0.0,0.0,1.9480297110635125,-1.1118197122039473e-05,-1.1086546110776658e-05,-3.414603351318189e-07,586.3988384214598,586.3923130557693,586.3945067110502,586.3945160124323
0.42800000000000005,-2.2045821648352015e-07,4.000000220415459,0.2071595502285577,0.0001655882497301256,0.00016547953700557158,-2.4603700829505318e-05,1.288737098938732e-22,4.0,0.283517150305948,6.221220440897952e-22,-3.1163812698080576e-06,3.117952000961288e-06,1.0741358662214533,0.0,0.0,0.0,1.9031555964207776,-9.249231905940188e-06,-9.214263387454494e-06,-3.814338301727729e-07,585.2783094283672,585.2728731299048,585.2743948724105,585.2744051683858
0.432,-2.188937695925135e-07,4.000000218850415,0.21151107389315799,0.00015679368485067206,0.00015666282614400811,-2.33524022878946e-05,1.2856907131702917e-22,4.0,0.28757466438650475,6.206514386863278e-22,-2.855124051590074e-06,2.85704239186348e-06,1.0820348765354175,0.0,0.0,0.0,1.8585386621641895,-7.300097956605114e-06,-7.262018741195375e-06,-4.165715409257374e-07,584.1620374367038,584.1577416514963,584.158580441986,584.1585916752771
0.436,-2.1674691409327917e-07,4.000000216702538,0.21589292598409246,0.00014343887994229288,0.00014328584292550044,-2.3074974451807527e-05,1.2826345991653985e-22,4.0,0.291645135610177,6.191761370959093e-22,-2.5567299850337588e-06,2.558989992881185e-06,1.0897535888589522,0.0,0.0,0.0,1.8142150401801507,-1.9583132941153114e-06,-1.917386109453658e-06,6.713114016330368e-07,583.0482212425613,583.0470757406384,583.0497470378048,583.0497591342021
0.44,-2.140174507307074e-07,4.000000213971557,0.2203043830236085,0.0001212642292264975,0.00012108902528682097,-2.3127901634872182e-05,1.279568983682994e-22,4.0,0.29572826195428326,6.176962487836404e-22,-2.168495039752226e-06,2.171086121971186e-06,1.097290812227121,0.0,0.0,0.0,1.7701917529167108,8.665284938313086e-06,8.709022825600135e-06,1.0474371604045006e-06,581.9393734883274,581.9445183965605,581.9452294749634,581.9452424266245
0.444,-2.1079103905517645e-07,4.000000210743059,0.22474476468694515,9.180841911924129e-05,9.161107699603284e-05,-2.343240869294357e-05,1.2764940911029659e-22,4.0,0.29982374456482985,6.162118820661625e-22,-1.646951580528378e-06,1.6498607553588818e-06,1.1046508997323794,0.0,0.0,0.0,1.726401019112686,1.9100896137542868e-05,1.9147541764576504e-05,1.345110229284099e-06,580.8344425496397,580.8457902245021,580.8443425010192,580.8443563398995
0.448,-2.0717704598679413e-07,4.0000002071263365,0.22921338396259203,5.647484040771953e-05,5.625556532841151e-05,-2.392350658610109e-05,1.2734101434466183e-22,4.0,0.30393128772924555,6.147231441215399e-22,-9.964114521105695e-07,9.996244515623359e-07,1.1118388044643452,0.0,0.0,0.0,1.682874879630436,2.875469624010778e-05,2.880411898741766e-05,1.5772177606750086e-06,579.7344152024276,579.751524262049,579.7479352784198,579.7479499689495
0.452,-2.0330440525968714e-07,4.000000203250252,0.23370953021526455,1.6622748520497884e-05,1.6382067549159842e-05,-2.4546615273603247e-05,1.270317360396983e-22,4.0,0.30805059884933,6.132301409990645e-22,-2.48744858309482e-07,2.52244216603535e-07,1.118852998014352,0.0,0.0,0.0,1.6396800092724377,3.755953605610898e-05,3.7611425577118965e-05,1.753263478978128e-06,578.6410093073229,578.6633956052982,578.6577331404833,578.657748593301
0.456,-1.99316417304777e-07,4.000000199258033,0.23823249590350462,-2.646563187784924e-05,-2.672675474200673e-05,-2.525588641393127e-05,1.267215959318969e-22,4.0,0.3121813884144149,6.117329776289828e-22,5.667502680887145e-07,-5.629881797062111e-07,1.1256906865716307,0.0,0.0,0.0,1.5968296586057735,4.547330531592153e-05,4.552720756797336e-05,1.8812153736105001e-06,577.5545979209404,577.5817492048424,577.5741193160387,577.5741353983685
0.46,-1.953662126154032e-07,4.000000195302739,0.24278157873509343,-7.158801795379557e-05,-7.186809074977295e-05,-2.6012794494609948e-05,1.2641061552793556e-22,4.0,0.3163233699747358,6.102317578321475e-22,1.4225518164722815e-06,-1.4185590730276253e-06,1.1323518162221942,0.0,0.0,0.0,1.5543326511810904,5.24653886238316e-05,5.252068545302781e-05,1.9677510016857994e-06,576.4754429877111,576.5068255823767,576.4973653680853,576.4973818973176
0.464,-1.9161268120477974e-07,4.0000001915431955,0.24735606977605817,-0.00011761067492357991,-0.00011790760822040353,-2.6784738579438473e-05,1.2609881610666275e-22,4.0,0.3204762601150138,6.087265843295922e-22,2.293106023263157e-06,-2.288924585818231e-06,1.138836511828233,0.0,0.0,0.0,1.5122218218007792,5.849836562358537e-05,5.855427851472397e-05,2.018212549314794e-06,575.4044224874267,575.4394770529663,575.4283526862259,575.4283694306599
0.468,-1.8821651732752175e-07,4.000000188140039,0.25195526092799486,-0.00016347692714693105,-0.00016378798977575185,-2.75455532882519e-05,1.2578621872106537e-22,4.0,0.3246397784282443,6.072175587520317e-22,3.1547317472501705e-06,-3.1504145447558932e-06,1.1451444552328292,0.0,0.0,0.0,1.4705150868880743,6.35467239086333e-05,6.36023536212773e-05,2.0387801139629715e-06,574.3420359041012,574.380184448538,574.3675904650097,574.3676071554069
0.47200000000000003,-1.85336417932221e-07,4.0000001852519125,0.25657847108426624,-0.00020823463133308616,-0.00020855643737271784,-2.8273681388698095e-05,1.254728442002212e-22,4.0,0.32881364748969266,6.057047816492868e-22,3.9858393029997814e-06,-3.981451154944935e-06,1.1512777071804152,0.0,0.0,0.0,1.4291772966300933,6.762006937789077e-05,6.767449017971209e-05,2.033761529275578e-06,573.2874249533439,573.3280919686084,573.3142348802287,573.3142512379193
0.47600000000000003,-1.831260882210264e-07,4.000000183032484,0.2612250237640805,-0.0002510152153489221,-0.00025134373152460354,-2.895182009490339e-05,1.2515871315123596e-22,4.0,0.332997592831094,6.041883524996356e-22,4.767103924938961e-06,-4.7627213770292075e-06,1.1572403241368434,0.0,0.0,0.0,1.3882178770854736,7.071642358673476e-05,7.076854002753942e-05,2.0072391702079394e-06,572.2408675882283,572.2834730262372,572.2685742265094,572.2685899201836
0.48000000000000004,-1.8173137486355137e-07,4.000000181627574,0.2658942473569502,-0.00029103520629723194,-0.0002913657820873922,-2.95663624124443e-05,1.248438459611651e-22,4.0,0.33719134291505654,6.026683697190901e-22,5.481405941297885e-06,-5.477116762608494e-06,1.1630341323344815,0.0,0.0,0.0,1.3476456546215378,7.283948121265834e-05,7.288821839893216e-05,1.962816307603037e-06,571.2026271407054,571.2465899042993,571.2308824599851,571.2308971627344
0.48400000000000004,-1.812877219713032e-07,4.0000001811726165,0.2705854753109316,-0.00032759744084397444,-0.0003279248605911976,-3.0106899248144406e-05,1.2452826279892049e-22,4.0,0.3413946291096666,6.011449306706013e-22,6.113726365041279e-06,-6.109628719831587e-06,1.1686603599181011,0.0,0.0,0.0,1.307468961804994,7.400099326730026e-05,7.404522775195128e-05,1.9036654089577323e-06,570.1729541067451,570.2176969375976,570.201421861315,570.2014352298082
0.48800000000000004,-1.8191797201859982e-07,4.000000181790457,0.2752980520310755,-0.000360093040783151,-0.00036041159190905713,-3.056555879222176e-05,1.2421198361716203e-22,4.0,0.34560718566329346,5.996181316731903e-22,6.6511647536322714e-06,-6.647366061992578e-06,1.1741208543640778,0.0,0.0,0.0,1.2676840420212403,7.42221170815189e-05,7.426077098572012e-05,1.8323178250778226e-06,569.1517879948046,569.1967432984007,569.1801446427912,569.1801563456888
0.49200000000000005,-1.8373050805073958e-07,4.000000183589507,0.28003134197518204,-0.00038800360484341384,-0.00038830715792509017,-3.093711007451607e-05,1.2389502815417448e-22,4.0,0.3498287496795929,5.980880680110079e-22,7.082967608546799e-06,-7.079582493305713e-06,1.17941897187321,0.0,0.0,0.0,1.2282683720284095,7.353426261602587e-05,7.356620151473866e-05,1.7515295162828552e-06,568.1385810381291,568.1831972293696,568.1665197179351,568.1665294050418
0.49600000000000005,-1.8681750927730256e-07,4.000000186661991,0.28478469167531856,-0.00041089447402815736,-0.0004111766038163376,-3.121837154652198e-05,1.2357741593572922e-22,4.0,0.35405906109270824,5.965548339423233e-22,7.400493111685756e-06,-7.397641375419709e-06,1.1845557611326722,0.0,0.0,0.0,1.189275909468211,7.196621125958363e-05,7.199044138738974e-05,1.6634736493687586e-06,567.1347548057985,567.1784947792355,567.1619827086687,567.161990070712
0.5,-1.9125376086797134e-07,4.00000019108276,0.289557452181099,-0.0004284184409750624,-0.00042867254543273343,-3.140781601343476e-05,1.2325916627693161e-22,4.0,0.3582978626426669,5.95018522708441e-22,7.5971632515166525e-06,-7.594967622035683e-06,1.1895303450726502,0.0,0.0,0.0,1.1507156762955608,6.956133276189689e-05,6.95769270719822e-05,1.5699458230229485e-06,566.1405761064242,566.1829263415764,566.1668178857046,566.1668226321832
0.504,-1.970957301565004e-07,4.00000019690837,0.2943489838119493,-0.0004403132099543986,-0.0004405326567017708,-3.272232027848877e-05,1.229402982840536e-22,4.0,0.3625448998509709,5.934792265425478e-22,7.668421754192183e-06,-7.667005171956569e-06,1.1943433733940805,0.0,0.0,0.0,1.1125869471276633,6.636755734626469e-05,6.637374413930131e-05,2.8941654514227697e-06,565.1537608808447,565.1942346530647,565.1833574209666,565.1833593073328
0.508,-2.043809523427044e-07,4.000000204176463,0.2991586604783286,-0.00044639684777983207,-0.000446575085463563,-3.482598085885202e-05,1.2262083085635193e-22,4.0,0.3667999209963806,5.919370366784898e-22,7.611669804340723e-06,-7.611152614747463e-06,1.1989974585960201,0.0,0.0,0.0,1.0748799721470144,6.243572493292339e-05,6.243180064875789e-05,3.872287040930666e-06,564.1769368956473,564.2150758939658,564.2085526399691,564.2085514413792
0.512,-2.1312734128604582e-07,4.000000212905087,0.3039858514334492,-0.00044657945286164484,-0.0004467101462770987,-3.725467793096856e-05,1.2230078268787183e-22,4.0,0.3710626770908895,5.903920433594801e-22,7.426261966434281e-06,-7.42675869682514e-06,1.2034940951000652,0.0,0.0,0.0,1.037621644094213,5.7833941645161896e-05,5.781934108326189e-05,4.340795446324914e-06,563.211098820093,563.2464841217082,563.2428812966207,563.2428768295417
0.516,-2.2333323793347114e-07,4.000000223092736,0.3088299320199513,-0.00044085271488965473,-0.0004409298898481866,-3.989152420353977e-05,1.2198017226923673e-22,4.0,0.37533292185588907,5.888443358467375e-22,7.11348966289151e-06,-7.115106316053473e-06,1.2078338467393135,0.0,0.0,0.0,1.0008172339066668,5.263203591622398e-05,5.260636817075593e-05,4.6862776114614234e-06,562.2557905246014,562.2880440837005,562.2871558526145,562.2871479861544
0.52,-2.3497758429382168e-07,4.000000234718521,0.3136902846200292,-0.00042928615687117455,-0.00042930433883731973,-4.26408725947918e-05,1.2165901788942355e-22,4.0,0.37961041169852183,5.872940024280573e-22,6.67650062548422e-06,-6.679332207020712e-06,1.212017873483346,0.0,0.0,0.0,0.9644699299977679,4.690214053775021e-05,4.6865248023813096e-05,4.928760223012082e-06,561.3110940418536,561.3398804079033,561.3415427338723,561.3415314082819
0.524,-2.480204225508119e-07,4.0000002477426735,0.31856630383764495,-0.000412018558321543,-0.0004119728967517302,-4.542375785814756e-05,1.213373376375241e-22,4.0,0.3838949056882218,5.857411304263139e-22,6.12011995551406e-06,-6.12424737671617e-06,1.2160484539605687,0.0,0.0,0.0,0.9285722184844494,4.0715478089706366e-05,4.0667300669715114e-05,5.083810579545873e-06,560.3768196691603,560.4018457267371,560.4059224483295,560.4059076337062
0.528,-2.6240366385008266e-07,4.0000002621073065,0.323457404589776,-0.00038924608021235113,-0.0003891324491770788,-4.81736442058062e-05,1.2101514940449252e-22,4.0,0.38818616553344065,5.841858062078961e-22,5.450611189558343e-06,-5.4560993064533684e-06,1.2199291936716175,0.0,0.0,0.0,0.8930998136461927,3.413731425341197e-05,3.407802738112036e-05,5.162708028565584e-06,559.4523463030828,559.473357973892,559.4797287979281,559.4797105369527
0.532,-2.780513097683576e-07,4.000000277736642,0.3283629876400448,-0.00036125028036527264,-0.00036106543432870206,-5.083586093049134e-05,1.2069247088487875e-22,4.0,0.39248395555855764,5.826281151910758e-22,4.675683105368886e-06,-4.6825776968000635e-06,1.223661578456428,0.0,0.0,0.0,0.858097770931971,2.7263798659632826e-05,2.7193724064211473e-05,5.176578383031398e-06,558.5388542515009,558.5556557394267,558.5642063379112,558.564184718827
0.536,-2.94870976458798e-07,4.000000294538521,0.33328246644775206,-0.0003283660233875243,-0.0003281076911636284,-5.33666106932301e-05,1.2036931957854848e-22,4.0,0.3967880426809731,5.810681418543104e-22,3.8044620911640906e-06,-3.8127880414151015e-06,1.2272459893014895,0.0,0.0,0.0,0.8235571447811765,2.017448858823047e-05,2.0094242186036492e-05,5.135872380862535e-06,557.636121152201,557.6485652089378,557.6591901475045,557.6591653500845
0.54,-3.127555647084689e-07,4.000000312406079,0.3382152919235392,-0.00029094707020948954,-0.00029061398714255043,-5.5731048628243256e-05,1.2004571279238936e-22,4.0,0.401098196388383,5.795059697444796e-22,2.8470687717466576e-06,-2.8568284500418476e-06,1.2306868829993989,0.0,0.0,0.0,0.7894183808458104,1.2915487410231802e-05,1.2825741102909797e-05,5.049240288600679e-06,556.7426067258641,556.7505742151569,556.7631815732872,556.7631537956132
