Time_s,X,Y,Z,Roll_deg,Pitch_deg,Yaw_deg,Ref_X,Ref_Y,Ref_Z,Ref_Yaw,vx,vy,vz,p,q,r,T_pert,tau_x,tau_y,tau_z,RPM_0,RPM_1,RPM_2,RPM_3
0.0040000000000000036,3.907672823421635e-23,-2.0,0.010006999594037988,3.1588276933026285e-18,-1.2404722931936249e-18,-1.2671305083394822e-20,1.7237725853920012e-06,-6.829611139297497e-05,7.200000000000012e-05,0.0,-7.173352330779748e-20,-400.0,2.0013999188075973,0.0,0.0,0.0,-10.19,-1.0,0.020087020683230247,1.4802088048930945e-20,397.17896423365204,0.0,0.0,405.8006224473306
0.008000000000000007,2.148712348402806e-16,-1.99999999999999,0.010010999365430017,-5.7279950145567016e-11,1.2298947418255042e-12,1.4308484733925969e-11,5.150570429338226e-06,-0.00020406632218219906,0.00021513340800000038,0.0,2.386976757864309e-14,-222.22222222222112,1.1123332628255573,0.0,0.0,0.0,-0.034338476008469065,-1.0,0.02130317012832838,-1.6714572781998782e-11,674.1958539017317,342.39016336159943,331.494888354688,679.6191670763644
0.01200000000000001,2.9292144025939185e-14,-1.9999999999984288,0.010014999139380207,-3.6351954772426523e-09,6.787021562008979e-11,6.122196495715023e-12,7.130503073970766e-06,-0.00040525810569452087,0.00042854147030131276,0.0,2.928917556575737e-12,1.5710328197060725e-10,0.0009999431019489316,0.0,0.0,0.0,0.11268126398240302,-1.0,-0.013932531825459827,8.974327810708892e-12,681.8442633978846,339.79191798263116,346.78582902061964,678.3138918753003
0.016000000000000014,1.357680479425345e-13,-1.999999999990999,0.010018998925647239,-2.0662982540893375e-08,3.118951183767545e-10,1.3919154121705933e-11,7.680861624106179e-06,-0.0006710791601530568,0.0007113732083620786,0.0,1.3574776775759885e-11,8.999796376138393e-10,0.0009999445931980699,0.0,0.0,0.0,0.2602149944696535,-1.0,-0.014896028387710295,-9.360902858605441e-12,685.1220351294445,345.84256646987603,353.1869400668675,681.3650043113036
0.020000000000000018,1.9857139668716846e-13,-1.9999999999753697,0.010022998731430489,-5.648280910123732e-08,4.558296192504949e-10,2.831572741770356e-11,6.8187811559706246e-06,-0.0010007443647484919,0.0010627853561306145,0.0,1.918860049014636e-11,2.431678380676664e-09,0.0009999479874657506,0.0,0.0,0.0,0.4082515227721033,-1.0,-0.01587091565026074,-1.739143746810123e-11,688.3963055785339,351.8072700260553,359.49726719225777,684.4118230506396
0.02400000000000002,1.4764801655692354e-13,-1.9999999999507947,0.010026998559754367,-1.1280468157072671e-07,3.391215485653108e-10,4.0968932654277724e-11,4.561241972680209e-06,-0.0013934757217318177,0.0014819422978531074,0.0,6.758101166808096e-12,4.4837594039317806e-09,0.0009999529357811233,0.0,0.0,0.0,0.5567797758380828,-1.0,-0.016857224405646208,-1.5948054334035075e-11,691.6668942142804,357.68986814895214,365.72107423804925,687.4541657958047
0.027999999999999997,-5.171618913180346e-14,-1.9999999999173999,0.010030998411189982,-1.8933955968874418e-07,-1.1778789112463572e-10,5.1973733224626704e-11,9.250708502274218e-07,-0.0018485022989455247,0.001968016006352204,0.0,-2.301085002052514e-11,6.686215177734122e-09,0.0009999585357264665,0.0,0.0,0.0,0.7057887925274833,-1.0,-0.01785498280347221,-1.4544898517527275e-11,694.9336258862083,363.4938995282314,371.8622809351419,690.4918560656313
0.032,-5.960933004651633e-13,-1.9999998682290823,0.010035393227563614,-0.00030199786551612934,-1.420307209394236e-09,7.521098133743898e-11,-4.0730577259574385e-06,-0.002365060172790075,0.002520185981773086,0.0,-7.861777393619459e-11,1.317271006133256e-05,0.0010394585463752457,-0.0004314548817481212,-8.579188994454035e-10,1.5588642835893105e-11,0.8544661813325984,-1.0,-0.01886421623979989,-2.928985253770827e-11,698.1795437869413,369.1908889264117,377.89348618833196,693.5078231073463
0.036000000000000004,-1.6253384481168798e-12,-1.9999974466659018,0.01004665675320031,-0.0058511801261140976,-3.876419488051229e-09,1.0798999328610128e-10,-1.041662033380082e-05,-0.002942392371622438,0.003137639190793574,0.0,-1.6926981547212223e-10,0.0002552551377532252,0.0017658437069045865,-0.01011660501348504,-5.144645869995179e-09,7.26129816644782e-11,0.9904515827919128,-1.0,-0.019884955447773266,-4.1395588436772224e-11,701.1472147029693,374.30315896134107,383.3487031183299,696.2428046371463
0.04000000000000001,-3.001874523243827e-12,-1.9999892633448177,0.010075188351078318,-0.024593509375718133,-7.108356484544287e-09,1.3624186362307843e-10,-1.8089243396668938e-05,-0.003579748819583601,0.0038195700062949476,0.0,-2.7855462982590323e-10,0.0010727115890071357,0.00421927010057059,-0.04282813548037815,-1.0785450957603058e-08,1.205195283916112e-10,1.1055608629339775,-1.0,-0.02091723191051282,-3.746072199413485e-11,703.6701157819009,378.53836616336554,387.9438662431364,698.5287988856119
0.04400000000000001,-4.717248030722395e-12,-1.9999721985930257,0.01013026624645912,-0.06362321848433013,-1.1087531815831922e-08,1.6114038044148647e-10,-2.7110825536588884e-05,-0.004276783916325968,0.004565180147490079,0.0,-3.637984236661124e-10,0.0026912571039955794,0.009078855652027802,-0.10771385812611452,-1.4902648476031727e-08,1.1355951075594794e-10,1.2017272896586582,-1.0,-0.022382014531855794,-3.4713099005068085e-11,705.8444604003867,381.90473422033693,391.8739769353362,700.3587753750904
0.048000000000000015,-6.753117830851231e-12,-1.9999434923597599,0.010219945657201019,-0.12911126340654747,-1.5762109789834917e-08,1.8664765124049526e-10,-3.7464854467679e-05,-0.0050327564248006836,0.005373678620505558,0.0,-4.448019021075386e-10,0.005056913554372856,0.016185834594494013,-0.2024628640237446,-1.808881732501661e-08,9.257147219374783e-11,1.2811266905004768,-1.0,-0.023462927125392854,-3.6457882860432124e-11,707.6190194848627,384.6907363959322,395.0613727657303,701.8818639111971
0.05200000000000002,-9.124593084302515e-12,-1.9999006727349202,0.010351178329094067,-0.2264041110265582,-2.1144602609398447e-08,2.161304628544368e-10,-4.913496808340372e-05,-0.0058469318810566535,0.006244281659414513,0.0,-5.233941399479241e-10,0.008071809300522334,0.025250473746632095,-0.32330257667999274,-2.118168153170253e-08,7.133779709648901e-11,1.345731358898986,-1.0,-0.024555751650619337,-4.216238426860636e-11,709.0855643429364,386.895309121715,397.682221193645,703.0925745719014
0.05600000000000002,-1.1844673650542657e-11,-1.9998414860444287,0.010529923397759646,-0.36011629952168106,-2.7228378573694792e-08,2.519972904986684e-10,-6.210495324345726e-05,-0.006718582539404078,0.007176212667716822,0.0,-6.014117957272729e-10,0.011646765470934222,0.03600937397403858,-0.46671586100584916,-2.424286296331227e-08,4.5765521950986596e-11,1.3973238499467737,-1.0,-0.02566051715843482,-5.0845672367678474e-11,710.2827042119277,388.59542434045295,399.8128704342008,704.0295391418955
0.06,-1.491730197157831e-11,-1.9997638416342833,0.010761218581013105,-0.534192760866953,-3.397840322414982e-08,2.978824026900684e-10,-7.635874456984182e-05,-0.007646987317994151,0.008168702160263459,0.0,-6.789601253350429e-10,0.01570215892618263,0.0482277360189874,-0.6295670881428933,-2.7251272189268888e-08,7.343081714126577e-12,1.4375739592934427,-1.0,-0.02677725236380504,-6.40390129994547e-11,711.2461326864592,389.8603096771547,401.5219454468694,704.7284932364721
0.064,-1.8334330613378672e-11,-1.999665758221478,0.011049256379189092,-0.7519746866076085,-4.1335899752188e-08,3.6217469945431014e-10,-9.188042325207387e-05,-0.008631431744811947,0.009220987705621773,0.0,-7.525777567892529e-10,0.02016566943342239,0.06169237242320756,-0.8090090636120879,-3.007978080705626e-08,-4.0107913741423646e-11,1.4680262926580407,-1.0,-0.027905985893840773,-8.744650178380324e-11,712.0085238195705,390.7519909602346,402.8708841802124,705.222168165179
0.068,-2.2136510901998087e-11,-1.9995452941048097,0.011397518146723217,-1.0163094907711978,-4.9332897537123596e-08,4.508632937870697e-10,-0.00010865421586145059,-0.009671207904079358,0.010332313868878385,0.0,-8.250146719696396e-10,0.024974150546951963,0.0762172246908914,-1.0025567985529416,-3.2827352475089385e-08,-1.003462595414705e-10,1.4899803884768847,-1.0,-0.029046745455088258,-1.1861056828586262e-10,712.5971929324838,391.32157579733723,403.9103496937766,705.5379249925486
0.07200000000000001,-2.634387677752698e-11,-1.9994004989549117,0.011808854758277467,-1.3296199404650917,-5.7948078026256826e-08,5.714274266300884e-10,-0.00012666449317431228,-0.010765614383065256,0.011501932154876639,0.0,-8.98014248812849e-10,0.030073828246952206,0.09164392801306065,-1.208095203983223,-3.555803242455854e-08,-1.753135470300985e-10,1.504594833088098,-1.0,-0.030199560341112087,-1.5951955301555635e-10,713.0363334953363,391.61372572129056,404.6845981124212,705.7000056270628
0.07600000000000001,-3.0974764466864526e-11,-1.9992293773304446,0.012285544041780679,-1.6939553097962596,-6.714720158969288e-08,7.315397514483859e-10,-0.00014589528062850633,-0.01191393803108877,0.012729100951885338,0.0,-9.708652685823394e-10,0.03541902046113406,0.10783796687407661,-1.4238277740643728,-3.821392293404861e-08,-2.7474197557708507e-10,1.5129318427621097,-1.0,-0.03135876776733156,-2.107087394177434e-10,713.3473114774441,391.66996548617635,405.232276194655,705.7312161478566
0.08000000000000002,-3.6052955389515144e-11,-1.9990298526466455,0.012829356421392163,-2.111049091251833,-7.691188633144142e-08,9.43607635853959e-10,-0.00016633123979398838,-0.013115490502470115,0.014013085475695665,0.0,-1.0421319241660435e-09,0.040969936719371894,0.1246820743006037,-1.64818850446165,-4.075624172081638e-08,-3.9232928754576326e-10,1.5159387720442083,-1.0,-0.032535433476564235,-2.780268471419532e-10,713.5510444573196,391.52334398219034,405.5908081772013,705.6498538358007
0.08400000000000002,-4.1610416825370354e-11,-1.9987997350772824,0.01344161649869686,-2.582373977450585,-8.722304526190149e-08,1.216652791362412e-09,-0.00018795717291569304,-0.014369589795440028,0.015353157714143143,0.0,-1.1123976283204608e-09,0.04669306649290041,0.14207746144897354,-1.8798582594237623,-4.319561172318892e-08,-5.3225395856307e-10,1.5144542657212026,-1.0,-0.03372423531852493,-3.580320081172336e-10,713.6641649601469,391.2061530926909,405.789786327215,705.4739125301458
0.08800000000000002,-4.7678494939817474e-11,-1.998536697844489,0.014123247070204539,-3.109183880423777,-9.806583829020516e-08,1.5647881300046755e-09,-0.00021075802177255323,-0.0156755602005649,0.016748596372051543,0.0,-1.1830493205200632e-09,0.05256047651023099,0.1599417650556861,-2.1177373549996683,-4.55810743606101e-08,-6.966783516665343e-10,1.5092419424148371,-1.0,-0.03492520165133592,-4.570462671392018e-10,713.7023646700724,390.7465479453366,405.8569641054622,705.2191513368263
0.09200000000000003,-5.429312391496923e-11,-1.998238256729454,0.014874808737623224,-3.6925532634777007,-1.0941837081860802e-07,1.9986147860951326e-09,-0.00023471886654518825,-0.017032732249564288,0.018198686816595647,0.0,-1.253192609101642e-09,0.05854898551572078,0.17820662482932517,-2.360913175185754,-4.7868323782321486e-08,-8.882965933950541e-10,1.500997936637777,-1.0,-0.03613836064207636,-5.715520763846003e-10,713.6799219868923,390.17010874097275,405.81749667289967,704.8999219870658
0.096,-6.147913932470168e-11,-1.9979017536754833,0.015696531500960405,-4.333411141099553,-1.2124700190025807e-07,2.5348878272170904e-09,-0.0002598249246921968,-0.01844044266451792,0.019702721023079815,0.0,-1.322975300388906e-09,0.06463956276841436,0.196815934435081,-2.608636779953639,-5.006905161948856e-08,-1.1051174049987333e-09,1.4903659076391595,-1.0,-0.037363740654526495,-7.091795021035814e-10,713.6100237222304,389.5004749510513,405.69455876601296,704.5294924603148
0.1,-6.928313661637325e-11,-1.9975243453027616,0.01658833578911864,-5.032567835548201,-1.3355217803176957e-07,3.189515336128405e-09,-0.00028606154983499345,-0.019898034307459435,0.02125999752112935,0.0,-1.3918454527900778e-09,0.07081670460702982,0.21572401732685414,-2.860298524675883,-5.2171408966651604e-08,-1.3436486035805158e-09,1.4779574695015365,-1.0,-0.03860136939845096,-8.696343011854817e-10,713.5051935777416,388.7601639511572,405.5101351770778,704.1204799237406
0.10400000000000001,-7.773990097964495e-11,-1.9971029926380133,0.017549851558590422,-5.79074131639773,-1.4631112938251874e-07,3.980360670090034e-09,-0.00031341423065112345,-0.021404856130353814,0.022869821341291532,0.0,-1.4613460243677417e-09,0.07706796352901855,0.2348942602772719,-3.115409780188782,-5.423254452616899e-08,-1.6054838116497041e-09,1.4643554419228453,-1.0,-0.03985127534545061,-1.0558620432074366e-09,713.3773659277977,387.97073144896063,405.2851761490889,703.6849244888961
0.10800000000000001,-8.689930353544897e-11,-1.9966344559483036,0.01858042578478765,-6.6085755911793935,-1.5952871987822643e-07,4.927713008578925e-09,-0.0003418685897759974,-0.022960263125456,0.02453150396204348,0.0,-1.5317294214890758e-09,0.08338342159054865,0.2542975655892297,-3.3735822545008483,-5.625853414295168e-08,-1.8919545633316435e-09,1.4501367990289356,-1.0,-0.041113486183096626,-1.2714395088435523e-09,713.2383605727568,387.15366299484657,405.0404498226405,703.2347705241308
0.11200000000000002,-9.680009743829845e-11,-1.9961152896039853,0.01967913017921693,-7.486660509960522,-1.7318312046303488e-07,6.0509990470415335e-09,-0.0003714103827129819,-0.02456361627604768,0.026244363257203772,0.0,-1.6029146299617325e-09,0.08975540296537328,0.2739115272840925,-3.6345169587458686,-5.825512543091348e-08,-2.2000394473663306e-09,1.4358719724916296,-1.0,-0.04238803020666121,-1.516203245611021e-09,713.0998713508801,386.33036793155,404.7965323787425,702.7818551977036
0.11600000000000002,-1.0747317447222829e-10,-1.9955418380741257,0.020844765612701117,-8.425550369377634,-1.8724161697672276e-07,7.371864932790437e-09,-0.00040202549675178584,-0.026214282507549556,0.02800772344374488,0.0,-1.6733270129161981e-09,0.09617826948240235,0.2937198569309266,-3.8979965002116588,-6.016580795267029e-08,-2.5273330614359162e-09,1.4221312909138597,-1.0,-0.04367493532292069,-1.7935559293697864e-09,712.9735988539583,385.522432486924,404.57404483485976,702.3380437835442
0.12000000000000002,-1.1895642525008805e-10,-1.9949102362352593,0.022075856694233894,-9.425776095468121,-2.0168936984722495e-07,8.915978860089487e-09,-0.00043369994989508203,-0.02791163463900637,0.02982091503000352,0.0,-1.7421775056550884e-09,0.10264816296784254,0.31371163865634105,-4.163875112861652,-6.198423936187144e-08,-2.8653547954497697e-09,1.4095048183809655,-1.0,-0.04497422921717158,-2.1090986011052358e-09,712.8716563321739,384.7523729686083,404.39436487109833,701.9156424717173
0.124,-1.312882058370593e-10,-1.9942164106343776,0.023370644227879333,-10.487857168026666,-2.1651487741602823e-07,1.071191365412475e-08,-0.0004664198897933032,-0.02965505133494192,0.031683274764285965,0.0,-1.8100391847746347e-09,0.1091626483226394,0.3338802730058619,-4.432064556555107,-6.375398516867708e-08,-3.207351989693317e-09,1.3986068341017321,-1.0,-0.046285939776070595,-2.467293933352629e-09,712.8066588601353,384.0438001265599,404.27977384923753,701.527490372029
0.128,-1.4450890947583023e-10,-1.9934560828760104,0.02472707325313749,-11.61231148929438,-2.3170783799432355e-07,1.278890348690016e-08,-0.0005001715926875543,-0.03144391705758143,0.03359414558386552,0.0,-1.8771929142633523e-09,0.1157204590830484,0.3542227274708744,-4.7025241057816505,-6.549740037492802e-08,-3.549689584964865e-09,1.3900850366165818,-1.0,-0.047610094747840184,-2.8701053563352943e-09,712.791907002658,383.42175030141846,404.2537616944837,701.1871479595476
0.132,-1.5864395238433434e-10,-1.992624771303334,0.026142783552960274,-12.799668994659944,-2.472429588407153e-07,1.5181530987974034e-08,-0.0005342716829085288,-0.033280480884168864,0.0355528765643691,0.0,-1.942713704446839e-09,0.1223215835259176,0.3747398362321205,-4.975264491491439,-6.720549825488215e-08,-3.882984443927688e-09,1.3846159172872878,-0.8950535024648087,-0.04114182145083991,-3.3250007847477406e-09,699.0799271921375,407.49467933452866,424.5367818982205,688.8636692361738
0.136,-1.7373891508040817e-10,-1.9917178109089375,0.02761506933205615,-14.050460976706926,-2.630790854745596e-07,1.7897564090404825e-08,-0.000568714752205058,-0.0351641043211591,0.03755882286955032,0.0,-2.0067712311812036e-09,0.12896633900183646,0.3954334521357782,-5.250310020312724,-6.880699405784463e-08,-4.232808840247615e-09,1.3829676327073954,-0.7622488315296845,-0.042018408155173714,-3.8020985225957676e-09,682.5906214637041,434.4402106162855,450.799264644532,671.8989866842063
0.14,-1.5798597160374222e-08,-1.9907307644003593,0.029140280174772996,-15.364724211049262,-3.18235398258617e-07,-1.3539755954067999e-05,-0.0006034954448777407,-0.03709415484278357,0.03961134570144606,0.0,-1.5692287811629309e-06,0.13563228447203166,0.41623930400528175,-5.526812937355354,6.061976572411236e-06,-2.2864417587277596e-05,1.387135222933724,-0.6241901989947995,-0.042720126905253494,1.5836741057958578e-05,665.0960604474004,460.9786690043807,476.7418287746317,653.9779221350698
0.14400000000000002,-4.7356162667167546e-07,-1.9896603126520658,0.030713340699592046,-16.741562243511726,-1.5548999131102095e-06,-0.0004179101965967506,-0.0006386084573411267,-0.03907000584220788,0.0417098122509138,0.0,-4.773555420361478e-05,0.1422115486275108,0.4369548401742982,-5.802269478884184,0.0002014885286863931,-0.0007010253114964005,1.4001188142943992,-0.48192054142118157,-0.03862596543185508,0.00047292554172014375,645.5034712915431,487.10138500121917,502.3038446306358,636.4677169624459
0.14800000000000002,-2.1275305409189204e-06,-1.9885046998799605,0.032327934767084364,-18.17924711078779,-6.266842095329286e-06,-0.0019119113401732393,-0.000674048537689279,-0.04109103658306245,0.0438535956485469,0.0,-0.000215658497850791,0.1484880775215616,0.45725769220417745,-6.072975497213131,0.0009801173219219613,-0.003189545099563025,1.4245902148320817,-0.3364284551721224,-0.030358329650606832,0.001762420433059874,623.3270433060829,511.97959105395967,528.2320930582342,620.0940062737961
0.15200000000000002,-5.1265968207783005e-06,-1.9872654288330813,0.03397716649816796,-19.67574944379827,-1.5388051239460475e-05,-0.004698143527090665,-0.0007098104852646878,-0.04315663215134345,0.04604207491596505,0.0,-0.0005092452834717609,0.1540193213018689,0.4767955161319928,-6.336143111046808,0.00248938039679606,-0.007588224144720145,1.4619193519011993,-0.18814158465838116,-0.028503237057192765,0.0033334326031651956,600.7356697754307,534.992008992638,555.1814075896932,602.6988813168275
0.15600000000000003,-9.289832131904778e-06,-1.9859459161623523,0.03565348590543617,-21.228628325294476,-2.896020207313806e-05,-0.008697696551433577,-0.0007458891502305133,-0.04526618340768131,0.04827463491747721,0.0,-0.0008423183296138676,0.15833878654693895,0.4952252933455892,-6.589858738264842,0.00446873562676696,-0.012666284921065918,1.5136456812962273,-0.03763821874432427,-0.030351872797774012,0.004865522855394971,577.9087822175717,557.266269137168,582.0599180735127,584.2131426260162
0.16000000000000003,-1.4420530085088446e-05,-1.9845505595045279,0.03734848384519792,-22.834770262335397,-4.693353992481913e-05,-0.013821151575790913,-0.0007822794331461317,-0.04741908693997411,0.05055066631211419,0.0,-0.0011449385607657102,0.16115036180980605,0.5122087850117493,-6.832075103959807,0.0066354563517418055,-0.017404405980797087,1.5817457756166395,0.11416869668912777,-0.03252108059802516,0.006343259845223033,554.5111181723768,579.3293778919532,608.2930805475402,565.2111691933594
0.16400000000000003,-2.0346437906420796e-05,-1.983083848989644,0.03905354630295823,-24.489874959076737,-0.0008779653905588792,-0.01927142755598693,-0.0008189762845459606,-0.04961474501638324,0.052869565506028296,0.0,-0.0014082480462202407,0.16247636871762144,0.5275049959493991,-7.059097039414697,0.007137028694281321,-0.021104523793638908,1.666895832253007,0.2657175700383525,-0.033613942367233966,0.0069363888505831195,531.9409436703255,602.4582629946351,632.375602942695,544.732908621631
0.16800000000000004,-2.6481415207277925e-05,-1.9815464414309198,0.040762716132309175,-26.187079509775884,-0.00441332910267079,-0.023309987150181025,-0.0008559747045215391,-0.05185256553868854,0.055230734605257216,0.0,-0.0015831008904203896,0.16268152445553255,0.5413778161350883,-7.263710443009489,0.0017083912533669338,-0.022685090595872513,1.7639707529594055,0.4137560767297863,-0.03740087145323987,0.005512432147219023,513.3660283381532,627.1012261131948,652.9153086288284,520.3908357353966
0.17200000000000004,-3.255353732832863e-05,-1.979934200458643,0.04247341627287037,-27.91532541151027,-0.010780424965665707,-0.025584102806840404,-0.000893269742306839,-0.05413196199600046,0.05763358136884959,0.0,-0.0016449401964178684,0.16247576044139828,0.5547471146388779,-7.433020234996538,-0.009838505342560807,-0.022287744509920337,1.8662930679744751,0.5529449714824888,-0.03767870299641569,0.0036187462138990104,496.04492490910906,650.8822468614846,670.7182879632219,496.29010722600464
0.17600000000000005,-3.857333517513982e-05,-1.9782421714788294,0.04418352490268047,-29.66261037378443,-0.019863021961380366,-0.02594125815476396,-0.0009308564958667834,-0.056452353418826456,0.06007751916234959,0.0,-0.0016142498334379466,0.16245197708205844,0.568465360302502,-7.555090083031708,-0.023671685307199004,-0.021256284872248926,1.9730136755126244,0.6814476272614371,-0.03483548916356618,0.0014746020588589045,480.0693366885402,673.2920687389426,686.0897260322486,473.1292475579278
0.18,-4.455978325710952e-05,-1.9764652962638685,0.04589091278062507,-31.41667406186229,-0.03162485202655905,-0.024210716232320177,-0.0009687301114889479,-0.058813164333489105,0.0625619669116377,0.0,-0.001550238167720389,0.1628698468952596,0.5828792969193899,-7.624662222648176,-0.0375418889593685,-0.020286076130903757,2.0842080238016374,0.7981552641238601,-0.03174268099938739,-0.0009476814908127699,466.3704329316781,694.0074842929108,699.3725996084268,450.6625345927118
0.184,-5.054135496337259e-05,-1.9745984379202124,0.047593451359091085,-33.16521436667731,-0.04604743324618481,-0.020230250569753843,-0.001006456385851846,-0.06121564327632108,0.06508634905712558,0.0,-0.0014566401854217445,0.1638202001677063,0.5980613777841882,-7.640807309202897,-0.05169879907331609,-0.019482571413753872,2.1999354233006287,0.9021854425016775,-0.023356776103414675,-0.0036453195926760278,454.36174144933625,713.676352645052,709.9700120236344,430.1955281738138
0.188,-5.655689370000696e-05,-1.9726364061886854,0.04928902229992505,-34.89609171461296,-0.06310467980348154,-0.013863589660385664,-0.0010440357289047116,-0.06365920374174236,0.06765009550830155,0.0,-0.0013327554045235684,0.16538980697161657,0.6140785779776887,-7.603556964883104,-0.06620447556253858,-0.01894063743792736,2.3202359393238225,0.9928828568564141,-0.019372110686989002,-0.006594811360799556,446.13666637227794,731.1358017648979,719.11546486549,410.1855364707154
0.192,-6.265680136614294e-05,-1.9705739863942147,0.05097552496908789,-36.59759370660483,-0.08271087310255712,-0.005027860900406229,-0.0010814685509669148,-0.06614326478330514,0.0702526415986251,0.0,-0.0011780415964168602,0.16766336414370236,0.6309938325374782,-7.513948593641683,-0.08090097682566413,-0.018729351957015316,2.4451341901952253,1.0,-0.015130875121962647,-0.00973954076710649,454.4022398478645,738.8624431103947,718.0021162748939,407.0147129180276
0.196,-6.890324707969919e-05,-1.9684059673856,0.052650888867693965,-38.258804207923966,-0.10476305417891514,0.006290220496372012,-0.0011187552627087494,-0.0686672509678982,0.07289342804076722,0.0,-0.000992420291397227,0.17072188776549824,0.6488643111547129,-7.374300699538921,-0.09553934064173493,-0.018940928271310463,2.5746290890725905,1.0,-0.010644415449014063,-0.01300179362595075,464.17488120960155,745.9496620175032,715.9454654986614,405.2876889104673
0.2,-7.537049423352725e-05,-1.9661271006447265,0.05431317685872353,-39.869988820602046,-0.12913768747902843,0.02006298467250752,-0.0011558962751324372,-0.07123059233030256,0.07557190088219416,0.0,-0.0007763239438318881,0.17464038132837176,0.667751081933503,-7.188543120855035,-0.10987098769897123,-0.01964278758427551,2.708509175528979,1.0,-0.005927466053558952,-0.01633444725439969,473.97516136414185,753.1671353177748,713.8547607482722,403.6019361596334
0.20400000000000001,-8.214532141745146e-05,-1.9637321659073614,0.055960540696255834,-41.42313047011971,-0.15569021261783894,0.036184127609884015,-0.001192891999553349,-0.07383272432809541,0.07828751146109222,0.0,-0.000530668490195134,0.17948375796089006,0.6877129501777981,-6.9624085212544315,-0.12366877844031914,-0.02092123851762747,2.846649078063393,1.0,-0.0009951995460937939,-0.01964467967417671,483.6249326514096,760.3954675876005,711.8481472918496,402.1611614076339
0.20800000000000002,-8.93272171144943e-05,-1.9612159629197083,0.05759125779313393,-42.9116762090077,-0.18424989914400858,0.0544729676501406,-0.0012297428475814384,-0.07647308779690018,0.08103971636263091,0.0,-0.0002570889039433805,0.18530454063716845,0.7088019320211199,-6.702723211601411,-0.13663606424116256,-0.022823374185999064,2.988846055979014,1.0,0.0041275997532508775,-0.02284140480285094,492.9625066098758,767.5192528106278,710.0424230573541,401.1628551464657
0.21200000000000002,-9.702773911483592e-05,-1.9585734124310898,0.059203639040094534,-44.33025704053733,-0.2146197685171217,0.07469281865227936,-0.0012664492311028907,-0.07915112890597985,0.08382797737556208,0.0,4.1896919973340075e-05,0.1921451344584336,0.731048173815092,-6.415577926636317,-0.14847166340529241,-0.02538535573643531,3.13508052925791,1.0,0.009404803165687214,-0.025851932512209477,501.8785808484,774.4512088269779,708.5368834636033,400.76764273540374
0.21600000000000003,-0.00010536959373739859,-1.9557996103654014,0.06079600212670226,-45.67446776301149,-0.24660798516991922,0.09653868630300796,-0.0013030115622619785,-0.08186629911417119,0.08665176144915256,0.0,0.0003629010113706772,0.2000420794075358,0.75445314694098,-6.105933240216545,-0.1589151401864426,-0.02861618736162739,3.285386079339517,1.0,0.014831428593215339,-0.02858688377085183,510.23697668298706,781.0919473506922,707.4502231145354,401.1811303171182
0.22000000000000003,-0.00011448658579054376,-1.9528897287017695,0.06236680434571293,-46.940696653276,-0.2800150717573306,0.11962616158559818,-0.0013394302534431284,-0.08461805512615737,0.08951054065044778,0.0,0.0007015278665030296,0.20902904096567773,0.7790116445857,-5.77783774597337,-0.16770889496442293,-0.0325561750776339,3.439526624667235,1.0,0.020397370871126426,-0.030941079116742723,517.8741174025371,787.3212609458342,706.9167169925914,402.6289042302828
0.22400000000000003,-0.00012452197073086954,-1.9498390901205862,0.06391459024862362,-48.12597755027964,-0.3146204244244787,0.1435386484630099,-0.0013757058418466756,-0.08740505118961858,0.09240379212186405,0.0,0.0010522497413865974,0.21913887755534484,0.804715481283913,-5.434606213400992,-0.17460835140269426,-0.03719667604240218,3.5973679484077805,1.0,0.026056209662100156,-0.032861220629753385,524.7325499471915,793.0799083005219,707.0094000722869,405.2053887384403
0.22800000000000004,-0.0001356267329618125,-1.9466432073797646,0.06543797810282442,-49.2278713759016,-0.3502208999564094,0.1678136602540996,-0.0014118387387847683,-0.09022676409207883,0.09533099803910693,0.0,0.001408464955175047,0.2304056098992017,0.831539786179669,-5.078947075437313,-0.1794260730390233,-0.04249440355536898,3.758800617606297,1.0,0.031807206063504866,-0.03427665160369389,530.7179000715155,798.295101560916,707.81709409463,409.0430805045031
0.23200000000000004,-0.00014795810655788153,-1.9432977656930532,0.0669357044050849,-50.24437207496746,-0.38660232228929264,0.19197262630769532,-0.0014478293557707025,-0.09308267564980564,0.09829164556941349,0.0,0.001762571076800157,0.24286599134034378,0.8594404712453857,-4.713073932018768,-0.18204611994548162,-0.048375365784244326,3.9236225876696205,1.0,0.03761476937724907,-0.03514961753583615,535.7952374337094,802.9269579320337,709.3861577980826,414.17569640079574
0.23600000000000004,-0.0001616767540631006,-1.93979871783427,0.06840656393549578,-51.17382645179919,-0.42357642708736654,0.2155322319728934,-0.0014836781045016924,-0.09597227266611974,0.10128522683011586,0.0,0.002106107193628939,0.2565606355310379,0.8883594919738547,-4.338801211697775,-0.18241330222350188,-0.05477584759340689,4.091749784571098,1.0,0.043470175672686365,-0.03545491693184512,539.9466354685811,806.9545248706344,711.7432461550277,420.6058817929915
0.24000000000000005,-0.00017694692273858138,-1.936142111900125,0.06984958077876523,-52.01487278738843,-0.46094058042895,0.2379812130471645,-0.0015193853968418433,-0.09889504689002548,0.10431123884752393,0.0,0.002429707890528709,0.2715344622898891,0.9182356473179338,-3.9576161839641797,-0.18048747445463098,-0.06161532953995452,4.262749262920277,1.0,0.04935174246548589,-0.03514001199766038,543.0967036906975,810.3174406364219,714.9414868648723,428.3681570525841
0.244,-0.00019393385747758847,-1.9323241543555993,0.07126397206597739,-52.76638638462639,-0.49848538539697756,0.2588030992507025,-0.0015549516448053204,-0.10185049497515967,0.10736918351612454,0.0,0.002722971582547217,0.287836827331276,0.9490158144854393,-3.570739880491223,-0.17619710507612169,-0.06881438918887892,4.4362544297207585,1.0,0.055213791546675425,-0.03417774952217835,545.214669046957,812.981993998546,719.0021892084461,437.4270894727717
0.248,-0.00021280164342383964,-1.928341221443814,0.07264915751620947,-53.427438050967176,-0.5359912393451717,0.2774875001162694,-0.0015903772605397179,-0.10483811843905659,0.11045856755809541,0.0,0.00297445224542797,0.305521686303231,0.9806359988130493,-3.1791734861653618,-0.16950758120275167,-0.07625868803801696,4.611873247248729,1.0,0.06100891997016867,-0.03255391016355546,546.2857301018205,814.9270421531959,723.9265148271745,447.71107567907023
0.252,-0.00023371069360311918,-1.9241898890456182,0.07400475560412609,-53.997262006505146,-0.573239736940749,0.2935350018688627,-0.001625662656309618,-0.10785742362272634,0.11357890248313054,0.0,0.003171869630797754,0.32464776785123445,1.0130149994205597,-2.7837441755739363,-0.16044147979902162,-0.08384598967948356,4.78921507023022,0.9908462715129347,0.06669626932979428,-0.03026020893443678,547.7400064153165,815.1701712292829,728.6226876645993,460.84880873423134
0.256,-0.0002568155296531093,-1.9198669439981044,0.07533059429483743,-54.47521335351335,-0.609997900879628,0.3064663487035703,-0.001660808244480347,-0.11090792165054503,0.11672970454857585,0.0,0.003302215540506457,0.34527848487781976,1.0460577701433498,-2.3851161625538624,-0.14905047504642027,-0.09146675522306119,4.96786120208405,0.9221958909807824,0.07221779162188012,-0.027299501904481438,557.4140613646362,808.3540642746894,727.1489380888586,485.59202644465387
0.26,-0.0002822633326842113,-1.9153693352843528,0.07662676734010358,-54.860843133127986,-0.646006317261875,0.31582234560560013,-0.0016958144375019207,-0.11398912839045387,0.11991049471987207,0.0,0.0033518176743430085,0.3674811060072092,1.079664264714315,-1.9839775575758867,-0.1353844798522487,-0.09899951453638033,5.147272083746457,0.846803232346695,0.07750748409940875,-0.023675325914529026,566.933147133831,799.9862374745018,725.7501836554596,511.4436774938638
0.264,-0.0003101917500589942,-1.910694171746237,0.07789366135556905,-55.15448099400497,-0.6809691006394151,0.3211818133221468,-0.0017306816478931803,-0.11710056441446516,0.12312079863130282,0.0,0.003306474394123951,0.3913222064098365,1.1137353107474819,-1.5821346214904943,-0.11949817729042092,-0.10627087423395512,5.326844797726885,0.7655465698252323,0.08247566406103415,-0.019412983754513956,576.2118631107218,790.1214981553524,724.497891474273,538.0297346340931
0.268,-0.00034072675621340767,-1.9058387135600983,0.07913198333113482,-55.3577225611775,-0.7145832366518996,0.32215338229904,-0.0017654130242374523,-0.1202403163738004,0.12636014654704567,0.0,0.0031516826952574266,0.4168570841537604,1.1481732929708026,-1.183367014617563,-0.10147908828349568,-0.11314916755238195,5.5059113240786735,0.6871726342497722,0.08703100274526188,-0.014529723880413927,583.9962622630261,779.6677740255024,724.4095077042006,563.8524703987459
0.272,-0.00037397869443356964,-1.900800495305449,0.08034267528163212,-55.47294719233192,-0.746531228127633,0.3184054220692495,-0.0018000089462137522,-0.12340793144616514,0.1296280733225239,0.0,0.0028729634477601277,0.4441231196931418,1.1828677062933834,-0.7921622892049845,-0.08147740674263568,-0.11951432114105012,5.683966712124061,0.6055375281130677,0.09114345549601593,-0.00907895376611325,591.3159449124572,767.9625483125781,724.6814377206787,589.8106965529473
0.276,-0.00041004109078145135,-1.8955772612735886,0.08152696626861948,-55.50339437377702,-0.7764725929411342,0.30967058269887426,-0.0018344697938213043,-0.12660296124006046,0.1329241183660568,0.0,0.0024562249666405405,0.4731383221641113,1.2177004126517272,-0.4123861002507151,-0.059685029118583754,-0.12525327605698428,5.860393002764772,0.5217469101821053,0.09470880565641847,-0.003121815939531815,598.1220308587027,755.1239360718236,725.3674983482925,615.612554667091
0.28,-0.0004489887632606999,-1.8901669622606316,0.08268637222269633,-55.453017470860374,-0.8040552135511497,0.29573811123235466,-0.00186879594736202,-0.1298249617577554,0.13624782560080612,0.0,0.001888124882242475,0.5039015254590674,1.2525597232877852,-0.047473202663517955,-0.03630103709175956,-0.13023171630415784,6.0345635080632745,0.43679673807069974,0.09765479179372255,0.0032869017774057666,604.3678745344578,741.2556122239877,726.511670674106,641.0409759300466
0.28400000000000003,-0.0004908755507300295,-1.8845677864613577,0.08382266618182561,-55.32626573364368,-0.8288820233793613,0.27647537472568906,-0.0019029877874231736,-0.13307349335854574,0.1395987434270168,0.0,0.00115623004725846,0.5363923774705135,1.2873389269958921,0.29974492711784867,-0.01151260273445084,-0.13428898235745512,6.2059028563564524,0.35147998706927014,0.09986290950952652,0.010064959915818406,610.0848366319817,726.4704904869434,728.1048732376273,665.8953233367729
0.28800000000000003,-0.000535734142302278,-1.8787780228646178,0.08493797341660812,-55.1286330910513,-0.8505389572302829,0.25185025897528673,-0.001937045694860278,-0.13634812072229666,0.1429764246845496,0.0,0.0002496693501068502,0.5705681779851316,1.3219513823798832,0.6260021038067224,0.014445895797223381,-0.1372397017760851,6.373634479274482,0.2672674931100163,0.10126619366203035,0.01710075515008162,615.2383838972328,711.0090309652679,730.1703896573013,689.8813324112983
0.29200000000000004,-0.0005835737516018882,-1.8727961227045433,0.08603470877183562,-54.86626522443569,-0.8685899563367844,0.22191683521053798,-0.001970970050780154,-0.13964841281326756,0.14638042661570336,0.0,-0.000840368829687919,0.606360841405061,1.356329675498498,0.9278833598399034,0.04131466488773228,-0.13884004904930425,6.537097801944734,0.18524653230278343,0.10176479099265126,0.024295302343220124,619.8356784199254,695.064789704176,732.7071741609645,712.8027228614686
0.29600000000000004,-0.0006343784266790907,-1.8666207241112869,0.08711553612155573,-54.545704551497785,-0.8826293819922872,0.1867615564579495,-0.0020047612365241946,-0.14297394284421655,0.1498103108283251,0.0,-0.0021205794585770457,0.6436762251940125,1.3904178547607198,1.2026358798642003,0.06887405023453726,-0.13906593335932965,6.695705358969955,0.10625544909166934,0.10132333343769541,0.03160892468680563,623.8224720700541,678.7464554124599,735.7517108151299,734.5956169527283
0.30000000000000004,-0.0006881052043808912,-1.860250699727507,0.08818330501301361,-54.173515165454,-0.8922172715842495,0.14652168557013354,-0.002038419633651824,-0.14632428824078278,0.15326564325920558,0.0,-0.003595992685384576,0.6824020514997202,1.4241585450163485,1.4489933904882468,0.09698986198353035,-0.13784905307090572,6.84899038091139,0.030726314477342753,0.0998290099245467,0.03897908278417633,627.2467951463988,662.1439342939016,739.2746853248944,755.210822529987
0.30400000000000005,-0.0007446829814616426,-1.853685119885143,0.08924105149525743,-53.75637785416115,-0.8969308567352818,0.10137737000868258,-0.002071945623924142,-0.14969903060614453,0.15674599413775817,0.0,-0.005270050572319366,0.7224119176728472,1.4575019657482076,1.6665583791637228,0.1255702081235284,-0.13516705070076973,6.996478548838024,-0.040791778804437906,0.0972328790018904,0.046350399147767195,630.1187411347705,645.3697546245937,743.2611962309096,774.6015544506848
0.30800000000000005,-0.0008040110147625362,-1.8469232759588972,0.09029194798358661,-53.30085086254285,-0.8963389608734125,0.051551009417086534,-0.0021053395892877626,-0.15309775568595113,0.16025093794997916,0.0,-0.00714447942233253,0.7635684363811504,1.4904122162111861,1.8552619235102785,0.1545105890883849,-0.1309645948565195,7.1377913991887,-0.10801645955684913,0.0934512441167502,0.05366646150814033,632.4915373690851,628.5106411457784,747.6696569717056,792.7458605642928
0.312,-0.0008659578523599007,-1.8399646208137521,0.09133931951057012,-52.81360622214155,-0.8900159240073389,-0.0026391253715728432,-0.00213825775442903,-0.15651887285344482,0.16378005340268725,0.0,-0.009218784484160608,0.8057238972853522,1.522871561393068,2.015101361032089,0.183651416557368,-0.12515220691119128,7.2725131882733365,-0.17039318816677762,0.09242950811892174,0.06080647157912739,633.923879312127,612.3636254590535,751.9493962024645,809.9444728189494
0.316,-0.0009303603744676698,-1.8328087138956228,0.09238665557722242,-52.30161033833681,-0.8775756926055591,-0.0607522637141695,-0.0021707046438966676,-0.15996199024335545,0.1673329233880404,0.0,-0.011489018270441378,0.8487182493556175,1.554891834517707,2.14545351866394,0.21267829998106974,-0.11756350623450285,7.400199302596919,-0.22714410852024636,0.08636429189447604,0.06761456563603817,635.5895088128186,596.1997086689047,756.8830847962178,825.1806146607383
0.32,-0.0009970233755386723,-1.825455259583519,0.09343753983252512,-51.77174277483616,-0.858697427390418,-0.12235678432436149,-0.0022026847449107385,-0.1634267199007879,0.17090913494832732,0.0,-0.013947647453751516,0.8923780555068854,1.5865081656805748,2.2458190485142486,0.24131888532701865,-0.10819468777825939,7.520542648567352,-0.27791152875364256,0.07903804473695634,0.07408360599070948,636.9299611861207,580.6356799737002,762.0564570181485,838.8999573061676
0.324,-0.001065718531935078,-1.8179041405837715,0.09449558066302896,-51.23048949348029,-0.8330727992415577,-0.18699236991210338,-0.0022342025076490485,-0.16691267774826424,0.17450827924103268,0.0,-0.01658473485171339,0.9365232212692544,1.6177636862169364,2.3167923566193025,0.2694404142532916,-0.097104628825325,7.633374046253099,-0.32269710641879534,0.0703973986087038,0.08016259115862588,638.0239020745882,565.790690539267,767.4065101834776,851.1129420730899
0.328,-0.0011361836704773278,-1.8101553746923176,0.09556440720175245,-50.68407144398845,-0.8004618705624676,-0.2541394593993052,-0.002265262345531448,-0.17041948355302144,0.1781299515041729,0.0,-0.019388327288540917,0.980973605970255,1.6487089542337567,2.3597641679634633,0.29691147236323706,-0.08434021346097026,7.738531671898555,-0.3613747280296813,0.06045694352472253,0.08576362452618178,638.975650490249,551.8860479243737,772.8350079293892,861.7765002405845
0.332,-0.0012081225594606764,-1.802209101741392,0.09664763950962314,-50.138388002135855,-0.7607028009727463,-0.32322335684339976,-0.002295868635502045,-0.17394676089456318,0.1817737510219013,0.0,-0.02234343614754384,1.025550953392654,1.6794112623734865,2.376051740056413,0.3234362840592041,-0.0699261793332572,7.83591360177682,-0.39389810828825766,0.049251990100974405,0.0908011403394546,639.8947452805259,539.1498779036447,778.2391294100007,870.8549538085796
0.336,-0.0012812052174767685,-1.7940655766221418,0.09774885348914719,-49.59893970414371,-0.7137253971526677,-0.3936394643225286,-0.0023260257183093415,-0.17749413713246373,0.18543928109038016,0.0,-0.02543176628894861,1.0700802155071663,1.7099500339899785,2.36716070322627,0.3486983871141317,-0.05395401136003525,7.9254894532864295,-0.4203290589002446,0.03684414693442341,0.09521674470818814,640.8639425293197,527.7670529790411,783.5371316472882,878.3482938695919
0.34,-0.0013550687084867552,-1.7857251666253489,0.0988715426883889,-49.0707427064935,-0.6595190351673976,-0.4647495226330058,-0.002355737898784316,-0.18106124337442223,0.189126148983918,0.0,-0.028632188589355977,1.1143929184410204,1.7404112803021232,2.3349249035182815,0.3724173017196249,-0.036501987829143975,8.007307814259077,-0.44085271311349017,0.023269092132912346,0.09894638220191508,641.9953794438916,517.9163793703224,788.6337016018182,884.252931587102
0.34400000000000003,-0.0014293175325329351,-1.7771882874815812,0.10001913786540692,-48.55848388401484,-0.5982079382270007,-0.5358319109089685,-0.0023850094461164597,-0.18464771444456526,0.19283396592136998,0.0,-0.031920122822374594,1.1583282768867362,1.7708923560210657,2.2811453216241953,0.39420065620576483,-0.017654875100359492,8.081380234596338,-0.4555027122117916,0.00864981701896788,0.10186651268735603,643.4519919929137,509.9236066833522,793.3736238986105,888.4888451038269
0.34800000000000003,-0.0015035257612121208,-1.7684554142185935,0.1011949603157687,-48.06638309544745,-0.5300291784307264,-0.6061329570397771,-0.002413844594127782,-0.1882531888519961,0.19656234703279934,0.0,-0.03526701733195348,1.2017339089754853,1.8014999090173027,2.2075907338507195,0.41356608610714307,0.0024940659122333645,8.147815031229653,-0.46449277944890677,-0.006887014230172267,0.1039100612357188,645.3406578583509,503.98706196536887,797.651626300734,891.0457270642851
0.35200000000000004,-0.0015772395073031956,-1.7595270678395665,0.10240219915473373,-47.59816388611603,-0.4553311310044608,-0.6748737617595809,-0.002442267868328344,-0.1918743948709245,0.2003109113263984,0.0,-0.03864051832098128,1.244467178991227,1.8323424519855407,2.116241307210449,0.4300732861704352,0.02378133306084312,8.206770159491503,-0.4680998391651492,-0.02344043415653045,0.10501655579042725,647.7965001915815,500.23031329311755,801.3899006248001,891.8958264121956
0.35600000000000004,-0.0016499801716479002,-1.7504038055971969,0.10364388793524301,-47.157037022468664,-0.3745689428286395,-0.7412687867358297,-0.0024702831879660028,-0.19551101335859583,0.2040792816556665,0.0,-0.04200521686159483,1.2863976085427562,1.8635260214250167,2.0092653236016798,0.4433487445473844,0.04603503538714783,8.258455285328097,-0.4666513825173516,-0.04040008253670546,0.10514614783601803,650.8363185166309,498.83065614878996,804.454070783475,891.0972837322383
0.36000000000000004,-0.0017212483959497319,-1.7410862156892561,0.10492288014467051,-46.74568965675326,-0.28828513363185554,-0.804540219100036,-0.0024978944399440066,-0.19916272844711963,0.20786708468684378,0.0,-0.04532330561655026,1.32740799725007,1.8951523045455556,1.8888908103181756,0.4530752561409616,0.06907333240357624,8.303134806362962,-0.4605203769188426,-0.057842283113255816,0.10427544143805491,654.5497000879292,499.7809551272308,806.7984272888789,888.6547056248445
0.36400000000000005,-0.0017905272868119586,-1.7315748727901883,0.10624186581562885,-46.366315850724426,-0.19716336154354328,-0.863865463778973,-0.0025251054790692003,-0.20282922751554247,0.2116739508665982,0.0,-0.04855419066745483,1.3673948917222098,1.927320676971139,1.757324942397225,0.45885832438951457,0.0927063933628052,8.341045191587192,-0.45007807625645135,-0.07555716699937941,0.10231996633274423,659.0687544255003,503.20056819544817,808.2760634446425,884.5277108014476
0.36800000000000005,-0.0018572884429208945,-1.72187035521652,0.10760333267746364,-46.0206184033821,-0.10197692670846598,-0.918445316528463,-0.002551920128298409,-0.20651020116213908,0.2154995143899644,0.0,-0.051654569131381854,1.4062686750556561,1.9601247325227118,1.61671481574813,0.4602920483559603,0.11672726968855256,8.372507007564053,-0.43572578706099035,-0.09334990218661186,0.09927299281054447,664.4201305357241,509.026074807397,808.8264172010503,878.7493549057508
0.37200000000000005,-0.0019209965155122985,-1.7119732105962369,0.1090095808169971,-45.70980029480885,-0.003627619834437136,-0.9674437894616876,-0.0025783421789830115,-0.21020534317692013,0.21934341316853215,0.0,-0.05457807258102175,1.443953823417925,1.9936498620748242,1.4691927681617503,0.4569639298112297,0.14092086367821965,8.397817559269626,-0.417907212106152,-0.11098598753824235,0.09505840257133065,670.7209935955292,517.284236644708,808.2984131106977,871.2789963123296
0.376,-0.0019811169229212687,-1.7018839734432623,0.11046269007800277,-45.43463894580163,0.09692009166160792,-1.0100635399588171,-0.0026043753911117193,-0.2139143505143548,0.22320528879888296,0.0,-0.05727603739624019,1.4803887325562066,2.0279701147900724,1.3167843025308008,0.4485388835731053,0.16506704158992275,8.417346340505713,-0.3970126777525439,-0.12825801871010173,0.08968662139128666,677.9620328199536,527.8232168094604,806.6445981368604,862.1497087614555
0.38,-0.0020371220554060163,-1.6916031471040334,0.11196452608352132,-45.19546756524549,0.19861078047777753,-1.0455148001360015,-0.0026300234935515664,-0.2176369232663072,0.22708478653127287,0.0,-0.059697715023546684,1.515525324923766,2.063147045380352,1.1614012181617934,0.4347545715265387,0.18894413511423008,8.43145768785414,-0.37348284964814255,-0.1449318683043927,0.08313331098720358,686.1796005954775,540.5277011143058,803.7646456029637,851.3565485978086
0.384,-0.00208849933678309,-1.6811312223643302,0.1135167120372579,-44.99214078253318,0.30030324775710365,-1.0730495709620955,-0.0026553038612272296,-0.22137012789599828,0.23098155523855896,0.0,-0.06179115977365283,1.549329317818374,2.099226449006612,1.0050021147493495,0.4153812466630683,0.2122622475420955,8.440580040978137,-0.3478286692184754,-0.1609050670660691,0.07541433311815646,695.3778516092545,555.1708473465945,799.6051743069268,838.9230455716747
0.388,-0.0021347567701981225,-1.6704686191922966,0.11512068628350482,-44.82411187287171,0.4007384711420984,-1.0918646702023775,-0.002680219996862643,-0.2251137024255285,0.23489524738536904,0.0,-0.06350217586297188,1.5817808540323666,2.136244979397759,0.8494890619806597,0.3900468976187778,0.23476629302753532,8.445032793703747,-0.3205037272855678,-0.1755850334705851,0.06643395715378692,705.6320771119132,571.7858404390992,793.9282518303608,824.7838923573561
0.392,-0.002175433300394286,-1.6596157121805972,0.11677767438267857,-44.6905467989927,0.49860108507408374,-1.1012189183640377,-0.002704775374261406,-0.2288673876474167,0.23882551899751153,0.0,-0.0647743896170992,1.6128731233010551,2.1742277993258594,0.696475841679493,0.35845626025735966,0.2561557715749073,8.44519795131896,-0.29185627170893336,-0.18883998936393773,0.05623102210604808,716.8812600920315,590.1238882269233,786.7006752743735,808.9515662924155
0.396,-0.0022101070506713883,-1.6485728418864962,0.11848867962629422,-44.59020447425829,0.5924902551841188,-1.1003748995037306,-0.002728973438528773,-0.23263092710068664,0.2427720296316244,0.0,-0.06554939772701383,1.6426116896790277,2.2131855354077246,0.5474530928431346,0.3203698837619474,0.2761589002874952,8.441483597997534,-0.2623946003747627,-0.2003652624232318,0.04477882868877522,729.1450626562091,610.0506419642876,777.7654662445253,791.3896673069722
0.4,-0.0022384051648918855,-1.637340311932177,0.12025449079811594,-44.52155986605702,0.6809842998247982,-1.0886402120850236,-0.002752817606292007,-0.2364040670471414,0.24673444234506117,0.0,-0.06576813107920762,1.6710147786877556,2.2531100282423995,0.40390225803208796,0.27567044177317945,0.2944550932818956,8.434289198186704,-0.2325119607892659,-0.20989869328453137,0.03209896820240356,742.3697042660314,631.3758153001763,767.0226713209414,772.0864380613993
0.404,-0.002260013161052139,-1.6259183900199377,0.12207568911056252,-44.48284859893874,0.7626560281042566,-1.065386948686114,-0.0027763112659191175,-0.2401865564478247,0.25071242366601226,0.0,-0.06537126145159626,1.6981130134435287,2.2939797294402093,0.2670698540599009,0.22438481429113163,0.31079620972464184,8.424007023416294,-0.20256999750574362,-0.21719038297839385,0.018237587423960637,756.4693547779952,653.8921705918613,754.3887355209605,751.0415641318408
0.40800000000000003,-0.0022746839281440226,-1.614307302792804,0.12395266396200819,-44.47212971462,0.8361289445159108,-1.0300400401773138,-0.002799457777735992,-0.24397814693966735,0.25470564356386,0.0,-0.0643006202014129,1.7239475093217032,2.3357622170465406,0.13791997786942434,0.16670953396673194,0.3249811508285885,8.411004029392128,-0.17287466678361668,-0.222050163948137,0.0032298217863208703,771.3742959023306,677.4267430190862,739.7596492025606,728.2142164588305
0.41200000000000003,-0.002282246132617076,-1.6025072212022284,0.12588564060338095,-44.487388867414424,0.9000793003545517,-0.9821414457625168,-0.0028222604742419275,-0.24777859281231776,0.25871377541976526,0.0,-0.0625004283843674,1.748567733377118,2.3784184341219254,0.017104350118111573,0.10300452491933268,0.33680283409186523,8.395597183868162,-0.14362485043258513,-0.22429110080318287,-0.012812079595937574,786.9156158438526,701.7360733579865,723.1166318636323,703.6305452634117
0.41600000000000004,-0.002282612426065055,-1.5905182904080537,0.12787466250515828,-44.52646817282987,0.9532110550264316,-0.9213371242065146,-0.002844722660323581,-0.2515876509851548,0.2627364959974845,0.0,-0.059918684445049386,1.7720304275837584,2.421900138175127,-0.09485023564687942,0.03371026901937097,0.3460096456824842,8.378144521164751,-0.11510777301133081,-0.22369380747154932,-0.02978631369228197,802.9542997499123,726.6135425093231,704.3944855747854,677.3088553186299
0.42000000000000004,-0.002275786756806639,-1.578340634633756,0.12991960083692214,-44.58709441614371,0.9942800301897953,-0.8473827539194687,-0.002866847613467345,-0.255405080984482,0.2667734854144152,0.0,-0.05650832069634607,1.7943999563521582,2.4661467742156775,-0.19738185971982736,-0.04071210461829368,0.3522713637098899,8.358990679171823,-0.0875890410230027,-0.22007033949077032,-0.047580149669101846,819.3497240412548,751.8635509085418,683.523300395572,649.2644031766547
0.42400000000000004,-0.002261871253688288,-1.565974373859821,0.13202015236524653,-44.66689152204687,1.0220704798277194,-0.7601981580822496,-0.0028886385839701615,-0.25923064492090153,0.27082442711286786,0.0,-0.05222808272198696,1.8157493257679136,2.511085457172592,-0.28994099389887396,-0.11973386671815245,0.3552100953685563,8.338490102578707,-0.06132917332136743,-0.21320546615094899,-0.06601279115530742,835.8941138492389,777.2388820883269,660.4953087471193,619.604477122912
0.42800000000000005,-0.002241072202942501,-1.553419643224679,0.13417583523798968,-44.76337632708885,1.0354982044810672,-0.659794370681768,-0.0029100987951487835,-0.2630641074668666,0.274889007831563,0.0,-0.04704385006324786,1.8361608376012,2.5566308657730104,-0.3720173407937999,-0.2027183778453781,0.3545747032885721,8.317011399714366,-0.03660231807752645,-0.20300866662019407,-0.08498190546847822,852.4939743666868,802.5981346310697,635.1822052753071,588.3062876800424
0.43200000000000005,-0.002213702331904645,-1.5406765218566156,0.1363860829280631,-44.8741276730456,1.0335680122135331,-0.5463898649405399,-0.0029312314435474985,-0.26690523583441095,0.27896691757735187,0.0,-0.04092980774843131,1.8557242250299861,2.6026979985510956,-0.4433703817380195,-0.2888764318270354,0.35007414678477,8.294738260943447,-0.013494224175176844,-0.18938429285190622,-0.1042456405617532,868.8938822590584,827.6800448499195,607.6408774073828,555.523820108268
0.43600000000000005,-0.0021801862567110324,-1.5277451171772989,0.13865017128856708,-44.99669249599019,1.0154558116223384,-0.4203424884390102,-0.0029525741425156884,-0.2707474096674709,0.28305784959715846,0.0,-0.03387021937789412,1.8745356560483806,2.6491981848685144,-0.5039414140886592,-0.3772732997358138,0.34160492897913625,8.272005167000533,0.007802246444631816,-0.17852519870028766,-0.12363312155363049,885.5555548034497,851.6858412991204,578.7254380523092,520.2933377019818
0.44000000000000006,-0.0021410592970739833,-1.5146254799070018,0.14096732812032842,-45.12872880657829,0.9804421682221043,-0.28223419421868123,-0.0029741236031093567,-0.27459047810220233,0.2871615003501419,0.0,-0.025861300665937274,1.8926953884658602,2.6960427278611094,-0.5538324750974667,-0.46689336947886184,0.3288554790046444,8.248929302644225,0.027257300202901333,-0.15832216441394104,-0.14286874609352623,901.0328658650501,875.6075400357578,546.7713034140845,484.7666193368043
0.44400000000000006,-0.0020969704212635424,-1.5013177263879223,0.14333661741361226,-45.26789759520224,0.9279329467197335,-0.1328266760369616,-0.002995876568408416,-0.2784342920529215,0.2912775694800769,0.0,-0.01691234531972087,1.910308495557342,2.7431347418561907,-0.5931830046096896,-0.5567136671609019,0.3116642544334014,8.22586436603039,0.04472087819357545,-0.1345814047849814,-0.1617194937492033,915.7194767710571,898.6498889234916,512.5871552178504,448.2731832170665
0.44800000000000006,-0.002048678820744676,-1.4878219599810636,0.14575704098405967,-45.41196769954609,0.857520483477785,0.026928258524540134,-0.003017829813249651,-0.28227870419613427,0.2954057597879514,0.0,-0.007047005713852536,1.9274837200303274,2.790372914300049,-0.6222011226634769,-0.6456377373529019,0.2897935205372613,8.202963053991205,0.060163949576651304,-0.10740339041898643,-0.17993279274918897,929.4189337758116,920.6185013552449,476.1951091155014,411.1076490252425
0.45200000000000007,-0.0019970512138829683,-1.4741382687459221,0.14822755722018088,-45.558846950003726,0.7690104946960229,0.1958452604072262,-0.0030399801439617413,-0.28612356895469365,0.2995457772047791,0.0,0.003695667833721604,1.9443321088456407,2.837664046099825,-0.6412803904887793,-0.7324176758495631,0.26324191182988405,8.18034204531888,0.07359967023439645,-0.07692486825241143,-0.1971974678222394,941.8855161182272,941.2769475690378,437.7276165659258,373.8007560705136
0.45600000000000007,-0.0019430571385517545,-1.4602667286544764,0.15074709262124086,-45.706598260212516,0.6624341252928656,0.37250120517667573,-0.003062324398102331,-0.28996874248208415,0.30369733076462546,0.0,0.015258641529454438,1.960964284136772,2.8849239453482634,-0.6509998230646928,-0.8156262156478856,0.23198768184109514,8.158096034894529,0.0850680295277485,-0.043334855128437974,-0.2,940.1360265766785,947.7547871774664,426.6380819740763,371.1682182056445
0.4600000000000001,-0.0018877620586716284,-1.4462073728186522,0.15331458969209474,-45.853458977283616,0.5381281295394468,0.5553329036924209,-0.003084859444197129,-0.29381408264683284,0.30786013257784617,0.0,0.027565967310511624,1.9774887996045325,2.932077568105251,-0.6520370962848427,-0.8938192647283799,0.19626690879409386,8.136223578562833,0.0946408653271301,-0.006958948455691685,-0.2,935.573595383017,951.5869005112559,420.4301917502989,376.49043756596603
0.4640000000000001,-0.001832319588332328,-1.431959964431964,0.15592927534867163,-45.99787970656859,0.3968292306722214,0.7427373349178902,-0.0031075821814810253,-0.29765944901704544,0.3120338978045354,0.0,0.04052637053834819,1.994007456629928,2.979095277546402,-0.6452095027654257,-0.9655847982463598,0.15680319232499523,8.114178035864985,0.10244605005156616,0.03173169817285315,-0.2,930.9354526638388,955.4503322529926,413.2728843927424,382.65218092383145
0.4680000000000001,-0.0017779680392429405,-1.417524013902511,0.15859066827992113,-46.13849295780811,0.2397158948127284,0.9328809528488441,-0.0031304895396412086,-0.3015047028450671,0.3162183446281834,0.0,0.05403312305843968,2.0106120368712928,3.025993052545117,-0.6313921789736139,-1.0292770732705516,0.11457905397437358,8.091388804275903,0.10858834463504922,0.07223486271857081,-0.2,926.2484267615193,959.3003082321071,405.22432941947733,389.45793920553433
0.4720000000000001,-0.0017260211536022846,-1.4028989304628794,0.16129843798921714,-46.27403503377674,0.0682963532591944,1.1237330991376915,-0.00315357847856227,-0.3053497070522662,0.320413194229541,0.0,0.06796080542638976,2.027385839313999,3.072790564752578,-0.6113220509554221,-1.0830897863254147,0.07032827689758073,8.067562101914788,0.11309278121681411,0.1140790321188354,-0.2,921.548856047922,963.0925861563985,396.3273427096219,396.75593899104376
0.4760000000000001,-0.0016778547161508714,-1.38808409374519,0.164052341735556,-46.40336419308628,-0.11570863055801818,1.3131410879339243,-0.003176845988073277,-0.3091943262139413,0.32461817076069005,0.0,0.08216386615060331,2.044407317542313,3.1194767403730426,-0.5856065438524374,-1.125554866757623,0.0245900720945073,8.042527361171324,0.11601181661682594,0.15685173996908086,-0.2,916.8676598733647,966.7931809631866,386.6205157996039,404.4143312899614
0.48,-0.0016348908141627205,-1.3730789103767906,0.16685217489833973,-46.52545179662948,-0.3104514483054853,1.4988893521283417,-0.003200289087696808,-0.3130384265443486,0.3288330013193178,0.0,0.09648155077138588,2.061750768839382,3.1660200922423205,-0.5548486520005668,-1.155732511360292,-0.022239920330758473,8.016211994786284,0.1173951116140554,0.2001875783109468,-0.2,912.2337811804218,970.3740119198228,376.1334115800639,412.32373851201663
0.484,-0.0015985827746942043,-1.3578828687892122,0.16969772201555597,-46.6393672695567,-0.5138435943372155,1.6785664812526002,-0.0032239048263999273,-0.31688187588185174,0.33305741592319466,0.0,0.11073802552650998,2.0794857376502223,3.2123770632128426,-0.5196463336785634,-1.1727009068568566,-0.06983761821249138,7.988641610926747,0.11728178267721252,0.24357382025808902,-0.2,907.6933158265865,973.7948798239565,364.930087035358,420.35778719474797
0.488,-0.0015703950167150333,-1.342495541203917,0.17258876003510493,-46.74427192682824,-0.723731631810644,1.8497253872495187,-0.003249355364101127,-0.32071796334059405,0.3372911474848517,0.0,0.12474324092085391,2.097676769984526,3.258499610529431,-0.4805681589972181,-1.175643752633818,-0.11794299904720815,7.9598356062240825,0.11570979237514287,0.2672111819430666,-0.2,905.1310991297984,975.3135267469394,357.7531706548549,424.50260902042737
0.492,-0.0015517851144367573,-1.326916612590388,0.1755250333903916,-46.839420649901406,-0.9377805679050116,2.009759836917716,-0.0032766177669930727,-0.3245466391639721,0.34153393178645947,0.0,0.13829152777420337,2.116382908176881,3.304340506243752,-0.4381768129718635,-1.1638292493030733,-0.16634026927755632,7.929864244883726,0.11272475932908069,0.3082022726465909,-0.2,901.0196385085669,978.2174557622448,345.73489597261954,432.32415564498723
0.496,-0.001544181157210357,-1.3111458554467548,0.1785062824334054,-46.9241460016393,-1.153761469720591,2.156187947348871,-0.0033056693112469716,-0.3283678544592806,0.3457855074549036,0.0,0.1511675569311953,2.1356572118088013,3.3498585719327303,-0.3930137667381249,-1.137039865630294,-0.2148639219621144,7.898741163083442,0.10835963073275957,0.3480285425158201,-0.2,897.115011546261,980.8720967595729,333.1773199044418,440.0105700500201
0.5,-0.001548963412114944,-1.2951831526728388,0.18153222291758989,-46.99787896208229,-1.3694082360006057,2.286507637121953,-0.003336487481310887,-0.33218156118910575,0.350045615937058,0.0,0.16314997358007896,2.155546184555223,3.3950188706957176,-0.3456213646810703,-1.0953736396952016,-0.26338003955973305,7.866521807456476,0.10267641369181943,0.386282876124701,-0.2,893.4541197032987,983.2500517700257,320.1457778341508,447.48030500436846
0.504,-0.0015674459740338121,-1.2790284753472252,0.18460256972548708,-47.0601376146707,-1.5824605148310533,2.398233452465621,-0.0033690499682209763,-0.33598771216279116,0.3543140014752529,0.0,0.17401508604858582,2.176089281639898,3.439793531442047,-0.2965450975303249,-1.0389783355880082,-0.31178935622520215,7.83321429336852,0.09573023659674884,0.42258820594396007,-0.2,890.0712695519074,985.3252925040047,306.7016656975677,454.6624014579012
0.508,-0.0016008581262044247,-1.2626819060790049,0.18771701378987032,-47.110559501966776,-1.7905263567561627,2.4887625073843007,-0.003403334667925557,-0.3397862610279754,0.35859041108293627,0.0,0.18353082513046484,2.1973178103043978,3.4841598134231058,-0.24637542798984752,-0.9675617721259007,-0.3599978652113416,7.798873642724662,0.08761963055869099,0.45638639533194286,-0.2,887.0151957173559,987.0604240507756,292.984085376914,461.44943166931216
