Time_s,X,Y,Z,Roll_deg,Pitch_deg,Yaw_deg,Ref_X,Ref_Y,Ref_Z,Ref_Yaw,vx,vy,vz,p,q,r,T_pert,tau_x,tau_y,tau_z,RPM_0,RPM_1,RPM_2,RPM_3
0.0040000000000000036,3.540239794309915e-22,-6.0,0.010006999594037988,1.030927412343402e-18,1.9273866450044995e-18,-5.1486728461073835e-21,2.3111489085355726e-22,-6.0,7.200000000000012e-05,0.0,-1.8465271353911924e-19,-1200.0,2.0013999188075973,0.0,0.0,0.0,-10.19,-1.2038473377160515e-18,-3.682924215251166e-18,6.014464043099446e-21,0.0,0.0,0.0,0.0
0.008000000000000007,2.463424419293038e-22,-6.0,0.010010999365392528,-6.049892775711399e-19,8.292770768298355e-19,2.077115276712925e-20,2.3111489085355726e-22,-6.0,0.00021513340800000038,0.0,-1.1455661949243686e-19,-666.6666666666666,1.1123332628213918,0.0,0.0,0.0,-0.034338475932384316,1.83909593154603e-18,3.7322593574647986e-18,-3.006667449383035e-20,534.6826504237879,534.682650423788,534.6826504237879,534.682650423788
0.01200000000000001,5.482909190369582e-23,-6.0,0.010014999136880033,-3.313399905588038e-18,4.087127435712605e-19,3.420969589826395e-20,2.3111489085355726e-22,-6.0,0.00042854147030131276,0.0,-1.982635415183764e-21,-1.2215567160491864e-23,0.0009999428519315637,0.0,0.0,0.0,0.11268126898165703,3.2037720740503863e-18,1.498337710816956e-18,-1.6552364440186852e-20,538.6882899136241,538.6882899136242,538.6882899136241,538.6882899136241
0.016000000000000014,1.6020150027488053e-22,-6.0,0.010018998914422523,-4.408236390813038e-18,6.402417073946517e-19,2.759104375861727e-20,2.3111489085355726e-22,-6.0,0.0007113732083620786,0.0,-8.738618378544153e-21,-4.9202858822669926e-23,0.0009999434707265095,0.0,0.0,0.0,0.2602150122559662,1.5070700064945604e-18,-3.598415855301196e-18,6.323393164278858e-21,542.6782125755875,542.6782125755876,542.6782125755875,542.6782125755875
0.020000000000000018,4.315145634663458e-22,-6.0,0.01002299870808158,-6.170928063573286e-18,2.153985327429172e-18,1.8822134061550047e-19,2.3111489085355726e-22,-6.0,0.0010627853561306145,0.0,2.4312436389776713e-20,-8.031387615047366e-23,0.0009999457011780968,0.0,0.0,0.0,0.40825154773623556,2.3648911905956955e-18,-3.833914595918007e-18,-1.887799693770747e-19,546.6524628015106,546.6524628015108,546.6524628015106,546.6524628015106
0.02400000000000002,4.672284205256492e-22,-6.0,0.010026998523110814,-5.947442733821722e-18,1.830339392804228e-18,3.1744283887823393e-19,2.3111489085355726e-22,-6.0,0.0014819422978531074,0.0,2.7849631117248576e-20,-9.292225070539511e-23,0.0009999498962664707,0.0,0.0,0.0,0.5567798035642547,1.7041311822439142e-19,2.7436471633350794e-18,-1.586986631703261e-19,550.6110859271831,550.6110859271832,550.6110859271831,550.6110859271831
0.027999999999999997,5.855391042979905e-22,-6.0,0.010030998361445036,-5.65939347263516e-18,2.2936286320136744e-18,1.725641361209722e-19,2.3111489085355726e-22,-6.0,0.001968016006352204,0.0,1.8374521552162213e-20,-1.0066965063127467e-22,0.0009999552639720563,0.0,0.0,0.0,0.705788820285407,8.3889365176499e-20,-1.66770536209509e-18,1.5616530280416752e-19,554.5541276340658,554.5541276340659,554.5541276340658,554.5541276340659
0.032,5.718909916535738e-22,-6.0,0.010034998222928844,-6.31393723611864e-18,2.0260733289339625e-18,3.6592251725365276e-19,2.3111489085355726e-22,-6.0,0.002520185981773086,0.0,5.5051277073065354e-21,-1.0241073718218265e-22,0.0009999610185457836,0.0,0.0,0.0,0.8552677503415606,1.1688392869121482e-18,1.5821512854380865e-18,-2.330119580572978e-19,558.481633936526,558.4816339365261,558.481633936526,558.481633936526
0.036000000000000004,5.377145737120779e-22,-6.0,0.010038998106341193,-6.5210167614202986e-18,1.5591253147629399e-18,3.3898015123284315e-19,2.3111489085355726e-22,-6.0,0.003137639190793574,0.0,-2.610806718822213e-21,-1.062583911917928e-22,0.0009999667011996102,0.0,0.0,0.0,1.0052058574652112,6.954880147132633e-19,6.42931152030718e-19,1.6368687180974468e-20,562.3936511671441,562.3936511671442,562.3936511671441,562.3936511671442
0.04000000000000001,5.66463186708963e-22,-6.0,0.010042998009951943,-6.701064466864185e-18,1.6570462360704585e-18,7.985983752707154e-20,2.3111489085355726e-22,-6.0,0.0038195700062949476,0.0,7.912911319423367e-21,-1.119934117795957e-22,0.0009999720605469511,0.0,0.0,0.0,1.1555925166236674,6.826352006140277e-19,-9.407747815169607e-19,2.886719193095935e-19,566.2902259769298,566.2902259769298,566.2902259769298,566.2902259769298
0.04400000000000001,5.8178358594869325e-22,-6.0,0.01004699793183762,-6.7756391309835685e-18,1.5077886219296645e-18,2.6538779539110484e-19,2.3111489085355726e-22,-6.0,0.004565180147490079,0.0,7.350770039019515e-21,-1.149632784422911e-22,0.0009999769850700668,0.0,0.0,0.0,1.3064172135245213,5.764612280419787e-19,1.770643878036411e-19,-2.2011283539495274e-19,570.171405324369,570.1714053243691,570.171405324369,570.1714053243691
0.048000000000000015,6.468070452143901e-22,-6.0,0.010050997870011805,-6.8969803476557265e-18,1.7781467121375756e-18,1.4237167069387516e-19,2.3111489085355726e-22,-6.0,0.005373678620505558,0.0,6.6273961810784286e-21,-1.1803269304965367e-22,0.0009999814279610872,0.0,0.0,0.0,1.4576695440239744,6.409019274288334e-19,-1.028623497101857e-18,1.3267854052972393e-19,574.0372364625299,574.0372364625299,574.0372364625299,574.0372364625299
0.05200000000000002,6.493494969835998e-22,-6.0,0.01005499782261447,-6.651088967940217e-18,1.6685900306782494e-18,1.1982813341077218e-19,2.3111489085355726e-22,-6.0,0.006244281659414513,0.0,5.123642266591716e-21,-1.1831280299184506e-22,0.0009999853891001428,0.0,0.0,0.0,1.6093392130527207,2.2518512847139484e-19,6.60212849610926e-19,2.0352169238923918e-20,577.8877669145614,577.8877669145616,577.8877669145614,577.8877669145614
0.055999999999999994,6.7639849796335585e-22,-6.0,0.01005899778802293,-6.924576548308945e-18,1.74562180807207e-18,3.409876928692208e-19,2.3111489085355726e-22,-6.0,0.007176212667716816,0.0,6.4921030995562144e-21,-1.192484335990214e-22,0.00099998890016606,0.0,0.0,0.0,1.7614160338261104,8.195094663856083e-19,-5.133228221659262e-19,-2.6341423988520256e-19,581.7230444573847,581.7230444573848,581.7230444573847,581.7230444573847
0.06,6.739729285698142e-22,-6.0,0.010062997764801606,-7.163867435539911e-18,1.8005288299062545e-18,2.559786098727007e-19,2.3111489085355726e-22,-6.0,0.00816870216026346,0.0,2.1767849695970118e-21,-1.2114708752756018e-22,0.0009999920177488145,0.0,0.0,0.0,1.913889927232313,8.031128758556462e-19,1.1423447806926585e-19,8.513382027621257e-20,585.5431171105351,585.5431171105351,585.5431171105351,585.5431171105351
0.064,6.92490982027707e-22,-6.0,0.01006699775177681,-7.20903336487203e-18,1.9039933877262928e-18,4.89015369862621e-19,2.3111489085355726e-22,-6.0,0.009220987705621774,0.0,3.811600733314097e-21,-1.2428760385011094e-22,0.0009999947955542307,0.0,0.0,0.0,2.0667509206520522,5.977914750247035e-19,-5.105938074915694e-19,-2.8292114104656287e-19,589.3480331113923,589.3480331113924,589.3480331113923,589.3480331113923
0.068,7.021412485277792e-22,-6.0,0.010070997747933193,-7.085988272519961e-18,1.9557726579166816e-18,3.3203898072750647e-19,2.3111489085355726e-22,-6.0,0.010332313868878387,0.0,3.219255479972524e-21,-1.2501762741465585e-22,0.0009999972850519012,0.0,0.0,0.0,2.2199891473973796,4.0948742368609037e-19,-1.2899049246292277e-19,1.6307251086884326e-19,593.1378409066758,593.1378409066759,593.1378409066758,593.1378409066758
0.07200000000000001,5.716649832927176e-22,-6.0,0.010076463366126547,-4.367770331813221e-18,1.6433879620798344e-17,-7.43443335772514e-19,2.3111489085355726e-22,-6.0,0.01150193215487664,0.0,-1.1548999677126285e-20,-1.3368025380473637e-22,0.0011465609059502918,0.0,0.0,0.0,2.3706203585379644,-2.62444714780896e-18,-1.544331759252518e-17,1.2424554522204317e-18,596.839719949892,596.8397199498921,596.839719949892,596.839719949892
0.07600000000000001,-2.677391360127372e-23,-6.0,0.010088223470957274,2.089022036750771e-17,7.969495712012614e-17,-3.139321929293947e-18,2.3111489085355726e-22,-6.0,0.01272910095188534,0.0,-7.448361518094219e-20,1.3071903540332815e-22,0.0019225722198210407,0.0,0.0,0.0,2.5117623945109337,-2.9127698917044803e-17,-6.947175604334067e-17,2.8291017647553614e-18,600.2876784951919,600.287678495192,600.2876784951919,600.287678495192
0.08000000000000002,-8.985429883041384e-22,-6.0,0.010111149378178697,7.127434929229199e-17,1.869365883555934e-16,-7.470309524853028e-18,2.3111489085355726e-22,-6.0,0.014013085475695667,0.0,-1.6638432695261062e-19,2.26895079257694e-21,0.00378813448598022,0.0,0.0,0.0,2.6431655833998295,-6.021008996329317e-17,-1.2708094797612537e-16,5.188216728538223e-18,603.4800192915966,603.4800192915967,603.4800192915966,603.4800192915966
0.08400000000000002,-1.8598832795818915e-21,-6.0,0.010149589772018165,1.5785762428534675e-16,3.484836268558061e-16,-1.0813903429964662e-17,2.3111489085355726e-22,-6.0,0.015353157714143145,0.0,-2.4691215044115257e-19,1.0652711691740434e-20,0.006835289146809968,0.0,0.0,0.0,2.7657258272029637,-1.0597615068493294e-16,-1.998590708858783e-16,4.213150575302694e-18,606.4423812855123,606.4423812855123,606.4423812855123,606.4423812855122
0.08800000000000002,-2.3923756522032406e-21,-6.0,0.010207460737990308,2.798977301356499e-16,5.595524117430754e-16,-1.4700946856903697e-17,2.3111489085355726e-22,-6.0,0.016748596372051543,0.0,-2.716296218732202e-19,3.354928665993395e-20,0.01094524739542798,0.0,0.0,0.0,2.880173049374114,-1.5341121589253953e-16,-2.749279146866036e-16,4.986039230570244e-18,609.1956399175907,609.1956399175907,609.1956399175907,609.1956399175907
0.09200000000000003,-4.0445438109048806e-11,-5.999999999959554,0.010288398595434739,3.938667912480263e-06,3.938689105106734e-06,1.6882890200843676e-06,2.3111489085355726e-22,-6.0,0.018198686816595647,0.0,-4.2486287914082715e-09,4.248671241808368e-09,0.016021901332053435,0.0,0.0,0.0,2.986940872497332,-4.127996785476241e-06,-4.128026552224969e-06,-1.972188544358436e-06,611.7570923983741,611.7547667582645,611.7500367863819,611.7500367779968
0.09600000000000003,-2.572148656569472e-10,-5.999999999742791,0.010395721180353774,2.5919865877475545e-05,2.5920576383704046e-05,4.620048810774908e-06,2.3111489085355726e-22,-6.0,0.019702721023079826,0.0,-2.907146497417028e-08,2.907084771387012e-08,0.021985963485951894,0.0,0.0,0.0,3.0865504997249276,-2.385141524426801e-05,-2.385214786719354e-05,-3.4942034790760377e-06,614.1411612930342,614.1277757149907,614.1240685422482,614.1240683366714
0.10000000000000003,-5.728855740862878e-10,-5.999999999427142,0.01053247928151512,6.387788586446858e-05,6.388109628196053e-05,8.158724044558374e-06,2.3111489085355726e-22,-6.0,0.021259997521129365,0.0,-7.238792304270304e-08,7.238461566150363e-08,0.028764672704100585,0.0,0.0,0.0,3.179428981901521,-4.4781789118563805e-05,-4.47845667261341e-05,-4.323886719607169e-06,616.3556544685806,616.330612288903,616.33031042822,616.3303096516024
0.10400000000000004,-8.422991469282441e-10,-5.99999999915777,0.01070145709440157,0.00011470892360045938,0.00011471740559828821,1.2144458767527396e-05,2.3111489085355726e-22,-6.0,0.022869821341291546,0.0,-1.134644097130265e-07,1.1345521195168476e-07,0.036289217142191355,0.0,0.0,0.0,3.2660110471861863,-6.405850967731052e-05,-6.406464048689505e-05,-4.992001875237672e-06,618.4126601399968,618.3769565770282,618.380053653854,618.3800519453653
0.10800000000000004,-8.741972838908543e-10,-5.999999999125924,0.010905175777297608,0.00017555157569672464,0.00017556886160967344,1.64386929697154e-05,2.3111489085355726e-22,-6.0,0.024531503962043497,0.0,-1.3631417045965746e-07,1.362963313958497e-07,0.0444935455120893,0.0,0.0,0.0,3.3467327909591877,-8.156776208416239e-05,-8.157846756793977e-05,-5.5168929867769675e-06,620.3240201756969,620.2786966074312,620.2851030577253,620.2851000835626
0.11199999999999999,-4.386021362954626e-10,-5.999999999561562,0.011145989100662335,0.00024367036966561185,0.00024370053835623293,2.092331838242201e-05,2.3111489085355726e-22,-6.0,0.026244363257203765,0.0,-1.3437166946257292e-07,1.3434307833823033e-07,0.05332091421975353,0.0,0.0,0.0,3.421844657833354,-9.722336510173601e-05,-9.723967612935382e-05,-5.916782739491177e-06,622.0969666249108,622.0430965501223,622.0526483539626,622.052643835362
0.11599999999999999,7.233839640200472e-10,-6.000000000723543,0.011426036179745462,0.00031654199244237003,0.0003165894641283383,2.5495756921342636e-05,2.3111489085355726e-22,-6.0,0.028007723443744872,0.0,-1.0214519101191357e-07,1.0210509916433362e-07,0.06272145536082481,0.0,0.0,0.0,3.4916984442325525,-0.00011101282079291358,-0.00011103565651058382,-6.2049762307731745e-06,623.7409430201765,623.6795930027891,623.6920869450258,623.6920806355364
0.12,2.8924411893233565e-09,-6.0000000028924925,0.011747347393078037,0.00039174535968883973,0.0003918146590753541,3.0067192331550848e-05,2.3111489085355726e-22,-6.0,0.029820915030003513,0.0,-3.501662163785217e-08,3.496539629170243e-08,0.07265380378205191,0.0,0.0,0.0,3.5564379119871563,-0.00012283154487766876,-0.0001228615498585282,-6.393343397771529e-06,625.2603171634312,625.1925989663058,625.2077715229188,625.2077632526664
0.124,6.361926543320394e-09,-6.000000006361691,0.012111822543785736,0.0004670112351957717,0.0004671067662630693,3.4564474840149984e-05,2.3111489085355726e-22,-6.0,0.03168327476428597,0.0,7.092690914474857e-08,-7.098704556828654e-08,0.08308434915779857,0.0,0.0,0.0,3.616254696712338,-0.00013260961851826135,-0.00013264729038970228,-6.496538017569081e-06,626.6604690872097,626.5875217459474,626.6050507210996,626.6050403607815
0.128,1.1428308431066997e-08,-6.000000011427512,0.012521179829370918,0.0005402960100871466,0.000540421880024548,3.8927705381358936e-05,2.3111489085355726e-22,-6.0,0.033594145583865524,0.0,2.1889474828965632e-07,-2.189595448748296e-07,0.09397694597571193,0.0,0.0,0.0,3.671448248387501,-0.00014035958197284462,-0.0001404051584064182,-6.5270300694915545e-06,627.949190830167,627.8721369537293,627.891670458156,627.8916579496511
0.132,1.8382672873406087e-08,-6.000000018380933,0.012976941463295895,0.0006098048752671992,0.00060996476222174,4.310710321128458e-05,2.3111489085355726e-22,-6.0,0.035552876564369104,0.0,4.113517659019812e-07,-4.114151693634093e-07,0.10528651656643997,0.0,0.0,0.0,3.722353072604912,-0.00014613963864941045,-0.00014619318922303587,-6.494170346526069e-06,629.1349712703565,629.0548936450871,629.0760714461267,629.0760567767808
0.136,2.7468272097429983e-08,-6.000000027537486,0.013480500274222106,0.0006703930607912864,0.0006776730571640018,4.808791885067048e-05,2.3111489085355726e-22,-6.0,0.037558822869550326,0.0,6.452464257859599e-07,-6.552182968203262e-07,0.11697068130955249,0.0,0.0,0.0,3.7691748434305636,-0.0001462623016621629,-0.00015375100568500142,-7.6049820436219714e-06,630.2249210368088,630.1428815379521,630.1628674682627,630.1608195890019
0.14,3.890655243349107e-08,-6.00000003920083,0.014033199164034064,0.0007157010359163738,0.0007469726545462137,5.31633009916838e-05,2.3111489085355726e-22,-6.0,0.03961134570144607,0.0,9.105614659758458e-07,-9.635320103570551e-07,0.129002811977965,0.0,0.0,0.0,3.811962182927901,-0.00013855247075404567,-0.00016521574384497124,-7.923336159598835e-06,631.2178543846256,631.1349187121448,631.1570814829498,631.149801534722
0.14400000000000002,5.298855569489544e-08,-6.000000053557178,0.014636278679783444,0.0007460074467946068,0.0008150130799937634,5.8220327769897956e-05,2.3111489085355726e-22,-6.0,0.04170981225091381,0.0,1.2051217889229863e-06,-1.3409946121314056e-06,0.14136187046067614,0.0,0.0,0.0,3.850871792526926,-0.00012908158936682026,-0.00017454474849286383,-8.114017214993315e-06,632.118818463164,632.0360396979814,632.0601629049121,632.0477676565
0.14800000000000002,7.000110886691727e-08,-6.0000000707378485,0.015290880213477295,0.0007616339881221593,0.0008792801151597896,6.316908792207768e-05,2.3111489085355726e-22,-6.0,0.043853595648546906,0.0,1.5388038440281102e-06,-1.7794015449689722e-06,0.15402529357044897,0.0,0.0,0.0,3.886057226351998,-0.00011854358905609749,-0.00018113771871334112,-8.199267014081922e-06,632.9317983817793,632.8502001927027,632.8758413459726,632.8587973775846
0.15200000000000002,9.021754936068078e-08,-6.0000000908189035,0.01599805264480031,0.0007629974702355366,0.0009375425884685845,6.793553788275576e-05,2.3111489085355726e-22,-6.0,0.046042074915965056,0.0,1.9190957537996174e-06,-2.2720375899966087e-06,0.16696848702002953,0.0,0.0,0.0,3.9176618013435176,-0.00010701420117291294,-0.00018504428125158,-8.193921932778435e-06,633.6604784172912,633.581047384622,633.6077368705702,633.5865142681142
0.15600000000000003,1.1388880564190236e-07,-6.0000001138218115,0.016758753833867157,0.0007506047005004521,0.000987848686016376,7.245955919144545e-05,2.3111489085355726e-22,-6.0,0.048274634917477216,0.0,2.3509341105354045e-06,-2.813876711137831e-06,0.1801682280044437,0.0,0.0,0.0,3.945828837043271,-9.458066369079445e-05,-0.00018632382062844336,-8.111195500954854e-06,634.3084919158778,634.2321726720124,634.2594208155608,634.2344940991692
0.16000000000000003,1.4123531695333936e-07,-6.000000139714674,0.017573848974089295,0.0007250366180503295,0.001028527682682913,7.669341009346951e-05,2.3111489085355726e-22,-6.0,0.0505506663121142,0.0,2.8384483931799165e-06,-3.3998214860631987e-06,0.19360160043034977,0.0,0.0,0.0,3.9707079800537626,-8.132443559045285e-05,-0.00018505752982932606,-7.963060085963984e-06,634.8795718088559,634.8072635369407,634.8345697904539,634.8064108583261
0.16400000000000003,1.724408402527645e-07,-6.000000168413562,0.018444144781562158,0.0006870104903383164,0.0010581648607243658,8.060014837702954e-05,2.3111489085355726e-22,-6.0,0.052869565506028296,0.0,3.384966610086158e-06,-4.024564963405722e-06,0.20724878784411255,0.0,0.0,0.0,3.9923825253503358,-6.740649219690662e-05,-0.00018133018444703192,-7.760150573824175e-06,635.3758910893035,635.3084255590622,635.3352830632801,635.304382142279
0.16800000000000004,2.076460822821441e-07,-6.000000199784962,0.01937037355342608,0.0006373274945992531,0.0010756063058784866,8.415151040671096e-05,2.3111489085355726e-22,-6.0,0.055230734605257216,0.0,3.99300564067325e-06,-4.682524939536282e-06,0.22109234649005308,0.0,0.0,0.0,4.010970067594643,-5.294949127410604e-05,-0.00017524092105053305,-7.511065111229704e-06,635.8003717342552,635.7385206204191,635.7644255912031,635.7312773182666
0.17200000000000004,2.469436698440764e-07,-6.000000233648621,0.02035319081041388,0.0005768463470702532,0.001079949860484192,8.73283640731319e-05,2.3111489085355726e-22,-6.0,0.05763358136884959,0.0,4.664242297887543e-06,-5.3679182983081506e-06,0.23511416249352718,0.0,0.0,0.0,4.02659543954843,-3.805755912216389e-05,-0.00016690495627372888,-7.225285358789336e-06,636.156070219197,636.1005463778768,636.1249995830146,636.0900940007996
0.176,2.903743491605666e-07,-6.000000269780047,0.021393199106128656,0.0005065550056981906,0.0010705602206342,9.011880274738051e-05,2.3111489085355726e-22,-6.0,0.06007751916234955,0.0,5.399421618041955e-06,-6.0746530665380695e-06,0.24929736306364614,0.0,0.0,0.0,4.039337680981898,-2.2920470003234768e-05,-0.00015648108405860581,-6.9104400486624615e-06,636.444975952703,636.3963988400918,636.4189224494849,636.3827567018235
0.18,3.37923979153632e-07,-6.0000003079144175,0.022490939457557063,0.0004275181987177711,0.0010470496983102243,9.251684038854362e-05,2.3111489085355726e-22,-6.0,0.0625619669116377,0.0,6.198300781802784e-06,-6.796230181045376e-06,0.26362699236442094,0.0,0.0,0.0,4.049294992378463,-7.694086325418457e-06,-0.0001441286769192277,-6.572929462499302e-06,636.6694870744846,636.6283922948428,636.6485332278323,636.6116025626378
0.184,3.8952171331589033e-07,-6.000000347750758,0.023646891910212818,0.00034085231820715566,0.00100925861395311,9.452051038542447e-05,2.3111489085355726e-22,-6.0,0.06508634905712558,0.0,7.059634922416363e-06,-7.525799037880307e-06,0.2780881064878109,0.0,0.0,0.0,4.056566468749739,7.483460273839519e-06,-0.00013001131055433892,-6.217175728937784e-06,636.831994184331,636.7988375048958,636.8161739626515,636.7789661132598
0.188,4.4503919830827735e-07,-6.000000388956476,0.024861476110627022,0.00024769585501438284,0.0009572296194502928,9.613376850683789e-05,2.3111489085355726e-22,-6.0,0.06765009550830155,0.0,7.981231570376502e-06,-8.256319544794093e-06,0.2926654777686931,0.0,0.0,0.0,4.061252066227742,2.249726605076284e-05,-0.00011428743842943939,-5.849988836896777e-06,636.9348862203145,636.9100514927487,636.9241844724183,636.8871750592155
0.192,5.042900963738439e-07,-6.000000431171194,0.026135062519114648,0.00014927195822841784,0.000891253346817803,9.736319057852008e-05,2.3111489085355726e-22,-6.0,0.0702526415986251,0.0,8.95981106399181e-06,-8.980425912648061e-06,0.30734506524489297,0.0,0.0,0.0,4.063430988721667,3.716205361334108e-05,-9.718481307893695e-05,-5.474564607876022e-06,636.980070709016,636.9638322268268,636.9744144499468,636.9380675203797
0.196,5.67031522189198e-07,-6.000000474012254,0.027467968292088463,4.680806599308585e-05,0.0008117955795727423,9.821972804407142e-05,2.3111489085355726e-22,-6.0,0.07289342804076722,0.0,9.991016807897501e-06,-9.690465353625927e-06,0.32211376511814344,0.0,0.0,0.0,4.063192443359714,5.135761335710979e-05,-7.888421847019879e-05,-5.096257683210717e-06,636.9696561769155,636.9622090932668,636.9689259250414,636.9336893209438
0.2,6.329649805701425e-07,-6.000000517078903,0.02886046340788493,-5.839526478668935e-05,0.0007195693975226933,9.871707825802739e-05,2.3111489085355726e-22,-6.0,0.07557190088219416,0.0,1.1069273091257609e-05,-1.03784224840717e-05,0.33695902732169675,0.0,0.0,0.0,4.06061498188399,6.489347658099329e-05,-5.9657379630504036e-05,-4.718699390342728e-06,636.9055110572231,636.906927770533,636.9095266500431,636.8758266231954
0.20400000000000001,7.017392156356853e-07,-6.000000559957779,0.030312769455356037,-0.00016500273978488835,0.0006155016229484183,9.887250372016134e-05,2.3111489085355726e-22,-6.0,0.07828751146109222,0.0,1.2187695986498753e-05,-1.103592153530097e-05,0.351868696341177,0.0,0.0,0.0,4.055781195891674,7.759976452699014e-05,-3.9776325633810505e-05,-4.346591764119827e-06,636.7895821715213,636.7998177255886,636.7981051029863,636.7663408612267
0.20800000000000002,7.729540869909447e-07,-6.000000602228535,0.0318250617970738,-0.0002716747288954756,0.0005006931663686725,9.870174472023352e-05,2.3111489085355726e-22,-6.0,0.08103971636263091,0.0,1.3338048666963707e-05,-1.1654247542934183e-05,0.3668309594900998,0.0,0.0,0.0,4.0487709061174115,8.933294982111671e-05,-1.9495438800323648e-05,-3.978841605479801e-06,636.6237268831347,636.6426306898849,636.6364838731002,636.6070253813097
0.21200000000000002,8.461659079173322e-07,-6.000000643469937,0.033397473955307025,-0.0003771392280645495,0.0003763148632964254,9.822148878819836e-05,2.3111489085355726e-22,-6.0,0.08382797737556208,0.0,1.451113502826375e-05,-1.2224695801153436e-05,0.38183458081442395,0.0,0.0,0.0,4.03965658181462,0.00010002229524406116,1.0204866437388429e-06,-3.617179015734287e-06,636.4096056053548,636.436965159642,636.4262999957144,636.3994926422018
0.21600000000000003,9.208919128747134e-07,-6.00000068326488,0.03503009954267724,-0.0004801778187715467,0.00024362272789398768,9.745091670698042e-05,2.3111489085355726e-22,-6.0,0.08665176144915256,0.0,1.5697114315468105e-05,-1.2738817092450597e-05,0.3968691486712994,0.0,0.0,0.0,4.02850818353247,0.00010959203205384821,2.158975951128801e-05,-3.2651801453279813e-06,636.148817702569,636.184352389093,636.1691225867457,636.1452840703769
0.22000000000000003,9.96614404363977e-07,-6.000000721204893,0.03672298889111242,-0.0005795800473866234,0.00010403623182267547,9.640877828220034e-05,2.3111489085355726e-22,-6.0,0.08951054065044778,0.0,1.688522511213273e-05,-1.3188288514769978e-05,0.4119242952769075,0.0,0.0,0.0,4.015403860940308,0.00011791770692009586,4.19333353622306e-05,-2.9231089013986662e-06,635.8431580007926,635.8864791990021,635.866712317295,635.8461195362067
0.22400000000000003,1.0727876946539469e-06,-6.000000756895651,0.038476158771369326,-0.0006742135890925112,-4.099178040757275e-05,9.511411216731145e-05,2.3111489085355726e-22,-6.0,0.09240379212186403,0.0,1.8063849298283217e-05,-1.3564965911827838e-05,0.4269902687794193,0.0,0.0,0.0,4.0004034922659715,0.00012494094154192953,6.187655892068704e-05,-2.5920536723380896e-06,635.4939726749585,635.5446295735181,635.5203965190532,635.5032959610215
0.22800000000000004,1.1488432584231568e-06,-6.000000789961355,0.04028958660868629,-0.000762995686987381,-0.0001899107424809231,9.358774939938263e-05,2.3111489085355726e-22,-6.0,0.09533099803910691,0.0,1.922060872415768e-05,-1.38609856278647e-05,0.44205774157647315,0.0,0.0,0.0,3.9835798392745048,0.00013058302545593394,8.118197759523284e-05,-2.274872404256425e-06,635.1029121733708,635.1603688133016,635.1317959526999,635.1183921917637
0.23200000000000004,1.2241956340211952e-06,-6.00000082004912,0.04216320567840975,-0.0008448880946957775,-0.0003410444457637838,9.185030142607476e-05,2.3111489085355726e-22,-6.0,0.09829164556941347,0.0,2.0342241172009263e-05,-1.4068793400337596e-05,0.4571166660386954,0.0,0.0,0.0,3.9650167422843676,0.000134757976892998,9.955923982341425e-05,-1.9721477959391584e-06,634.6718826343198,634.7355010662194,634.702791375506,634.6932346364657
0.23600000000000004,1.2982500084604309e-06,-6.000000846833468,0.044096914174796026,-0.0009189371059030462,-0.0004926835634536292,8.992178105459465e-05,2.3111489085355726e-22,-6.0,0.10128522683011584,0.0,2.1414583008178937e-05,-1.4181194479141889e-05,0.47215704025296396,0.0,0.0,0.0,3.944781117004731,0.0001374236955749728,0.00011679213161281968,-1.6840121765135751e-06,634.2023806746733,634.2714524873097,634.2348670075352,634.2292612573381
0.24000000000000005,1.3704093012172614e-06,-6.000000870020263,0.0460905770938157,-0.0009842850086903246,-0.0006431113410809597,8.78217863317718e-05,2.3111489085355726e-22,-6.0,0.10431123884752391,0.0,2.242294791577337e-05,-1.419157238427703e-05,0.4871699264482704,0.0,0.0,0.0,3.922937249022363,0.00013855892593869513,0.00013269077617562988,-1.4107894911674396e-06,633.6958333262011,633.7695919710587,633.7294423869657,633.7278467002261
0.244,1.440081213439587e-06,-6.000000889350215,0.04814402744068085,-0.0010401783172261636,-0.000790623648910583,8.556939564329781e-05,2.3111489085355726e-22,-6.0,0.10736918351612453,0.0,2.3352466378903933e-05,-1.4094073106976748e-05,0.5021470998285779,0.0,0.0,0.0,3.899548103750723,0.00013815926579098284,0.0001470816616713383,-1.1526654812183194e-06,633.1536303060468,633.231259647171,633.1879045292445,633.1903328040304
0.248,1.506685210991068e-06,-6.000000904601946,0.05025706740438131,-0.001085974957543636,-0.0009335487677391147,8.318307952796979e-05,2.3111489085355726e-22,-6.0,0.1104585675580954,0.0,2.4188248166224935e-05,-1.388370960042957e-05,0.5170806350781144,0.0,0.0,0.0,3.8746753543770645,0.00013623697753607523,0.00015980898781262347,-9.097028660393633e-07,632.577125176565,632.6577683790914,632.6116090194395,632.6180300841243
0.252,1.5696593536617314e-06,-6.000000915594577,0.05242946950025425,-0.0011211502875125962,-0.0010702666218426402,8.068062967782561e-05,2.3111489085355726e-22,-6.0,0.11357890248313052,0.0,2.4915575039163077e-05,-1.3556470113260322e-05,0.5319628985633773,0.0,0.0,0.0,3.848379408781174,0.0001328209694283216,0.0001707363538145127,-6.81857755271662e-07,631.96763635879,632.05040526615,632.001881004369,632.0122191661694
0.256,1.6284669076767834e-06,-6.000000922189705,0.054660981404478004,-0.0011452989872677813,-0.0011992366016784744,7.807828711343212e-05,2.3111489085355726e-22,-6.0,0.11672970454857583,0.0,2.552012385880202e-05,-1.3109412639846577e-05,0.5467869126703372,0.0,0.0,0.0,3.8207118797779347,0.00012795427483000985,0.00017975888332821455,-4.6804119589353045e-07,631.3262706069622,631.4102578071772,631.3598407400124,631.3739803152604
0.26,1.682602608573919e-06,-6.000000924292807,0.05695133285547966,-0.0011581340200417583,-0.0013190296653284677,7.539250766352637e-05,2.3111489085355726e-22,-6.0,0.11991049471987204,0.0,2.598829287076021e-05,-1.254071981027422e-05,0.561546930117119,0.0,0.0,0.0,3.7917112356367335,0.00012169101613452628,0.00018681179329298813,-2.691640525557891e-07,630.6538253665697,630.7381178503223,630.6862963473033,630.7040893743377
0.264,1.731598266553954e-06,-6.000000921854863,0.059300215994150085,-0.0011595027308969421,-0.0014282883887574186,7.263836306479598e-05,2.3111489085355726e-22,-6.0,0.12312079863130279,0.0,2.6307274114167607e-05,-1.1849813247440403e-05,0.5762363552390453,0.0,0.0,0.0,3.7614564859001036,0.00011410750278867683,0.00019179229886390228,-8.427939116714128e-08,629.9520373121161,630.0357117210436,629.9830065119567,630.0042560579478
0.268,1.7750283129956724e-06,-6.000000914872549,0.06170729887302869,-0.0011493808149383986,-0.0015257791641226123,6.983167376125164e-05,2.3111489085355726e-22,-6.0,0.12636014654704564,0.0,2.646519646872601e-05,-1.1037422804795684e-05,0.5908477840970272,0.0,0.0,0.0,3.730000490671954,0.00010529668673747502,0.00019465800520837996,8.512405850515993e-08,629.2220319043574,629.3041753992096,629.2511162137505,629.2755880700082
0.272,1.8125148826285569e-06,-6.000000903388907,0.06417220553610879,-0.00112789841859592,-0.0016103736956074154,6.698598767981307e-05,2.3111489085355726e-22,-6.0,0.12962807332252388,0.0,2.6451199630106324e-05,-1.0105783594959097e-05,0.6053728528169451,0.0,0.0,0.0,3.6974373749230076,9.53842885834295e-05,0.00019535267701527943,2.410549857479341e-07,628.4658883451967,628.5456034801364,628.4927432867519,628.520152889291
0.276,1.8437317635835724e-06,-6.000000887491487,0.06669455142695904,-0.001095289677340162,-0.0016811030002896823,6.411431819397967e-05,2.3111489085355726e-22,-6.0,0.13292411836605678,0.0,2.6255765448290664e-05,-9.058578712301649e-06,0.6198045082648657,0.0,0.0,0.0,3.6637908733591393,8.447578230713409e-05,0.00019389778773889444,3.8358423449753043e-07,627.6840475585096,627.7604681255069,627.7083562729389,627.7383953201196
0.28,1.868408196193913e-06,-6.000000867311576,0.06927393452371922,-0.0010519021354774617,-0.0017371527073670751,6.122831122600298e-05,2.3111489085355726e-22,-6.0,0.1362478256008061,0.0,2.5870958028417517e-05,-7.900847570606837e-06,0.6341386768326283,0.0,0.0,0.0,3.6291030541310754,7.268319127629123e-05,0.00019031721057669677,5.137766470377448e-07,626.8773744313487,626.9496678163066,626.8988524257379,626.9311875136295
0.28400000000000003,1.8863320421491638e-06,-6.000000843022702,0.07190993404829217,-0.0009981971757416325,-0.0017778756975528243,5.834005925970427e-05,2.3111489085355726e-22,-6.0,0.13959874342701678,0.0,2.5290643861296615e-05,-6.638899544893263e-06,0.6483710533656402,0.0,0.0,0.0,3.5934192289533793,6.013521350183765e-05,0.00018466288224287678,6.306333507417188e-07,626.0468078976957,626.1141873759922,626.0652017192207,626.0994772500155
0.28800000000000003,1.8973529764823405e-06,-6.000000814839595,0.07460208557393705,-0.0009347937772142338,-0.0018028030206302776,5.545981276130485e-05,2.3111489085355726e-22,-6.0,0.14297642468454957,0.0,2.451065016158826e-05,-5.280624534346752e-06,0.6624947749820741,0.0,0.0,0.0,3.5568358935665847,4.7015048310581355e-05,0.0001770066305713889,7.358097138757154e-07,625.1944720503541,625.2562172583048,625.2095821622402,625.2454105235679
0.29200000000000004,1.9013831606458864e-06,-6.000000783014404,0.07734991148625166,-0.0008624038716127945,-0.0018116436495817026,5.25977716808681e-05,2.3111489085355726e-22,-6.0,0.14638042661570333,0.0,2.352889562770793e-05,-3.8354447969122765e-06,0.6765024631502142,0.0,0.0,0.0,3.5193891802442603,3.347366014461638e-05,0.00016745754717633894,8.289432712845838e-07,624.3210886292198,624.3765473546829,624.3327549247336,624.3697354755379
0.29600000000000004,1.8983984533206093e-06,-6.0000007478340756,0.08015291152824391,-0.0007818444159126425,-0.001804289918059625,4.976244942686185e-05,2.3111489085355726e-22,-6.0,0.14981031082832508,0.0,2.2345528008160222e-05,-2.314224384150532e-06,0.6903891936491612,0.0,0.0,0.0,3.4811348962083373,1.9671991087976067e-05,0.00015613518025140214,9.115840564938639e-07,623.4278370795498,623.4764311473281,623.4359474434278,623.4736664567286
0.30000000000000004,1.8884375150396007e-06,-6.0000007096160735,0.08301058607715271,-0.0006939793036997617,-0.00178078988073714,4.696188533492461e-05,2.3111489085355726e-22,-6.0,0.15326564325920555,0.0,2.096288383110174e-05,-7.289016081477289e-07,0.7041514797166466,0.0,0.0,0.0,3.442082394927174,5.731656416035571e-06,0.00014316174354877525,9.83934408259792e-07,622.5148175334288,622.5560330893228,622.5192932843045,622.5573354752441
0.30400000000000005,1.8716018364389237e-06,-6.00000066870531,0.08592242328584625,-0.0005997384423749796,-0.001741358731797024,4.4203107048187883e-05,2.3111489085355726e-22,-6.0,0.15674599413775814,0.0,1.938544981911857e-05,9.077015018130924e-07,0.7177877728345863,0.0,0.0,0.0,3.4022671709417898,-8.210634754827596e-06,0.000128672390054694,1.046843595840234e-06,621.5827389330071,621.6161344644893,621.5835410919645,621.6214888930336
0.308,1.848053784403842e-06,-6.000000625469836,0.08888791434659699,-0.0005000758103798536,-0.001686345474159867,4.1492515811286494e-05,2.3111489085355726e-22,-6.0,0.16025093794997908,0.0,1.7619745259123438e-05,2.582110385121201e-06,0.73129679066421,0.0,0.0,0.0,3.361694194432996,-2.204558254105553e-05,0.00011279693965450664,1.100751856890459e-06,620.6315986621466,620.6567963222556,620.6287193806295,620.6661590223486
0.312,1.8180162722372469e-06,-6.000000580297857,0.09190652622753258,-0.00039601882430267537,-0.001616282134835316,3.8836147527299485e-05,2.3111489085355726e-22,-6.0,0.16378005340268723,0.0,1.5674396215613957e-05,4.2801796085535825e-06,0.7446760935379524,0.0,0.0,0.0,3.320423733960221,-3.561618747260451e-05,9.571373003135454e-05,1.1458197483245262e-06,619.6626842522854,619.6793969015008,619.6561594543349,619.6926810620164
0.316,1.7817711720462754e-06,-6.0000005335939965,0.09497768641680152,-0.0002886897235470074,-0.0015319163357684139,3.62393307056434e-05,2.3111489085355726e-22,-6.0,0.16733292338804037,0.0,1.3560520662938603e-05,5.986820012864428e-06,0.7579192326557105,0.0,0.0,0.0,3.278547855262824,-4.872393176669527e-05,7.766590582171783e-05,1.1826219787204373e-06,618.678025791697,618.6860871906392,618.6679482835629,618.7031522799231
0.32,1.7396547981434397e-06,-6.000000485774056,0.09810080757822794,-0.00017924300452410802,-0.0014341509542878225,3.370668359379935e-05,2.3111489085355726e-22,-6.0,0.1709091349483273,0.0,1.1291875687795548e-05,7.68595714483403e-06,0.7710192025901822,0.0,0.0,0.0,3.2361099061740726,-6.121576295799248e-05,5.8875836989790086e-05,1.2117652831123921e-06,617.6785208936229,617.6778680793642,617.6650281714517,617.6985322458468
0.324,1.6920539243975647e-06,-6.000000437260371,0.10127529009708598,-6.8848930346173e-05,-0.001324029738387266,3.1242205399343045e-05,2.3111489085355726e-22,-6.0,0.17450827924103265,0.0,8.884562362644069e-06,9.360924564291858e-06,0.7839715883437564,0.0,0.0,0.0,3.1931486025089875,-7.295778112703782e-05,3.9556906190245874e-05,1.233778678004789e-06,616.6649660869131,616.6556322192596,616.6482350798769,616.6796770997227
0.328,1.6394010686927569e-06,-6.000000388477084,0.10450052878473305,4.13294049367912e-05,-0.0012027086726600909,2.8849220410395574e-05,2.3111489085355726e-22,-6.0,0.17812995150417288,0.0,6.356629149137102e-06,1.0994895943070175e-05,0.7967739697741584,0.0,0.0,0.0,3.1496895059385768,-8.383624119610262e-05,1.9910363364585224e-05,1.249281596624966e-06,615.6378541008567,615.6199600988801,615.6180960880001,615.647136452013
0.332,1.582169208697202e-06,-6.000000339845453,0.10777592301519506,0.00015016467371576194,-0.001071416589070451,2.6530607716480073e-05,2.3111489085355726e-22,-6.0,0.18177375102190127,0.0,3.727628904436549e-06,1.2571253675116e-05,0.809425639228755,0.0,0.0,0.0,3.105737844533525,-9.376713606127649e-05,1.0965331196715548e-07,1.2586526041994893e-06,614.5972046939089,614.5709437118217,614.5746564984825,614.6009788124682
0.336,1.5208687069215175e-06,-6.000000291780151,0.1111008366109648,0.0002565105921717716,-0.0009315509420786951,2.4288731157242998e-05,2.3111489085355726e-22,-6.0,0.18543928109038013,0.0,1.018767494611886e-06,1.40735837199152e-05,0.8219235319407858,0.0,0.0,0.0,3.0613801738646336,-0.00010261186071685662,-1.9576208780650243e-05,1.2623701772144299e-06,613.544953864834,613.5106340966281,613.5198937698764,613.5432163976029
0.34,1.4560401227981136e-06,-6.000000244684421,0.11447463067544925,0.0003592635690056442,-0.0007845752006874547,2.212539604477303e-05,2.3111489085355726e-22,-6.0,0.18912614898391797,0.0,-1.7470635272313066e-06,1.5485717526610114e-05,0.834263479137045,0.0,0.0,0.0,3.0166376089702047,-0.00011028522298712394,-3.893574074869362e-05,1.2609843401216805e-06,612.4815033611911,612.4395176481562,612.4542365746632,612.474311773233
0.34400000000000003,1.388245480600068e-06,-6.00000019894551,0.11789673445555866,0.0004574591414197037,-0.0006318145376160418,2.0041945691928528e-05,2.3111489085355726e-22,-6.0,0.19283396592136995,0.0,-4.546520630203091e-06,1.6792380860581636e-05,0.8464504295145018,0.0,0.0,0.0,2.9713875943937653,-0.00011681592070447476,-5.796713488086483e-05,1.2549551659269428e-06,611.4038668196989,611.3546018263615,611.3746931683802,611.3912804012651
0.34800000000000003,1.3180674769744984e-06,-6.000000154931814,0.12136653739134973,0.0005501473306218871,-0.0004747315631998482,1.8039431674077348e-05,2.3111489085355726e-22,-6.0,0.19656234703279932,0.0,-7.356492659572799e-06,1.7979618004006367e-05,0.8584876157409964,0.0,0.0,0.0,2.92572454820047,-0.00012211188853153936,-7.644085275565039e-05,1.2445627123945443e-06,610.3141854067812,610.2581203642504,610.283433118861,610.2963291025899
0.35200000000000004,1.2461020158735936e-06,-6.000000112989455,0.12488344169231776,0.000636444309771627,-0.00031477970586312024,1.6118555950187136e-05,2.3111489085355726e-22,-6.0,0.20031091132639836,0.0,-1.0153564598778106e-05,1.9034514964119877e-05,0.8703763086558431,0.0,0.0,0.0,2.879637511441313,-0.00012613242898002548,-9.421016509730026e-05,1.2301665552740546e-06,609.2121044049829,609.1497737146873,609.1801159517848,609.1891460927485
0.35600000000000004,1.172950209284071e-06,-6.000000073439179,0.12844693549748923,0.0007156084666566771,-0.00015320380891345437,1.4279749456988197e-05,2.3111489085355726e-22,-6.0,0.20407928165566647,0.0,-1.2914743061050409e-05,1.994536223870216e-05,0.8821221918868938,0.0,0.0,0.0,2.8329666963736435,-0.00012893020746401437,-0.00011134869834958722,1.2120487672731916e-06,608.0937316005735,608.0256359739168,608.0608369540031,608.0658195666092
0.36000000000000004,1.0992172259147589e-06,-6.000000036573821,0.13205648986647733,0.000786941761554953,8.70204319315776e-06,1.2523108071398878e-05,2.3111489085355726e-22,-6.0,0.20786708468684376,0.0,-1.5618639563579517e-05,2.0702119724737465e-05,0.8937355019980618,0.0,0.0,0.0,2.785758691322348,-0.00013045553294517136,-0.00012771574221053075,1.1905773260732523e-06,606.9600717165721,606.886768369031,606.9266178736401,606.927395786076
0.36400000000000005,1.0255092621712835e-06,-6.000000002655056,0.13571147486677002,0.0008497554915098661,0.00016941280977012243,1.0848085400107942e-05,2.3111489085355726e-22,-6.0,0.21167395086659818,0.0,-1.8243523046690525e-05,2.129581465222197e-05,0.9052077206440302,0.0,0.0,0.0,2.738230987889194,-0.00013061038002887967,-0.00014293143972729337,1.1664928316430421e-06,605.8162193662378,605.7384048695928,605.7825856335652,605.7790806795996
0.36800000000000005,9.524280280319968e-07,-5.999999971910003,0.13941111599442393,0.0009033869913850764,0.00032710543634230523,9.253764433161107e-06,2.3111489085355726e-22,-6.0,0.21549951438996437,0.0,-2.0764299555542928e-05,2.171787991900409e-05,0.9165125856374431,0.0,0.0,0.0,2.6906927985522198,-0.00012931153916587445,-0.00015648940470976052,1.1402449614336453e-06,604.6695095313914,604.5880532412089,604.6361028399027,604.6283569051066
0.37200000000000005,8.8056090122356e-07,-5.999999944529817,0.1431546122822472,0.0009472743655067696,0.00047995254237243794,7.739139167527918e-06,2.3111489085355726e-22,-6.0,0.21934341316853212,0.0,-2.3152727158480166e-05,2.1960552885619238e-05,0.927626217707553,0.0,0.0,0.0,2.643218298576004,-0.00012658409707544808,-0.00016814951110777137,1.1119696947683047e-06,603.5216921616834,603.4375300073689,603.4889151081484,603.477046033293
0.37600000000000006,8.104732838505137e-07,-5.9999999206687535,0.14694119626196778,0.0009809697127970826,0.000626260148121823,6.303005737826248e-06,2.3111489085355726e-22,-6.0,0.223205288798883,0.0,-2.5380158697930788e-05,2.201761970770265e-05,0.9385432189544061,0.0,0.0,0.0,2.595760868804289,-0.0001224789565511275,-0.00017784823733970988,1.081933912073885e-06,602.3716270571564,602.285703764598,602.3398707289488,602.3240297226608
0.38000000000000006,7.427029429337166e-07,-5.999999900442293,0.1507700997404387,0.0010041458599855618,0.0007644236903855724,4.943840689564959e-06,2.3111489085355726e-22,-6.0,0.2270847865312729,0.0,-2.741975755018608e-05,2.1884905796161078e-05,0.9492669871123063,0.0,0.0,0.0,2.5483423354880723,-0.00011704995521285064,-0.00018549513525904437,1.0505548987889718e-06,601.2198262757878,601.1331025506144,601.1894698766766,601.169850356752
0.38400000000000006,6.777543384808756e-07,-5.99999988392599,0.15464054028533172,0.0010166043822075956,0.0008929263621491021,3.660077141203805e-06,2.3111489085355726e-22,-6.0,0.23098155523855898,0.0,-2.9246669851483937e-05,2.1560434521693255e-05,0.9597974888138896,0.0,0.0,0.0,2.501012030556587,-0.00011037463168175123,-0.00019099758992201037,1.0179405691111613e-06,600.0674796044982,599.9809261839771,600.0388826484707,600.0157280369067
0.38800000000000007,6.160932857781516e-07,-5.99999987115594,0.15855175905669053,0.0010182593140775752,0.0010104049314062244,2.4499070476396203e-06,2.3111489085355726e-22,-6.0,0.23489524738536904,0.0,-3.0838185460785196e-05,2.1044413877329364e-05,0.9701351575556945,0.0,0.0,0.0,2.4537430147417676,-0.00010253738557461646,-0.0001943434948778964,9.844317173975723e-07,598.9139360585909,598.8285083869564,598.8874368625302,598.861019725864
0.39200000000000007,5.581421849037533e-07,-5.9999998621279556,0.16250298355231815,0.001009159565390278,0.001115622698539362,1.3115088476710136e-06,2.3111489085355726e-22,-6.0,0.23882551899751153,0.0,-3.2174099520382e-05,2.0339306018263928e-05,0.9802809068410505,0.0,0.0,0.0,2.4065832595964154,-9.364111526668364e-05,-0.00019550032026483904,9.501132389460119e-07,597.7603721953162,597.6770111253447,597.7362816855314,597.7069152579697
0.3960000000000001,5.042763337639495e-07,-5.999999856799243,0.166493470120448,0.0009894505590157517,0.0012075106568772919,2.4297669424827626e-07,2.3111489085355726e-22,-6.0,0.2427720296316244,0.0,-3.3237087374760754e-05,1.9449693702746223e-05,0.9902368968975466,0.0,0.0,0.0,2.359494945682759,-8.378097750858986e-05,-0.00019449939552369997,9.151533814966539e-07,596.6058789843001,596.5254941554207,596.5844828837763,596.552500609428
0.4000000000000001,4.548202652375773e-07,-5.9999998550886815,0.17052247989270286,0.0009593907693293251,0.0012851586378344183,-7.576344167718582e-07,2.3111489085355726e-22,-6.0,0.24673444234506117,0.0,-3.401283543348094e-05,1.83821985948887e-05,1.0000063254219413,0.0,0.0,0.0,2.3124882313634223,-7.306257000051134e-05,-0.00019136892092010626,8.796712693692943e-07,595.4507196539338,595.3741873047608,595.4322751689041,595.3980348375223
0.4040000000000001,4.100451829049004e-07,-5.999999856878467,0.1745892904863259,0.000919332794244174,0.001347822329258144,-1.692499231024943e-06,2.3111489085355726e-22,-6.0,0.25071242366601226,0.0,-3.44902343662028e-05,1.7145279751438946e-05,1.009592565795183,0.0,0.0,0.0,2.265549425210237,-6.159279453617678e-05,-0.0001861644808528995,8.440104033016988e-07,594.2945764789973,594.2227307945777,594.279312371306,594.2431887138365
0.4080000000000001,3.7016512283242086e-07,-5.999999862013821,0.17869313203130735,0.0008698015972251252,0.0013949437998826146,-2.5639501826019637e-06,2.3111489085355726e-22,-6.0,0.25470564356386,0.0,-3.4661496126276725e-05,1.5749623472445266e-05,1.0189927543196875,0.0,0.0,0.0,2.218794196289434,-4.9554801602465456e-05,-0.00017895862425108196,8.084397004417122e-07,593.1403319592819,593.0739380321752,593.12842601506,593.0908282597611
0.412,3.3533650024529523e-07,-5.99999987030657,0.18283323284872494,0.000811430041458909,0.0014261495256143474,-3.3742517287391564e-06,2.3111489085355726e-22,-6.0,0.25871377541976515,0.0,-3.452234508465545e-05,1.4208278854318644e-05,1.02820250292015,0.0,0.0,0.0,2.1722470743111346,-3.7112778133000776e-05,-0.00016986928712987777,7.729711032005223e-07,591.9886441368101,591.9283893953547,591.9802273981178,591.9415806832125
0.416,3.0565779074485396e-07,-5.999999881538205,0.18700883475585184,0.0007449289559536505,0.0014412425745453233,-4.125551579665688e-06,2.3111489085355726e-22,-6.0,0.2627364959974844,0.0,-3.407208143955456e-05,1.2536434276338562e-05,1.0372203946002223,0.0,0.0,0.0,2.125901635999438,-2.440019325360411e-05,-0.0001590178791154768,7.375569494798292e-07,590.8394062398313,590.7859076765706,590.8345713908611,590.7953068578128
0.42,2.811700492132107e-07,-5.999999895463215,0.19121920933351022,0.0006710509160301389,0.0014401803023473762,-4.820032303132594e-06,2.3111489085355726e-22,-6.0,0.2667734854144151,0.0,-3.331335173726295e-05,1.0750521222323816e-05,1.046051133074398,0.0,0.0,0.0,2.0797180637865074,-1.151914497529377e-05,-0.00014652024398460119,7.023220311751432e-07,589.6916769062789,589.6454912481973,589.6904876755921,589.6510349061343
0.424,2.6185646403224197e-07,-5.999999911811271,0.19546363229841626,0.0005906201870418281,0.0014230944525107324,-5.459843551166876e-06,2.3111489085355726e-22,-6.0,0.27082442711286775,0.0,-3.225204869894654e-05,8.867973556683951e-06,1.0546991047738161,0.0,0.0,0.0,2.033707653274258,1.401000440842318e-06,-0.0001325144515893141,6.673135540476777e-07,588.5457846781914,588.5073935438032,588.54826740502,588.5090559590143
0.428,2.476438598719529e-07,-5.9999999302907225,0.1997413953512511,0.0005045028142835337,0.0013902688225909128,-6.047303072737579e-06,2.3111489085355726e-22,-6.0,0.2748890078315629,0.0,-3.089718127023071e-05,6.907066808758965e-06,1.0631675054391994,0.0,0.0,0.0,1.9878575721410168,1.424362046587412e-05,-0.00011714587526025786,6.328123368872263e-07,587.4014588631012,587.3712697179704,587.4076066694541,587.3690601549398
0.432,2.3840159527024388e-07,-5.9999999505902,0.20405174378002672,0.0004137018824706286,0.0013422409431954824,-6.584826401696658e-06,2.3111489085355726e-22,-6.0,0.27896691757735176,0.0,-2.9261390233180307e-05,4.8873965938072e-06,1.071453500799196,0.0,0.0,0.0,1.9422811627838987,2.6797089992292163e-05,-0.00010065915175347136,5.990241272908518e-07,586.2616023191614,586.2398909204921,586.2713466464577,586.2338816150689
0.436,2.3394613128050268e-07,-5.999999972383738,0.20839392799669598,0.00031925981458146924,0.0012797070701025001,-7.074581571125316e-06,2.3111489085355726e-22,-6.0,0.28305784959715835,0.0,-2.7361104604831827e-05,2.829921098139642e-06,1.0795534886647207,0.0,0.0,0.0,1.8969887017873388,3.8911711898646e-05,-8.326989072384357e-05,5.657555086102088e-07,585.1265520727547,585.113488001691,585.1397791824676,585.1037951912193
0.44,2.3404483489238048e-07,-5.999999995335053,0.21276722236964332,0.000222215194886251,0.0012034760600696246,-7.5188619460850226e-06,2.3111489085355726e-22,-6.0,0.28716150035014176,0.0,-2.5215981355041563e-05,7.563902925075628e-07,1.0874678526351944,0.0,0.0,0.0,1.8519521301067619,5.049070553404703e-05,-6.51451394877025e-05,5.332385799852917e-07,583.995672157368,583.9913479071923,584.0122397511176,583.9781178671973
0.444,2.3841734592104157e-07,-6.0000000191002965,0.21717088141898105,0.00012366357910175517,0.001114552867198652,-7.919948240180795e-06,2.3111489085355726e-22,-6.0,0.29127756948007677,0.0,-2.284842653949285e-05,-1.3112614905761771e-06,1.0951980462104516,0.0,0.0,0.0,1.8072315754030195,6.138033435274838e-05,-4.6531616531138864e-05,5.015495607242203e-07,582.870554332519,582.8749443372401,582.8902739488349,582.8583700025575
0.448,2.4674066181513704e-07,-6.0000000433325225,0.22160416473800185,2.470392069181753e-05,0.0010140710632297498,-8.280052424258638e-06,2.3111489085355726e-22,-6.0,0.2954057597879513,0.0,-2.0283664236576514e-05,-3.3509218692440717e-06,1.1027431681123434,0.0,0.0,0.0,1.7628372672602892,7.146254876544803e-05,-2.7654972390129168e-05,4.7069878633834217e-07,581.7515400395648,581.7645165113305,581.7741870850084,581.7448270392867
0.452,2.586535914872666e-07,-6.0000000676855905,0.22606633881283858,-7.357641309673584e-05,0.000903274557072488,-8.601348242711424e-06,2.3111489085355726e-22,-6.0,0.299545777204779,0.0,-1.7549480580524683e-05,-5.34052211600775e-06,1.110103604794603,0.0,0.0,0.0,1.7187756277505453,8.063889652292095e-05,-8.725199823874145e-06,4.4072957183561847e-07,580.6388719978428,580.6602145971029,580.6641913993616,580.6376699211587
0.456,2.737616988184643e-07,-6.000000091817989,0.2305566829652224,-0.00017012084622448957,0.0007834865260304282,-8.885856548497107e-06,2.3111489085355726e-22,-6.0,0.30369733076462535,0.0,-1.467547134126752e-05,-7.258602064212625e-06,1.117281690557015,0.0,0.0,0.0,1.6750408450822925,8.88310381178016e-05,1.0066867506527613e-05,4.115498674481351e-07,579.5324802869072,579.5618871080064,579.560191837757,579.5367717393065
0.46,2.916425966221197e-07,-6.0000001153965306,0.2350744988942104,-0.0002639269075404899,0.0006560683047725698,-9.13569595063021e-06,2.3111489085355726e-22,-6.0,0.30786013257784606,0.0,-1.1692316235357835e-05,-9.084740349408296e-06,1.1242812865512015,0.0,0.0,0.0,1.6316073795179176,9.598753749795024e-05,2.8564489282465732e-05,3.833542821807165e-07,578.431785999439,578.4688911761309,578.4615931325047,578.4415072379452
0.464,3.1184921142254776e-07,-6.000000138099302,0.23961906864152402,-0.00035400380162215617,0.0005225117233906952,-9.352956892050512e-06,2.3111489085355726e-22,-6.0,0.3120338978045353,0.0,-8.631838906857151e-06,-1.0799581690429156e-05,1.13110361673456,0.0,0.0,0.0,1.5885343338221953,0.00010201597201363374,4.651932507160709e-05,3.561944901618403e-07,577.3383694002773,577.3827029349111,577.3699462855385,577.3533821572777
0.468,3.339163361905917e-07,-6.000000159619221,0.24418968505385813,-0.00043941824420363926,0.0003843436471814848,-9.539548136066489e-06,2.3111489085355726e-22,-6.0,0.31621834462818327,0.0,-5.527005635236239e-06,-1.2384865497933544e-05,1.1377483184309776,0.0,0.0,0.0,1.545819659140778,0.00010686783184525017,6.374399754772678e-05,3.2994182676162985e-07,576.252255402015,576.3032738286817,576.2852593754211,576.2723639848258
0.47200000000000003,3.573664210400804e-07,-6.000000179667106,0.2487856633125299,-0.0005193142914343012,0.0002430796163795191,-9.69745470875238e-06,2.3111489085355726e-22,-6.0,0.3204131942295409,0.0,-2.4112149621763503e-06,-1.3823735441949891e-05,1.1442179021790353,0.0,0.0,0.0,1.5034376076022107,0.00011052363260238442,8.010562222978863e-05,3.047616177648881e-07,575.1728533623424,575.2299643135702,575.2069344900377,575.1978215205656
0.47600000000000003,3.817136754896265e-07,-6.000000197974338,0.25340630590409635,-0.0005928899977660592,0.0001002958762453278,-9.828526125124119e-06,2.3111489085355726e-22,-6.0,0.32461817076068994,0.0,6.821903257824491e-07,-1.5101023539789299e-05,1.150514285837345,0.0,0.0,0.0,1.461432856594963,0.0001129432220540627,9.540206903367856e-05,2.805750738176835e-07,574.1013755582089,574.1639102817146,574.1361695209196,574.1309045617737
0.48000000000000004,4.064706641683686e-07,-6.000000214295333,0.25805094182116234,-0.0006594322305612198,-4.24828290151301e-05,-9.93455305527467e-06,2.3111489085355726e-22,-6.0,0.3288330013193178,0.0,3.7202923410812566e-06,-1.6203366163382513e-05,1.1566393846556815,0.0,0.0,0.0,1.419770973712645,0.00011412996693731237,0.00010952473369647951,2.5738752833573727e-07,573.0370036368331,573.1042578758545,573.0721451231514,573.0707603053407
0.48400000000000004,4.311524716824313e-07,-6.000000228409956,0.2627188858974331,-0.0007183048165320219,-0.00018370729916618748,-1.0017517795878258e-05,2.3111489085355726e-22,-6.0,0.33305741592319466,0.0,6.670781666954518e-06,-1.71192939100542e-05,1.1625942760823809,0.0,0.0,0.0,1.378499255449126,0.00011407718993843844,0.00012230172792529503,2.354946137091981e-07,571.9810127984263,572.0522242565416,572.0161333002015,572.0186110193487
0.48800000000000004,4.5528178489855034e-07,-6.00000024012558,0.26740942958347974,-0.000768953557763263,-0.00032180173292293705,-1.0079117104750189e-05,2.3111489085355726e-22,-6.0,0.3372911474848517,0.0,9.50180522082923e-06,-1.7839337936554624e-05,1.1683763641225895,0.0,0.0,0.0,1.3376842137548888,0.00011279073456427404,0.00013354178869860782,2.146425648344714e-07,570.9351813871979,571.0095271906633,570.9699111956019,570.9761740792521
0.49200000000000005,4.783951567102881e-07,-6.000000249278226,0.2721218917136933,-0.0008109245485492571,-0.0004552877520406203,-1.0121025856075927e-05,2.3111489085355726e-22,-6.0,0.34153393178645947,0.0,1.2182343021885896e-05,-1.8356099449123993e-05,1.1739845646226048,0.0,0.0,0.0,1.297290116694688,0.00011031151556443364,0.00014317752111101597,1.9487400091892884e-07,569.8986524695109,569.9752971702272,569.9326324193933,569.9425697422217
0.49600000000000005,5.000474319341907e-07,-6.000000255734004,0.27685559828124345,-0.0008438643174057024,-0.000582758462724219,-1.0144849205857999e-05,2.3111489085355726e-22,-6.0,0.3457855074549036,0.0,1.4683225704945293e-05,-1.8664436381969625e-05,1.1794222738840152,0.0,0.0,0.0,1.2573214489956057,0.00010668229366342315,0.00015113292939618642,1.761748811638625e-07,568.8715972271558,568.9496906184046,568.9044791231145,568.9179434072813
0.5,5.19816270163608e-07,-6.000000259389885,0.2816098880578278,-0.0008675189962757859,-0.000702899585597142,-1.0152047601371104e-05,2.3111489085355726e-22,-6.0,0.3500456159370581,0.0,1.6977697759177277e-05,-1.8761546905425853e-05,1.1846924909264884,0.0,0.0,0.0,1.2177711039528973,0.00010195761618268746,0.00015735555681228863,1.584408131639922e-07,567.8538839163832,567.9325717654776,567.8853339504923,567.902144283795
0.504,5.373062866083177e-07,-6.000000260174058,0.28638412139383934,-0.0008817306013852974,-0.0008145130348337192,-1.0144098601993991e-05,2.3111489085355726e-22,-6.0,0.35431400147525294,0.0,1.9041632980472856e-05,-1.864688852354399e-05,1.1897990090650257,0.0,0.0,0.0,1.1786137491365032,9.619796297754683e-05,0.00016182627733047237,1.4175059658677959e-07,566.8449029675342,566.923339069154,566.874604273695,566.8945544340584
0.508,5.521527021532173e-07,-6.000000258046892,0.2911776450063922,-0.0008864570757574873,-0.0009164819882631585,-1.1357034447209264e-05,2.3111489085355726e-22,-6.0,0.3585904110829363,0.0,2.085361195676278e-05,-1.8322247167739528e-05,1.1947435450796413,0.0,0.0,0.0,1.1398948687564223,8.948587851049546e-05,0.00016449417723309439,1.5683189335905624e-06,565.8435422174791,565.9208856344267,565.8758601502336,565.8987018893556
0.512,5.640246837045512e-07,-6.000000253000253,0.29598981847483813,-0.0008817584340993671,-0.0010078069711135832,-1.3451201319095197e-05,2.3111489085355726e-22,-6.0,0.36287459452052856,0.0,2.2394942932700605e-05,-1.7791771049124355e-05,1.1995265617691542,0.0,0.0,0.0,1.1016066494807315,8.191338419696724e-05,0.00016535537957625522,2.6483360412330555e-06,564.8525224400958,564.9279543271123,564.8860817599608,564.9115362151734
0.516,5.726286337620044e-07,-6.0000002450572945,0.3008199974951827,-0.0008677969918933462,-0.0010876202878429572,-1.5954769117359827e-05,2.3111489085355726e-22,-6.0,0.36716630427146696,0.0,2.3649843801227838e-05,-1.706192986299474e-05,1.2041485786464037,0.0,0.0,0.0,1.0637748938986784,7.357435293032457e-05,0.00016442748857031634,3.2135133634649577e-06,563.8728230039036,563.9455542336466,563.9057242875181,563.9334876786395
0.52,5.777103992140423e-07,-6.000000234271302,0.3056675500303635,-0.0008448250135866023,-0.0011551905698816683,-1.874939559836414e-05,2.3111489085355726e-22,-6.0,0.3714652955184403,0.0,2.4605810157456752e-05,-1.614132549899693e-05,1.208610911464447,0.0,0.0,0.0,1.0263927913003892,6.456605379515493e-05,0.00016175111079524057,3.657434333164211e-06,562.9036659622095,562.972945738439,562.9353077118091,562.965057187366
0.524,5.79056946341513e-07,-6.000000220724157,0.3105318708744143,-0.0008131614469188484,-0.001209924882833045,-2.1736480945046118e-05,2.3111489085355726e-22,-6.0,0.37577132611981134,0.0,2.525370945946915e-05,-1.5040368794392011e-05,1.2129173549508412,0.0,0.0,0.0,0.9894236214613354,5.496971077127411e-05,0.00015738189073704893,3.998322032824227e-06,561.9440997430804,562.0092156431863,561.9739616457283,562.0053647851785
0.528,5.764984554984162e-07,-6.000000204525817,0.3154123539516362,-0.000773222402068311,-0.0012513742438082366,-2.4830225639438053e-05,2.3111489085355726e-22,-6.0,0.3800841565862256,0.0,2.5587805371564436e-05,-1.3771127555074165e-05,1.217071434903219,0.0,0.0,0.0,0.9528860673849355,4.489594425513023e-05,0.00015138403152767523,4.247093846280887e-06,560.9946158962489,561.0549056834662,561.0222445802465,561.0549528875775
0.532,5.699096849992855e-07,-6.000000185812992,0.3203083829488559,-0.0007255303422463591,-0.001279243059709024,-2.7959739594439414e-05,2.3111489085355726e-22,-6.0,0.38440355005740573,0.0,2.560585012393226e-05,-1.2347543827372095e-05,1.2210731374758337,0.0,0.0,0.0,0.9168178907065407,3.448227357649009e-05,0.00014384836866348128,4.41765058833285e-06,560.0561937909041,560.1110622647284,560.081221329103,560.114870040188
0.536,5.592100657974753e-07,-6.000000164746641,0.3252193517663093,-0.0006706792395793881,-0.001293385688430597,-3.106420010193793e-05,2.3111489085355726e-22,-6.0,0.3887292722791297,0.0,2.5309071058666995e-05,-1.0785360343602404e-05,1.2249220681115454,0.0,0.0,0.0,0.8812157126181939,2.3847621180328187e-05,0.00013488493620808267,4.5188440716589765e-06,559.1287510098614,559.1776708438757,559.1508733629558,559.1850930820063
0.54,5.443646350694405e-07,-6.000000141510636,0.33014463774857233,-0.0006093713853064375,-0.0012938311430447393,-3.4094753261196456e-05,2.3111489085355726e-22,-6.0,0.3930610915803909,0.0,2.4702376046664824e-05,-9.102151655691889e-06,1.228617586576333,0.0,0.0,0.0,0.8461301951999041,1.3147216680206568e-05,0.00012463217814115323,4.562156430718186e-06,558.2136052349325,558.2561373612804,558.2326024867167,558.2670166717209
0.544,5.253819036736945e-07,-6.000000116307905,0.33508364888511555,-0.0005423279877939204,-0.0012807243353530956,-3.701153109035387e-05,2.3111489085355726e-22,-6.0,0.39739877885074004,0.0,2.3794089380782306e-05,-7.316781582187588e-06,1.2321608794729688,0.0,0.0,0.0,0.8115167719289649,2.469819543496583e-06,0.0001132060875880868,4.556073381619088e-06,557.3096021673774,557.3453691444984,557.3253088294276,557.3595475527375
0.548,5.023130657847121e-07,-6.000000089358102,0.3400358190322061,-0.00047028726792184194,-0.0012543207469383863,-3.978234022284821e-05,2.3111489085355726e-22,-6.0,0.40174210751780626,0.0,2.259540901862019e-05,-5.448695706573626e-06,1.2355576406314024,0.0,0.0,0.0,0.7773396340555854,-8.111141210872569e-06,0.00010070986014048698,4.507915037971534e-06,556.4158157088272,556.4444933948384,556.428112489054,556.4618132950047
0.552,4.752522369107838e-07,-6.0000000608961015,0.34500057265961775,-0.00039406014690445296,-0.001215045160137001,-4.238209811450036e-05,2.3111489085355726e-22,-6.0,0.4060908535249972,0.0,2.1120269955726316e-05,-3.5176575485286963e-06,1.2388109856118945,0.0,0.0,0.0,0.7436337323769808,-1.8463471965183728e-05,8.731096278954002e-05,4.424655810986159e-06,555.5331571684324,555.5545131515483,555.5419883238818,555.574797912475
0.556,4.4433510368446513e-07,-6.000000031169477,0.34997731733771836,-0.00031453532389553703,-0.0011635029474380484,-4.4791395956524416e-05,2.3111489085355726e-22,-6.0,0.4104447953093749,0.0,1.9386016042996742e-05,-1.5444002829415254e-06,1.2419193527482664,0.0,0.0,0.0,0.7104496012000487,-2.8430832656043734e-05,7.321949792659854e-05,4.311881609181362e-06,554.6629457559966,554.6768607589737,554.6683224527221,554.6999025056239
