Time_s,X,Y,Z,Roll_deg,Pitch_deg,Yaw_deg,Ref_X,Ref_Y,Ref_Z,Ref_Yaw,vx,vy,vz,p,q,r,T_pert,tau_x,tau_y,tau_z,RPM_0,RPM_1,RPM_2,RPM_3
0.0040000000000000036,-6.51783449945208e-23,4.0,0.010006999594037988,-3.861262043247411e-18,-1.3963409037126566e-18,6.720055526330817e-20,1.494038018717053e-22,4.0,0.010074639714689831,7.2122854763592815e-22,5.628567488317738e-19,800.0,2.0013999188075973,0.0,0.0,0.0,0.13727673356390743,4.508920778836622e-18,4.131065662548703e-18,-3.0228665552082376e-20,539.3555031529193,539.3555031529194,539.3555031529193,539.3555031529194
0.008000000000000007,3.266149571333397e-23,4.0,0.01001099936604295,-5.077545963358211e-18,-1.5806513993925031e-18,1.779515296619247e-19,1.4939310914910226e-22,4.0,0.01021705724096241,7.21176929827702e-22,3.2358006469408643e-19,444.44444444444446,1.112333262893661,0.0,0.0,0.0,0.2830776344539661,1.6843363946442363e-18,-3.1500568163016242e-18,-1.3044070718372025e-19,543.2938902409245,543.2938902409246,543.2938902409245,543.2938902409246
0.01200000000000001,1.407076584761572e-22,4.0,0.010014999147004025,-5.318706777052454e-18,-1.639684111117076e-18,2.761434306337637e-19,1.4937716658724108e-22,4.0,0.010429397942859043,7.210999690637008e-22,-5.8682554324860094e-21,-8.569108595430525e-23,0.000999943864330756,0.0,0.0,0.0,0.42940121619331495,6.288259324557946e-19,-2.1902170555431155e-20,-1.2031933251943465e-19,547.2178991675321,547.2178991675322,547.2178991675321,547.2178991675321
0.016000000000000014,2.4194027669311185e-22,4.0,0.010018998946059194,-7.214153361747144e-18,-1.9516726356044498e-18,5.369214132582643e-19,1.493560377581251e-22,4.0,0.010710815098006973,7.209979722299813e-22,1.9039975180981307e-20,-1.0276406458574586e-22,0.0009999466343935809,0.0,0.0,0.0,0.5762362185818668,2.577080168638707e-18,4.663176444563826e-19,-3.1427951778043025e-19,551.1275382973164,551.1275382973165,551.1275382973164,551.1275382973165
0.01999999999999999,3.495851083148607e-22,4.0,0.010022998767494386,-8.681378500047344e-18,-1.968757115191893e-18,6.996022485749324e-19,1.4932978565759922e-22,4.0,0.011060469657949597,7.208712434312662e-22,1.3868739130074722e-20,-1.2311805920902897e-22,0.0009999512801435115,0.0,0.0,0.0,0.7235715096159999,2.2066472465608626e-18,-6.1996519036027336e-21,-2.103968160749359e-19,555.0228180200033,555.0228180200035,555.0228180200033,555.0228180200033
0.023999999999999994,4.455039891460341e-22,4.0,0.010026998612583504,-1.0019350875817946e-17,-1.621762030813597e-18,6.134770554625781e-19,1.4929847270999597e-22,4.0,0.011477530186265227,7.207200840133721e-22,3.446587729078233e-20,-1.5078339861420482e-22,0.000999956867503253,0.0,0.0,0.0,0.8713960693997944,2.1560469438362186e-18,-2.2521074826009535e-19,7.356583687487356e-20,558.9037502613861,558.9037502613862,558.9037502613861,558.9037502613862
0.027999999999999997,4.831465885785206e-22,4.0,0.010030998480809199,-1.1237612836856242e-17,-1.419569002627951e-18,5.942162368013475e-19,1.492621607727464e-22,4.0,0.011961172797154362,7.2054479258546825e-22,1.4914969863759512e-20,-1.7386286913924055e-22,0.0009999626967511013,0.0,0.0,0.0,1.0196989903518603,2.1077509392661306e-18,4.713495788136598e-19,-1.0077189688607885e-21,562.7703484385811,562.7703484385812,562.7703484385811,562.7703484385811
0.032,6.167581604344651e-22,4.0,0.01003499837077965,-1.167715806377102e-17,-1.4324359706502584e-18,4.697319505134015e-19,1.4922091114095602e-22,4.0,0.012510581094492131,7.203456650421662e-22,1.6199471998185643e-20,-1.9002253506211813e-22,0.0009999683703985907,0.0,0.0,0.0,1.1684694767998467,1.281725823991759e-18,-1.0408462658497205e-18,1.226988336041382e-19,566.6226274018866,566.6226274018867,566.6226274018866,566.6226274018866
0.036000000000000004,6.148662691323072e-22,4.0,0.010038998280654013,-1.2025723596398464e-17,-1.3714257928837578e-18,4.52846571958465e-19,1.4917478455194605e-22,4.0,0.013124946111342446,7.201229945854423e-22,1.5426836973915894e-20,-2.0218447006809633e-22,0.0009999736764460324,0.0,0.0,0.0,1.3176968449725215,1.2055430328333348e-18,1.4902052726832049e-18,2.115975917177839e-21,570.4606033897386,570.4606033897387,570.4606033897386,570.4606033897386
0.04000000000000001,6.063221325481601e-22,4.0,0.010042998208474967,-1.2789982932301263e-17,-1.4137267931062103e-18,6.107765270625444e-19,1.4912384118976031e-22,4.0,0.013803466249930549,7.198770717463939e-22,6.4373770766496425e-21,-2.126540884701112e-22,0.0009999785304385875,0.0,0.0,0.0,1.467370522206577,1.7147978918582998e-18,2.174810582068211e-19,-2.014046895204188e-19,574.2842939660034,574.2842939660034,574.2842939660034,574.2842939660034
0.04400000000000001,6.66529750921992e-22,4.0,0.010046998152309168,-1.2592975717251103e-17,-1.1009468779103959e-18,7.782082425918012e-19,1.49068140689638e-22,4.0,0.014545347222070596,7.196081844068313e-22,3.7573101233131105e-21,-2.1961201304701685e-22,0.000999982894303933,0.0,0.0,0.0,1.6174800463653043,6.445576650584608e-19,-1.0673722897176286e-18,-2.18991475999161e-19,578.093717965618,578.0937179656181,578.093717965618,578.093717965618
0.048000000000000015,7.179100453514261e-22,4.0,0.010050998110303973,-1.2819508668527241e-17,-9.38497138503283e-19,7.827018249935136e-19,1.490077421424523e-22,4.0,0.01534980199004497,7.193166178207048e-22,9.701827408022549e-21,-2.2292224044758306e-22,0.0009999867876610974,0.0,0.0,0.0,1.7680150650509676,1.1256674177569385e-18,-6.680172191798735e-20,-3.553140671133085e-20,581.8888954376567,581.8888954376569,581.8888954376567,581.8888954376569
0.05200000000000002,6.952135605846706e-22,4.0,0.010054998080926435,-1.3054231951604605e-17,-1.1292403993721587e-18,7.223544215755138e-19,1.489427040991157e-22,4.0,0.016216050707932007,7.1900265463537025e-22,7.581668236784903e-21,-2.2311731621342126e-22,0.0009999902403502736,0.0,0.0,0.0,1.918965334287499,1.1507223941119237e-18,1.1016480682483575e-18,4.002641206833469e-20,585.6698475778368,585.6698475778369,585.6698475778368,585.6698475778368
0.05600000000000002,7.035468692343279e-22,4.0,0.010058998062819626,-1.3108692645264716e-17,-1.19473837176843e-18,5.686607510622706e-19,1.488730845749516e-22,4.0,0.017143320663378918,7.186665749126929e-22,-6.747315375413329e-22,-2.2634024905596317e-22,0.0009999933169548697,0.0,0.0,0.0,2.0703207183513945,9.562748634835549e-19,-1.9476979039064343e-19,1.5154545249831152e-19,589.4365966925269,589.436596692527,589.4365966925269,589.436596692527
0.060000000000000026,6.993960258575198e-22,4.0,0.01006299805474054,-1.3144583640485217e-17,-1.247359621875738e-18,4.529741222497365e-19,1.4879894105403274e-22,4.0,0.01813084621981658,7.183086561499908e-22,-1.1727059932326869e-21,-2.285371980175921e-22,0.000999996062879191,0.0,0.0,0.0,2.222071188679896,9.38314576444741e-19,2.759051514461219e-19,1.1345612202619652e-19,593.1891661417837,593.1891661417839,593.1891661417837,593.1891661417837
0.06400000000000003,4.54750679119318e-22,4.0,0.010067342175051444,3.630565106376682e-17,1.847804659164144e-17,6.83838617699175e-19,1.4872033049348697e-22,4.0,0.01917786875911308,7.179291733008196e-22,-2.4174393886903306e-20,-9.339835762687779e-23,0.0010344104515067412,0.0,0.0,0.0,2.373508426675333,-5.6845783263081e-17,-2.0148591178126703e-17,-2.8662221132230736e-19,596.9104721597558,596.910472159756,596.9104721597558,596.9104721597558
0.06800000000000003,-3.3088970532281407e-22,4.0,0.010075797683586801,3.1508600793328864e-16,9.242678923205072e-17,-1.8099358798160272e-19,1.4863730932776999e-22,4.0,0.02028363662466269,7.175283987955997e-22,-1.0478511165203536e-19,3.1030020561855744e-21,0.0014799625999629973,0.0,0.0,0.0,2.517664322213964,-3.280235207340764e-16,-8.111235473637783e-17,9.838424409625188e-19,600.431425397013,600.431425397013,600.4314253970128,600.4314253970131
0.07199999999999998,-1.1641825213378535e-21,4.0,0.010093543527851096,8.758853882313352e-16,1.9113662306208793e-16,-4.753809767559892e-18,1.4854993347290582e-22,4.0,0.021447405064907204,7.171066025620859e-22,-1.9112495114562895e-19,2.409895636282215e-20,0.0028545473739404956,0.0,0.0,0.0,2.651544008383035,-6.764099328943704e-16,-1.203761603096231e-16,5.350864508856676e-18,603.6829942650811,603.6829942650811,603.6829942650809,603.6829942650812
0.07599999999999998,-1.510124980566499e-21,4.0,0.010125278993193368,1.724469186937215e-15,2.9059933843712785e-16,-1.3044111681460866e-17,1.48458258330695e-22,4.0,0.022668436177286463,7.166640520456819e-22,-1.8254846100947524e-19,1.0187353197083885e-19,0.005455832169037889,0.0,0.0,0.0,2.7759462239893025,-1.0508139133573669e-15,-1.3419188029791337e-16,9.881247858003007e-18,606.6887616158915,606.6887616158913,606.6887616158913,606.6887616158915
0.07999999999999999,-1.8995221155339167e-21,4.0,0.010175268613324169,2.8363215312720682e-15,4.731831128955295e-16,-2.917532219092655e-17,1.483623387928908e-22,4.0,0.023945998852614787,7.162010122296011e-22,-1.6189044338162572e-19,3.0582786597362887e-19,0.009206373497668702,0.0,0.0,0.0,2.8915939357972915,-1.4162692961431752e-15,-2.322715244129188e-16,1.9381093041191128e-17,609.4697098407185,609.469709840718,609.4697098407181,609.4697098407185
0.08399999999999999,-1.941668307320451e-21,4.0,0.01024738713839689,4.165541192909275e-15,7.5068160875515265e-16,-4.735161605026917e-17,1.482622292453437e-22,4.0,0.025279368719880478,7.157177456548731e-22,-1.804340905348884e-19,7.267608981425241e-19,0.01400007363258401,0.0,0.0,0.0,2.999132790874769,-1.7461272552350075e-15,-3.6010492819077106e-16,2.2432470752511607e-17,612.0443288659019,612.0443288659014,612.0443288659015,612.0443288659019
0.088,-8.826567493775238e-22,4.0,0.010345159927453272,5.7448936642105225e-15,1.1316001038839822e-15,-6.86829426012567e-17,1.4815798357211431e-22,4.0,0.026667828091465066,7.152145124401982e-22,-1.9242670800913804e-19,1.4756875202006402e-18,0.01974186899081371,0.0,0.0,0.0,3.0991389700859013,-2.129110634021482e-15,-5.089203499833918e-16,2.686442248430522e-17,614.428924704862,614.4289247048613,614.4289247048614,614.4289247048619
0.092,2.7140360612831575e-21,4.0,0.01047179901873627,7.48779158313572e-15,1.590865533644589e-15,-9.001259781508768e-17,1.480496551595551e-22,4.0,0.028110665908779347,7.146915703016515e-22,-5.63679543839098e-20,2.67042122407019e-18,0.026346532188648887,0.0,0.0,0.0,3.1921266728052324,-2.428087819908122e-15,-6.441195744444628e-16,2.7738400506704776e-17,616.6378952281555,616.6378952281547,616.6378952281549,616.6378952281553
0.096,1.071679104614985e-20,4.0,0.01063022249795421,9.366762345371765e-15,2.092228723059273e-15,-1.1307166597591548e-16,1.4793729690036084e-22,4.0,0.02960717768831314,7.141491745722366e-22,2.936433060862608e-19,4.4229697942913274e-18,0.03373634355399463,0.0,0.0,0.0,3.278580864519781,-2.7061679813845983e-15,-7.485953989499725e-16,3.063449004932477e-17,618.6845836790334,618.6845836790326,618.6845836790327,618.6845836790334
0.1,2.4942654237769215e-20,4.0,0.010823062866276746,1.1405756574947564e-14,2.6257104554592927e-15,-1.4059120636182203e-16,1.4782096119758852e-22,4.0,0.03115666546809575,7.1358757822129e-22,9.166074571064093e-19,6.840706439061184e-18,0.041838108377504485,0.0,0.0,0.0,3.3589789849389846,-3.0215210462611705e-15,-8.452913603671854e-16,3.679190392268053e-17,620.5818453760861,620.5818453760852,620.5818453760854,620.581845376086
0.10400000000000001,4.723078729895025e-20,4.0,0.01105277684776544,1.3535215700294254e-14,3.192392377620428e-15,-1.690245017948809e-16,1.4770069996864635e-22,4.0,0.032758437754564114,7.130070318737389e-22,1.811535924187842e-18,1.0032083013253057e-17,0.05059073525268341,0.0,0.0,0.0,3.4335848085297327,-3.2665910979633583e-15,-9.472728594143976e-16,3.8989352605171046e-17,622.337244587805,622.337244587804,622.3372445878043,622.3372445878049
0.10800000000000001,7.993247956408167e-20,4.0,0.011321638534664509,1.5739897058826564e-14,3.75793352890729e-15,-1.963407215658529e-16,1.4757656464925262e-22,4.0,0.03441180946983569,7.124077838292109e-22,2.983743798625534e-18,1.4086129876371745e-17,0.0599456327185107,0.0,0.0,0.0,3.502681711606402,-3.5000480029247086e-15,-1.0189967665917994e-15,3.885199157902214e-17,623.9586195316664,623.9586195316651,623.9586195316655,623.9586195316663
0.11200000000000002,1.2517118836790114e-19,4.0,0.011631742278599663,1.7996090288566035e-14,4.316779210222414e-15,-2.2152801348027787e-16,1.4744860619736423e-22,4.0,0.0361161018993831,7.117900800809994e-22,4.47622068505826e-18,1.9072707124629484e-17,0.06985770940171644,0.0,0.0,0.0,3.566553111258852,-3.710961424815814e-15,-1.0835549942769383e-15,3.7486756436782724e-17,625.4536384869151,625.4536384869139,625.4536384869142,625.453638486915
0.11600000000000002,1.8475081762063464e-19,4.0,0.01198497562354161,2.0222049512163397e-14,4.894420088761242e-15,-2.4478732271298393e-16,1.473168750970754e-22,4.0,0.03787064264010756,7.111541643348835e-22,6.2511268852321025e-18,2.5027309221048513e-17,0.08027988121594859,0.0,0.0,0.0,3.625543173800972,-3.829940041401079e-15,-1.1755843736807462e-15,3.6268836378461643e-17,626.831234098336,626.8312340983349,626.8312340983351,626.8312340983359
0.12000000000000002,2.611722690093023e-19,4.0,0.01238307244468092,2.2357063129002324e-14,5.454285849096775e-15,-2.6544384643334797e-16,1.4718142136248654e-22,4.0,0.039674765548808284,7.105002780278049e-22,8.30513055159112e-18,3.1923624808215745e-17,0.09116590211212997,0.0,0.0,0.0,3.679894898414883,-3.875956282051252e-15,-1.235956928298979e-15,3.418347070772831e-17,628.0978361223039,628.0978361223025,628.097836122303,628.0978361223036
0.12400000000000003,3.5674132619631234e-19,4.0,0.012827626108209813,2.4346796901494037e-14,5.978600159192612e-15,-2.834714548002006e-16,1.470422945415437e-22,4.0,0.041527810691044845,7.098286603464023e-22,1.0697937116708103e-17,3.9671893044811214e-17,0.10247701535854929,0.0,0.0,0.0,3.729829561184908,-3.8523055969112495e-15,-1.2743257785549126e-15,3.1960702475526523e-17,629.2592566923721,629.2592566923707,629.2592566923711,629.2592566923718
0.12800000000000003,4.737083368343983e-19,4.0,0.013320114770659516,2.620561672682392e-14,6.445205569816029e-15,-3.031493824875926e-16,1.4689954371984869e-22,4.0,0.043429124290389684,7.091395482454041e-22,1.3485745973153436e-17,4.8177268110799394e-17,0.1141801394947212,0.0,0.0,0.0,3.7755216579053967,-3.835495854938845e-15,-1.2858491383836533e-15,3.462880526731282e-17,630.3201252375864,630.3201252375851,630.3201252375854,630.3201252375861
0.13200000000000003,6.142681649911709e-19,4.0,0.013861903227248631,2.7966304440357047e-14,6.82083152269662e-15,-3.2928060606760184e-16,1.4675321752444008e-22,4.0,0.045378058678067934,7.08433176465881e-22,1.670168381085897e-17,5.738406431423342e-17,0.12624554705110147,0.0,0.0,0.0,3.8171456913972337,-3.848014317883598e-15,-1.2560115424018452e-15,4.2975311585752116e-17,631.2849906739543,631.284990673953,631.2849906739534,631.2849906739541
0.13600000000000004,7.799515933716426e-19,4.0,0.014454222009038946,2.96930869461338e-14,7.108077670166516e-15,-3.543453423307062e-16,1.466033641275455e-22,4.0,0.047373972242981635,7.077097775533594e-22,2.036600062601887e-17,6.731941349443284e-17,0.1386432990068241,0.0,0.0,0.0,3.8549222861561003,-3.928822110809251e-15,-1.2173096488420063e-15,4.28025150840793e-17,632.1593958214331,632.1593958214319,632.1593958214322,632.159395821433
0.13999999999999999,9.721905556599402e-19,4.0,0.01509821140191521,3.13645248478003e-14,7.286624221554856e-15,-3.7713554478783e-16,1.4645003125030508e-22,4.0,0.049416229382115595,7.069695818757961e-22,2.4477533548619874e-17,7.803078247426651e-17,0.15134442179536717,0.0,0.0,0.0,3.888987094539815,-3.982275907519652e-15,-1.149210058351403e-15,4.1174735829170215e-17,632.9468494328067,632.9468494328056,632.9468494328058,632.9468494328066
0.144,1.1916138138265073e-18,4.0,0.015794921971625565,3.292512696242506e-14,7.378261001826502e-15,-4.0423823808049253e-16,1.4629326616646652e-22,4.0,0.051504200451322216,7.062128176414161e-22,2.89716464792893e-17,8.948191303276435e-17,0.16432485263962043,0.0,0.0,0.0,3.9194776647468763,-3.967146256893528e-15,-1.0912221574796512e-15,4.7148243259066425e-17,633.6508497905023,633.6508497905012,633.6508497905014,633.6508497905022
0.148,1.4385304219698057e-18,4.0,0.016545298020208186,3.442173459585175e-14,7.401470729893643e-15,-4.2577763612662725e-16,1.4613311570605203e-22,4.0,0.053637261716482115,7.054397109164135e-22,3.3790509094330646e-17,1.015722867038356e-16,0.17756091167460342,0.0,0.0,0.0,3.9465680646872956,-3.999135502555485e-15,-1.0459498156081855e-15,4.17623556158646e-17,634.2756876750577,634.2756876750565,634.2756876750567,634.2756876750576
0.152,1.7128103997701024e-18,4.0,0.017350202599292118,3.59492570780576e-14,7.39020773172656e-15,-4.441596260410109e-16,1.459696262589971e-22,4.0,0.0558147953050383,7.046504856425179e-22,3.8789779315813646e-17,1.143414985938399e-16,0.1910287030254107,0.0,0.0,0.0,3.9703850686584334,-4.137577353123688e-15,-1.0310725513346997e-15,3.8958477736521354e-17,634.8245169176943,634.824516917693,634.8245169176932,634.8245169176942
0.156,2.014385677006992e-18,4.0,0.01821042232599095,3.752509008820728e-14,7.356276806298042e-15,-4.612663530403926e-16,1.458028437787615e-22,4.0,0.05803618915790083,7.03845363654426e-22,4.388480896092035e-17,1.2799217143313632e-16,0.20470762895734676,0.0,0.0,0.0,3.9910483504839522,-4.298446732503147e-15,-1.028521174381712e-15,3.822358973228842e-17,635.3002889724208,635.3002889724195,635.3002889724197,635.3002889724206
0.16,2.3432551334721953e-18,4.0,0.019126668848122138,3.900875426864231e-14,7.29490318796597e-15,-4.788486090327258e-16,1.456328137859127e-22,4.0,0.06030083698171933,7.030245646970997e-22,4.9046843393656545e-17,1.4253154195632455e-16,0.21857854942628724,0.0,0.0,0.0,4.008677129781246,-4.298577403420836e-15,-1.0198531524771451e-15,3.94815371072687e-17,635.7059101301597,635.7059101301584,635.7059101301587,635.7059101301596
0.164,2.6993051580833245e-18,4.0,0.0200995782369669,4.0375107321885653e-14,7.201640655934066e-15,-4.934166874026353e-16,1.454595813716818e-22,4.0,0.06260813820152066,7.021883064429321e-22,5.429998518016083e-17,1.5771217078767412e-16,0.23262264555996426,0.0,0.0,0.0,4.023394330885756,-4.263045875842826e-15,-1.0030914471603639e-15,3.668248205708967e-17,636.0443405719145,636.0443405719133,636.0443405719135,636.0443405719144
0.168,3.0823045438403615e-18,4.0,0.02112973178990497,4.161453615703685e-14,7.071294195190229e-15,-4.983020944420376e-16,1.4528319120149226e-22,4.0,0.06495749791370911,7.013368045087826e-22,5.966003564087911e-17,1.7325746548002336e-16,0.24682304077810188,0.0,0.0,0.0,4.03528315006754,-4.2082668174364875e-15,-9.769051189804164e-16,2.596980001335581e-17,636.317599323987,636.3175993239856,636.3175993239859,636.3175993239868
0.17200000000000001,3.492094623105021e-18,4.0,0.022217644772158027,4.277731044928858e-14,6.878011194293049e-15,-4.973102071691885e-16,1.4510368751846175e-22,4.0,0.06734832683942642,7.004702724728806e-22,6.518611008150246e-17,1.8907153843714938e-16,0.2611641956546985,0.0,0.0,0.0,4.044451459953965,-4.203509908194747e-15,-9.18933587134598e-16,1.9304798405751975e-17,636.5282483726737,636.5282483726724,636.5282483726726,636.5282483726735
0.17600000000000002,3.928040256143231e-18,4.0,0.023363782194412833,4.391200346897207e-14,6.620314780148515e-15,-4.925818306411664e-16,1.4492111414687696e-22,4.0,0.0697800412782689,6.995889218916004e-22,7.094726896141163e-17,2.0521426071068734e-16,0.2756315988831952,0.0,0.0,0.0,4.050977298188895,-4.250231760839338e-15,-8.495356098362212e-16,1.4899254991413204e-17,636.6781421219589,636.6781421219575,636.6781421219578,636.6781421219587
0.18000000000000002,4.3894015269728684e-18,4.0,0.024568553535890766,4.4932938718607255e-14,6.2820120234445605e-15,-4.847727641677445e-16,1.447355144956419e-22,4.0,0.07225206306235925,6.986929623161074e-22,7.697596009179043e-17,2.2173354722010807e-16,0.2902115538444927,0.0,0.0,0.0,4.0549510944958955,-4.194986127736927e-15,-7.553572105085557e-16,1.1106356578794124e-17,636.7694000429657,636.7694000429644,636.7694000429645,636.7694000429656
0.18400000000000002,4.874664813097399e-18,4.0,0.025832314601062507,4.585788992246469e-14,5.894110260736286e-15,-4.722754463502965e-16,1.445469315616998e-22,4.0,0.07476381951077027,6.97782601308877e-22,8.323002926405001e-17,2.384508036476156e-16,0.3048906038713071,0.0,0.0,0.0,4.056461360543135,-4.152716422105736e-15,-6.825204387389242e-16,5.309069185960006e-18,636.8040797548222,636.8040797548209,636.804079754821,636.804079754822
0.18800000000000003,5.3822518725828674e-18,4.0,0.027155369893341937,4.679980480089677e-14,5.46985791063166e-15,-4.533241285372814e-16,1.443554079334288e-22,4.0,0.07731474338429797,6.968580444600863e-22,8.960890478717215e-17,2.553461936985424e-16,0.3196554721250432,0.0,0.0,0.0,4.055593581029266,-4.235775811891218e-15,-6.200158406665479e-16,-2.74340655636333e-18,636.7841534677061,636.784153467705,636.784153467705,636.784153467706
0.19200000000000003,5.910991383966523e-18,4.0,0.02853797481585217,4.774257952299813e-14,4.968685581279445e-15,-4.324923368446734e-16,1.4416098579401145e-22,4.0,0.0799042728405815,6.959194954038805e-22,9.609227958487198e-17,2.7265149148134833e-16,0.3344934655964859,0.0,0.0,0.0,4.052430488462785,-4.301190252930017e-15,-5.113313125324098e-16,-5.7183026125659685e-18,636.711516039798,636.7115160397967,636.7115160397967,636.7115160397977
0.19600000000000004,6.458887890653567e-18,4.0,0.02998033816786924,4.8842075444528284e-14,4.405328862735941e-15,-4.108323059487398e-16,1.439637069247785e-22,4.0,0.08253185138956738,6.949671558345146e-22,1.0278497248468712e-16,2.9074012314069177e-16,0.34939247734575785,0.0,0.0,0.0,4.047051392408319,-4.548667846583667e-15,-4.042553434830862e-16,-7.541240505392302e-18,636.587971156426,636.5879711564247,636.5879711564246,636.5879711564259
0.20000000000000004,7.023682845620757e-18,4.0,0.031482624761749955,5.0118908550272146e-14,3.793843895151188e-15,-3.8856873542537175e-16,1.4376361270852708e-22,4.0,0.0851969278493154,6.94001225522371e-22,1.096430824024476e-16,3.100982059263701e-16,0.36434101980796496,0.0,0.0,0.0,4.039531854860912,-4.830936360933814e-15,-3.04838091998711e-16,-9.135703947874636e-18,636.4152252890543,636.4152252890531,636.415225289053,636.4152252890542
0.20400000000000004,7.603123633020401e-18,4.0,0.0330449542556579,5.14851192523637e-14,3.1290427401961806e-15,-3.633724563461438e-16,1.4356074413281315e-22,4.0,0.08789895630214387,6.930219023298543e-22,1.1657608831087718e-16,3.3105450112714157e-16,0.37932789573130216,0.0,0.0,0.0,4.0299512863989495,-5.022618352283181e-15,-1.944641106083973e-16,-1.3475788307885817e-17,636.1950635348572,636.1950635348559,636.1950635348559,636.1950635348571
0.208,8.194539129493742e-18,4.0,0.03466740459030677,5.2880267950713264e-14,2.426443895761333e-15,-3.3711136128716755e-16,1.43355141793219e-22,4.0,0.09063739605111147,6.9202938222716405e-22,1.235639809152494e-16,3.5340135989279147e-16,0.39434219975336554,0.0,0.0,0.0,4.018383638953441,-5.1498349166366e-15,-9.199557953673298e-17,-1.5754305238477e-17,635.9291370715869,635.9291370715856,635.9291370715854,635.9291370715869
0.212,8.795232555130262e-18,4.0,0.03635001374788858,5.42473123484099e-14,1.6882654135474193e-15,-3.101897160382057e-16,1.4314684589659545e-22,4.0,0.09341171157683367,6.910238593079458e-22,1.3053247866932575e-16,3.767345260663168e-16,0.4093735412709826,0.0,0.0,0.0,4.004900700882338,-5.212420191751579e-15,1.2832549375793188e-17,-1.760430058886211e-17,635.619039940328,635.6190399403266,635.6190399403265,635.619039940328
0.216,9.402359597024576e-18,4.0,0.03809278127881822,5.548724113287322e-14,9.182027973607172e-16,-2.8498252699265317e-16,1.429358962642791e-22,4.0,0.09622137249463043,6.9000552580482315e-22,1.3744645092336353e-16,4.005551347848626e-16,0.4244120237716157,0.0,0.0,0.0,3.9895725115959424,-5.157464910812062e-15,1.1961107193907729e-16,-1.6707037246519163e-17,635.2663195986621,635.2663195986609,635.2663195986606,635.2663195986621
0.22,1.001279064108684e-17,4.0,0.03989566975919358,5.663923810631227e-14,1.3473370952588892e-16,-2.6269071431926683e-16,1.4272233233528502e-22,4.0,0.09906585351200382,6.88974572104809e-22,1.4424018077081563e-16,4.244119221466771e-16,0.43944812826537805,0.0,0.0,0.0,3.972467452977825,-5.1395733579581694e-15,2.1258122073524476e-16,-1.43365081743757e-17,634.8724799708361,634.8724799708349,634.8724799708347,634.8724799708363
0.224,1.0623247820932237e-17,4.0,0.04175860860235084,5.778084885499171e-14,-6.347935248796415e-16,-2.4184114947127267e-16,1.425061931694748e-22,4.0,0.1019446343864423,6.879311867645992e-22,1.5074424717319025e-16,4.482640968428792e-16,0.4544729380902119,0.0,0.0,0.0,3.9536474247244273,-5.206221312558906e-15,2.787911774627855e-16,-1.3567111472113424e-17,634.4388711228422,634.4388711228411,634.4388711228407,634.4388711228423
0.228,1.1230731964145584e-17,4.0,0.043681501836309346,5.892172467406008e-14,-1.3874153982801716e-15,-2.2040300173943156e-16,1.422875174507002e-22,4.0,0.1048571998835496,6.868755565257484e-22,1.5682535501587824e-16,4.724387309348203e-16,0.46947876753578244,0.0,0.0,0.0,3.933159673467122,-5.283429162485116e-15,3.400259098004592e-16,-1.51108228531299e-17,633.9665011877804,633.9665011877792,633.9665011877789,633.9665011877805
0.232,1.1832140872020705e-17,4.0,0.045664217433943395,6.004267503489028e-14,-2.1031705675983285e-15,-1.9243483992862194e-16,1.4206634348992267e-22,4.0,0.10780303973549582,6.858078663297289e-22,1.623712756796192e-16,4.971265516002649e-16,0.4844579523111445,0.0,0.0,0.0,3.911073983322985,-5.338177354199569e-15,3.8048087016240256e-16,-2.3619234511329763e-17,633.4568943065262,633.456894306525,633.4568943065246,633.4568943065262
0.23600000000000002,1.2424468673921062e-17,4.0,0.04770658022313879,6.105502087722544e-14,-2.7591380027812045e-15,-1.6166057199053567e-16,1.4184270922830885e-22,4.0,0.1107816485997882,6.847282993328738e-22,1.6723684716319106e-16,5.220824594268207e-16,0.49940122415383154,0.0,0.0,0.0,3.88747574988329,-5.2880095842709014e-15,3.931282935702296e-16,-2.804567622850089e-17,632.9119334489491,632.9119334489477,632.9119334489475,632.9119334489491
0.24000000000000002,1.300530827432241e-17,4.0,0.04980838756918214,6.192542901495388e-14,-3.3693459402445754e-15,-1.2835786128635204e-16,1.4161665224030216e-22,4.0,0.11379252601835949,6.836370369212049e-22,1.71322949822747e-16,5.467774119789331e-16,0.5142995535597542,0.0,0.0,0.0,3.8624199891293323,-5.1914909384462644e-15,4.13643041443622e-16,-3.226299099628372e-17,632.3327994203404,632.3327994203393,632.3327994203389,632.3327994203405
0.24400000000000002,1.3572363545439444e-17,4.0,0.051969416582822114,6.268423119223719e-14,-3.938965312693708e-15,-9.337562187740377e-17,1.413882097366709e-22,4.0,0.11683517637697124,6.825342587251469e-22,1.7469207527765146e-16,5.707955093376881e-16,0.5291461451236698,0.0,0.0,0.0,3.835948035754539,-5.120685615982558e-15,4.378539494839659e-16,-3.5592465913683934e-17,631.7203550021418,631.7203550021405,631.7203550021403,631.7203550021418
0.24800000000000003,1.4122935902705167e-17,4.0,0.05418940665095399,6.335134175590908e-14,-4.417747169223335e-15,-5.0181464244616057e-17,1.4115741856753268e-22,4.0,0.1199091088649301,6.814201426341275e-22,1.7726809632275035e-16,5.941031466321684e-16,0.5439340548675571,0.0,0.0,0.0,3.8081373959639504,-5.065503041150512e-15,4.0731338483345705e-16,-4.6621771623580324e-17,631.0762990682208,631.0762990682197,631.0762990682193,631.0762990682209
0.252,1.4655027469037776e-17,4.0,0.056468083259303935,6.391121846020096e-14,-4.794631682828174e-15,-1.839450252644822e-18,1.4092431522535571e-22,4.0,0.1230138374351143,6.802948648110655e-22,1.787846325969467e-16,6.167656348611591e-16,0.5586568052246569,0.0,0.0,0.0,3.7790185010949457,-4.985901192378835e-15,3.518536320711912e-16,-5.440897635872875e-17,630.4012405925193,630.4012405925182,630.4012405925179,630.4012405925193
0.256,1.5167060021036444e-17,4.0,0.058805145374693356,6.433206157288728e-14,-5.059937383092352e-15,5.175326812603037e-17,1.4068893584793674e-22,4.0,0.12614888076430864,6.79158599706747e-22,1.7904136072927895e-16,6.385893042245146e-16,0.5733087645495496,0.0,0.0,0.0,3.748647904042048,-4.861832860414056e-15,2.750429767231808e-16,-6.252771141566639e-17,629.6963930950785,629.6963930950774,629.696393095077,629.6963930950784
0.26,1.5658043553767447e-17,4.0,0.06120026114827992,6.459684347941995e-14,-5.22100219511904e-15,1.0879768607838042e-16,1.4045131622135627e-22,4.0,0.12931376221384513,6.780115200740909e-22,1.7805657867846144e-16,6.592708925307926e-16,0.5878834173129419,0.0,0.0,0.0,3.7170917934141414,-4.708373384508795e-15,1.9379800034084343e-16,-6.87605352076082e-17,628.9631951995714,628.9631951995702,628.9631951995699,628.9631951995713
0.264,1.6127592136979923e-17,4.0,0.06365306235735076,6.467231855491512e-14,-5.3029740955978165e-15,1.7033178564003463e-16,1.4021149178291082e-22,4.0,0.1325080097905475,6.768537969823041e-22,1.7591189199937165e-16,6.784282805282444e-16,0.6023726722295903,0.0,0.0,0.0,3.6844286901403995,-4.505420079914501e-15,1.287563970992434e-16,-7.634762405903455e-17,628.2033753265521,628.2033753265509,628.2033753265506,628.2033753265518
0.268,1.6575841686496112e-17,4.0,0.06616316958412177,6.448158065794901e-14,-5.3500971545371915e-15,2.34909272208338e-16,1.3996949762402252e-22,4.0,0.13573115610797695,6.756855998309273e-22,1.7295864946619957e-16,6.954932808775515e-16,0.6167700314555754,0.0,0.0,0.0,3.650687242931105,-4.1997157323321295e-15,1.0439937654562116e-16,-8.242957290042602e-17,627.4175044304565,627.4175044304553,627.417504430455,627.4175044304562
0.272,1.7002524301990646e-17,4.0,0.06873016929278197,6.398252568401301e-14,-5.349815285509273e-15,3.029914221356044e-16,1.397253684931264e-22,4.0,0.13898273834797734,6.745070963637731e-22,1.6946734351226943e-16,7.097543339994673e-16,0.6310695659793246,0.0,0.0,0.0,3.6159430483513404,-3.826640783345915e-15,6.777893576608978e-17,-8.917533674029442e-17,626.6072485942956,626.6072485942946,626.6072485942942,626.6072485942954
0.276,1.7407477459407662e-17,4.0,0.0713536394326522,6.313226361286863e-14,-5.284440818230427e-15,3.706723858161642e-16,1.394791387985353e-22,4.0,0.14226229822251724,6.733184526827556e-22,1.654113442861331e-16,7.203988936655728e-16,0.6452661107106601,0.0,0.0,0.0,3.5802208965565425,-3.3823983151546146e-15,6.448978832983062e-18,-9.150236337786648e-17,625.7730923633096,625.7730923633088,625.7730923633084,625.7730923633094
0.28,1.779099427394083e-17,4.0,0.07403311971060716,6.203043157423978e-14,-5.1568602339711375e-15,4.4132239375712815e-16,1.3923084261128254e-22,4.0,0.14556938193582664,6.721198332616138e-22,1.6065312494878968e-16,7.270312807984032e-16,0.659353660956183,0.0,0.0,0.0,3.5436062491740694,-3.0304889768093734e-15,-6.094116373576621e-17,-9.774987819633414e-17,624.9169397319134,624.9169397319126,624.9169397319123,624.9169397319131
0.28400000000000003,1.8153763518308656e-17,4.0,0.07676813607455542,6.080814248628565e-14,-4.9855851472062506e-15,5.146519053967855e-16,1.389805136679428e-22,4.0,0.14890354014682664,6.709114009595283e-22,1.5527921918305656e-16,7.301592554201919e-16,0.6733262246237117,0.0,0.0,0.0,3.506136164300334,-2.814481489450464e-15,-1.156286668910691e-16,-1.0378108237789509e-16,624.039568500954,624.0395685009534,624.039568500953,624.0395685009538
0.28800000000000003,1.8495963311048874e-17,4.0,0.07955821637401803,5.946599172471607e-14,-4.7214667339872394e-15,5.834323494244816e-16,1.387281853734311e-22,4.0,0.15226432793184935,6.696933170346333e-22,1.492163879930827e-16,7.306934291685167e-16,0.6871808498682658,0.0,0.0,0.0,3.467816421692291,-2.5909321028235084e-15,-2.2512948644935734e-16,-1.0147820127244619e-16,623.1410246690745,623.1410246690739,623.1410246690734,623.1410246690741
0.29200000000000004,1.881824210596282e-17,4.0,0.08240285390752904,5.798759417841257e-14,-4.332339082447503e-15,6.367350009789326e-16,1.384738908037801e-22,4.0,0.15565130474764624,6.684657411574238e-22,1.4215315183337238e-16,7.290199273535462e-16,0.7009139343901878,0.0,0.0,0.0,3.428726787488576,-2.340052865555981e-15,-3.8398194162732423e-16,-8.622204202857897e-17,622.2230910267318,622.2230910267313,622.2230910267309,622.2230910267316
0.29600000000000004,1.912161629143201e-17,4.0,0.0853015050316977,5.637107601563093e-14,-3.778270698715317e-15,6.7478385553308e-16,1.3821766270889596e-22,4.0,0.15906403439468267,6.67228831424059e-22,1.335841966546629e-16,7.249054028485678e-16,0.7145182058932817,0.0,0.0,0.0,3.388953047118852,-2.0776686159203525e-15,-6.026557394679861e-16,-7.059197696331721e-17,621.287700635642,621.2877006356414,621.2877006356412,621.2877006356416
0.30000000000000004,1.9408114891752628e-17,4.0,0.08825364432861266,5.475157942824334e-14,-3.062564194323913e-15,7.05302016911381e-16,1.379595335152929e-22,4.0,0.16250208498071644,6.659827443695634e-22,1.2324896405116613e-16,7.185888220293157e-16,0.727989368956833,0.0,0.0,0.0,3.3484702654960357,-1.963649266457903e-15,-8.412223853422795e-16,-6.335734843874326e-17,620.3341867664461,620.3341867664456,620.3341867664453,620.3341867664458
0.30400000000000005,1.9680461448875862e-17,4.0,0.09125870970825244,5.317725237465843e-14,-2.197076390190186e-15,7.289683347217212e-16,1.3769953532880655e-22,4.0,0.1659650288846585,6.647276349809245e-22,1.1111414412647404e-16,7.109359473180142e-16,0.7413250261267506,0.0,0.0,0.0,3.3073644064292056,-1.9056501761093207e-15,-1.0866185835956057e-15,-5.660648911849266e-17,619.364495201534,619.3644952015334,619.3644952015334,619.3644952015337
0.30800000000000005,1.9942097209343415e-17,4.0,0.09431613048661212,5.1689477325254184e-14,-1.2101668779869036e-15,7.489069609343638e-16,1.374376999372862e-22,4.0,0.16945244272071341,6.634636567100899e-22,9.745175769525258e-17,7.029187962071809e-16,0.75452070996503,0.0,0.0,0.0,3.2656656816777114,-1.899063536932945e-15,-1.319634841644534e-15,-5.322377458625954e-17,618.3792642285372,618.3792642285364,618.3792642285365,618.3792642285366
0.31200000000000006,2.0196906853100327e-17,4.0,0.09742533890136532,5.0306851316968674e-14,-1.284789880350984e-16,7.686653168301849e-16,1.3717405881326634e-22,4.0,0.1729639073027977,6.621909614868638e-22,8.25891493496966e-17,6.950641748587629e-16,0.7675741881661965,0.0,0.0,0.0,3.2233812691293338,-1.9201118916243285e-15,-1.5377683591905668e-15,-5.3831938061395224e-17,617.3785894575047,617.378589457504,617.3785894575042,617.3785894575042
0.31600000000000006,2.044952420159076e-17,4.0,0.10058571984541671,4.9065265825899547e-14,9.826207966356225e-16,7.901910927147038e-16,1.3690864311661744e-22,4.0,0.1764990076092341,6.609096997317028e-22,6.709134604748833e-17,6.878599097979549e-16,0.7804809837320751,0.0,0.0,0.0,3.1806203329332767,-1.9902622265677866e-15,-1.6979470047722015e-15,-5.670790933247534e-17,616.364985425667,616.3649854256662,616.3649854256663,616.3649854256664
0.32000000000000006,2.070440303260086e-17,4.0,0.10379664151253663,4.800284751107808e-14,2.0898989544929065e-15,8.107769837109009e-16,1.3664148369717613e-22,4.0,0.18005733274771932,6.596200203684135e-22,5.163258223609962e-17,6.818032970008701e-16,0.7932342922339715,0.0,0.0,0.0,3.137431413156193,-2.1145789815615367e-15,-1.8230625439896814e-15,-5.649389636390734e-17,615.3395416991452,615.3395416991443,615.3395416991445,615.3395416991447
0.32400000000000007,2.096560564749196e-17,4.0,0.10705748374893714,4.716439401609487e-14,3.1963153205262064e-15,8.280527343055939e-16,1.3637261109735503e-22,4.0,0.1836384759205638,6.583220708367503e-22,3.667208291925289e-17,6.775264793528385e-16,0.8058310291856206,0.0,0.0,0.0,3.0938061041939973,-2.303459272777181e-15,-1.9505377354918504e-15,-5.3472455459709566e-17,614.3019989068969,614.3019989068958,614.3019989068961,614.3019989068962
0.32800000000000007,2.1237299309267897e-17,4.0,0.11036760401319269,4.6550694888071545e-14,4.290753923010292e-15,8.366726225078278e-16,1.3610205555473228e-22,4.0,0.18724203439020098,6.57015997104917e-22,2.231844697380248e-17,6.7565092759858e-16,0.8182702395809539,0.0,0.0,0.0,3.049804775263901,-2.5085767893990947e-15,-2.0696392498095733e-15,-4.407044094477309e-17,613.253735073233,613.2537350732318,613.2537350732322,613.2537350732323
0.3320000000000001,2.152393773715724e-17,4.0,0.11372634560953256,4.610825443308168e-14,5.328462631205446e-15,8.382672600143417e-16,1.3582984700462102e-22,4.0,0.1908676094449645,6.557019436819699e-22,8.822140817423828e-18,6.763713384019287e-16,0.8305483868383103,0.0,0.0,0.0,3.005471860598139,-2.666594887914945e-15,-2.1425726635611255e-15,-3.62178011853703e-17,612.1957564387991,612.1957564387978,612.1957564387983,612.1957564387985
0.3360000000000001,2.1829548186396357e-17,4.0,0.11713306500608336,4.5738096168155166e-14,6.28692154156969e-15,8.33697438086999e-16,1.3555601508261892e-22,4.0,0.19451480636513083,6.543800536301256e-22,-3.362273667172425e-18,6.791167820319218e-16,0.8426638611390841,0.0,0.0,0.0,2.960796863281366,-2.720746015095819e-15,-2.1842136843713155e-15,-2.908222234525215e-17,611.127761391907,611.1277613919058,611.1277613919061,611.1277613919063
0.3400000000000001,2.2157410804143095e-17,4.0,0.12058711576305826,4.545912415313765e-14,7.187519119425524e-15,8.285026975712651e-16,1.3528058912713787e-22,4.0,0.19818323438922603,6.530504685769728e-22,-1.4015051705187128e-17,6.831551024574809e-16,0.8546178608266161,0.0,0.0,0.0,2.915801544628124,-2.8019148530008775e-15,-2.2402464880435996e-15,-2.8164570646983484e-17,610.0502189241007,610.0502189240993,610.0502189240998,610.0502189240999
0.3440000000000001,2.251062028087998e-17,4.0,0.12408786557300316,4.531274520412092e-14,8.044277354361742e-15,8.190192206210554e-16,1.3500359818191402e-22,4.0,0.20187250668059406,6.517133287275891e-22,-2.3296954724111793e-17,6.883320178407895e-16,0.8664116882438273,0.0,0.0,0.0,2.870473234549118,-2.937671303561793e-15,-2.3094908452455655e-15,-2.2941339186051733e-17,608.9627741217571,608.9627741217556,608.9627741217562,608.9627741217563
0.3480000000000001,2.2892517946769716e-17,4.0,0.12763465184604672,4.5313424267864385e-14,8.828015167443374e-15,8.047874022212123e-16,1.3472507099849831e-22,4.0,0.20558224029422517,6.503687728765637e-22,-3.129705977489786e-17,6.951326904752038e-16,0.8780439106955488,0.0,0.0,0.0,2.824889011677951,-3.099385969446613e-15,-2.347369381745288e-15,-1.700510707963688e-17,607.8672279779854,607.8672279779839,607.8672279779844,607.8672279779847
0.3520000000000001,2.3306251875152244e-17,4.0,0.13122677233353722,4.5421705459515194e-14,9.502512820431098e-15,7.93085697924623e-16,1.3444503603872766e-22,4.0,0.20931205614384213,6.49016938419927e-22,-3.7697875382727635e-17,7.038291075793717e-16,0.8895079681161032,0.0,0.0,0.0,2.779146007866901,-3.2250828961137215e-15,-2.338780216903229e-15,-1.9376279828396725e-17,606.7658773732041,606.7658773732027,606.7658773732031,606.7658773732035
0.3560000000000001,2.3753995688283195e-17,4.0,0.13486354055173894,4.566462696377586e-14,1.0089510864212122e-14,7.825509535323531e-16,1.3416352147717686e-22,4.0,0.2130615789692425,6.476579613669869e-22,-4.2236878836910363e-17,7.143466799689097e-16,0.9007991273325964,0.0,0.0,0.0,2.7332301939524695,-3.3897112757498105e-15,-2.339698039030564e-15,-2.0258967552351148e-17,605.6583519385908,605.6583519385894,605.6583519385898,605.65835193859
0.3600000000000001,2.4237824929590772e-17,4.0,0.1385442644386226,4.607065948822858e-14,1.0584869514201214e-14,7.671388898217598e-16,1.3388055520359148e-22,4.0,0.21683043730389517,6.462919763520729e-22,-4.491636570030147e-17,7.268660088810974e-16,0.9119176343142549,0.0,0.0,0.0,2.6871704120544995,-3.59679284693807e-15,-2.3308160731843635e-15,-1.4128900500012424e-17,604.5453153503474,604.5453153503458,604.5453153503464,604.5453153503468
0.3640000000000001,2.4759462769035892e-17,4.0,0.14226823399602256,4.662804813704329e-14,1.0985615876263983e-14,7.55560004307748e-16,1.335961648253018e-22,4.0,0.22061826344278906,6.449191166461891e-22,-4.587141217954898e-17,7.417819820718944e-16,0.9228615374160587,0.0,0.0,0.0,2.641020819531933,-3.801301763930453e-15,-2.31019162354342e-15,-1.797379351604251e-17,603.4280494584809,603.4280494584792,603.4280494584798,603.4280494584802
0.3680000000000001,2.532074933120044e-17,4.0,0.146034729825139,4.728075061153921e-14,1.1242565468115033e-14,7.483513242947757e-16,1.3331037766961788e-22,4.0,0.2244246934105323,6.435395141685768e-22,-4.481007270420352e-17,7.5905527407575845e-16,0.9336278316739415,0.0,0.0,0.0,2.594818879115886,-3.9507183640053875e-15,-2.2288545607796643e-15,-2.2603421982845276e-17,602.3074402164302,602.3074402164285,602.3074402164291,602.3074402164295
0.3720000000000001,2.5922400369765077e-17,4.0,0.1498430518699942,4.7951584027378944e-14,1.1370148992587888e-14,7.434677664329658e-16,1.3302322078620605e-22,4.0,0.22824936692969985,6.421532994981856e-22,-4.148629684019923e-17,7.779645229481438e-16,0.9442161978898496,0.0,0.0,0.0,2.548544073976614,-4.016523795089736e-15,-2.1433790842025448e-15,-2.50235244164316e-17,601.1829699064201,601.1829699064185,601.1829699064189,601.1829699064194
0.376,2.6565222250407115e-17,4.0,0.153692495585969,4.8567746465065036e-14,1.1326250078412104e-14,7.352028049664631e-16,1.327347209494469e-22,4.0,0.2320919273894278,6.407606018850573e-22,-3.5615561848963915e-17,7.974268226958859e-16,0.9546285804896721,0.0,0.0,0.0,2.5022236925173984,-4.032032423948822e-15,-2.0168397200378988e-15,-2.0924880672740397e-17,600.055281793803,600.0552817938014,600.0552817938018,600.0552817938024
0.38,2.7249167386099783e-17,4.0,0.1575823525734814,4.909260174616152e-14,1.109598657063051e-14,7.242203327595664e-16,1.3244490466077465e-22,4.0,0.2359520218142531,6.393615492616187e-22,-2.6892986260780058e-17,8.163259879387796e-16,0.9648646050831904,0.0,0.0,0.0,2.455883935206975,-4.001451431726249e-15,-1.852677865039137e-15,-1.7462340471688275e-17,598.9249973680439,598.9249973680425,598.9249973680427,598.9249973680434
0.384,2.7973209906287376e-17,4.0,0.16151191113282018,4.951392727161174e-14,1.0695554997259414e-14,7.036217015451384e-16,1.321537981509987e-22,4.0,0.23982930083319517,6.3795626825388785e-22,-1.5200060424672068e-17,8.339026005367123e-16,0.9749233407577051,0.0,0.0,0.0,2.409550053923733,-3.9507203327673654e-15,-1.6838860924453266e-15,-5.828731767453161e-18,597.7927195760941,597.7927195760925,597.792719576093,597.7927195760936
0.388,2.873586921168358e-17,4.0,0.16548044381329846,4.9863884132786933e-14,1.0127874675975288e-14,6.797169767064694e-16,1.318614273826066e-22,4.0,0.24372341864907995,6.365448841925927e-22,-7.034287695303729e-19,8.499267689263483e-16,0.9848026967558182,0.0,0.0,0.0,2.363272729043202,-3.930759312534495e-15,-1.5012278837734612e-15,-1.1699687634222173e-18,596.6596790924741,596.6596790924726,596.659679092473,596.6596790924738
0.392,2.953508955290676e-17,4.0,0.16948721601923064,5.01705894793423e-14,9.394387287149265e-15,6.43314676752541e-16,1.3156781805204944e-22,4.0,0.24763403300810274,6.351275211242021e-22,1.651630208382146e-17,8.646131317241625e-16,0.9945002252460589,0.0,0.0,0.0,2.317085730768127,-3.93899555626797e-15,-1.3012614850092446e-15,1.4363325765690085e-17,595.5267007438179,595.5267007438164,595.5267007438167,595.5267007438175
0.396,3.036809942187485e-17,4.0,0.17353151493582164,5.042848113387099e-14,8.510541754146676e-15,6.015699974819699e-16,1.312729955920091e-22,4.0,0.251560805169629,6.3370430182187175e-22,3.621451129458345e-17,8.783210034082138e-16,1.00401618330751,0.0,0.0,0.0,2.270964404742919,-3.937993144806404e-15,-1.0981823242322518e-15,2.2053952151407856e-17,594.3931783786668,594.3931783786655,594.3931783786658,594.3931783786667
0.4,3.123215015401897e-17,4.0,0.17761263210092743,5.063095106091478e-14,7.441208987301347e-15,5.641584839049445e-16,1.3097698517364791e-22,4.0,0.2555033998762308,6.322753477963038e-22,5.834252342300454e-17,8.911611975144762e-16,1.0133537620857334,0.0,0.0,0.0,2.2249188258479817,-3.926116362550052e-15,-8.418526292700267e-16,1.8664301576154233e-17,593.2593571985569,593.2593571985557,593.2593571985558,593.2593571985568
0.404,3.2124295569137975e-17,4.0,0.18172988082391905,5.076429180297811e-14,6.112111664818746e-15,5.335926548097674e-16,1.3067981170884081e-22,4.0,0.2594614853239578,6.30840779306522e-22,8.351201465680754e-17,9.029033273175812e-16,1.0225161525660358,0.0,0.0,0.0,2.1789236305340696,-3.894584419585701e-15,-4.81435861459746e-16,1.2164309829811605e-17,592.1246091432386,592.1246091432374,592.1246091432374,592.1246091432386
0.40800000000000003,3.303963961876004e-17,4.0,0.1858825502704537,5.078047895354247e-14,4.560474631407009e-15,5.054008648737781e-16,1.3038149985238988e-22,4.0,0.26343473313284044,6.294007153705624e-22,1.1221294456120353e-16,9.132303307291997e-16,1.0315036723230224,0.0,0.0,0.0,2.133045998566277,-3.8023386930592346e-15,-1.212473356868634e-16,1.060893497338561e-17,590.990591040303,590.990591040302,590.990591040302,590.9905910403031
0.41200000000000003,3.397268449388166e-17,4.0,0.19006989587452144,5.057278052161879e-14,2.8062146843453175e-15,4.795807386568706e-16,1.3008207400422168e-22,4.0,0.2674228183176237,6.279552737760812e-22,1.4432024187978982e-16,9.211626720460266e-16,1.0403113359676364,0.0,0.0,0.0,2.0873733895672,-3.577458623196886e-15,2.4251907712976787e-16,8.960817466605563e-18,589.8594751826438,589.859475182643,589.8594751826428,589.8594751826439
0.41600000000000004,3.4917048467265716e-17,4.0,0.1942911957379299,5.01429173022753e-14,8.906686135796265e-16,4.595832716297695e-16,1.2978155831156734e-22,4.0,0.27142541925873015,6.265045710908776e-22,1.7912294484490556e-16,9.254895624161625e-16,1.0489359835306662,0.0,0.0,0.0,2.0418799257598783,-3.339133153407818e-15,5.875060602075306e-16,3.1858059746353645e-18,588.7306355719323,588.7306355719317,588.7306355719313,588.7306355719326
0.42000000000000004,3.586589680768976e-17,4.0,0.19854573747877896,4.957172618697411e-14,-1.1532983530235833e-15,4.441766629023364e-16,1.2947997667112564e-22,4.0,0.27544221767345,6.250487226733373e-22,2.1593365795356566e-16,9.258006351940604e-16,1.057380377994599,0.0,0.0,0.0,1.9965657484121373,-3.1797112842945776e-15,9.167082387027135e-16,-1.3879683404943493e-18,587.604088842184,587.6040888421835,587.604088842183,587.6040888421843
0.42400000000000004,3.681207088463908e-17,4.0,0.20283285503667015,4.888327191328613e-14,-3.3013119800822486e-15,4.2979448767284476e-16,1.291773527312091e-22,4.0,0.27947289858735697,6.235878426827912e-22,2.5406972789785766e-16,9.228349531073909e-16,1.0656508408819625,0.0,0.0,0.0,1.9513560485895365,-3.0383274854551044e-15,1.2368676651894287e-15,-1.983034370090357e-18,586.4779830420051,586.4779830420048,586.4779830420042,586.4779830420056
0.42800000000000005,3.774822190406586e-17,4.0,0.20715185046980047,4.8070145641461585e-14,-5.541588694039116e-15,4.096297726040963e-16,1.288737098938732e-22,4.0,0.28351715030594793,6.221220440897952e-22,2.930376855599613e-16,9.171719245877087e-16,1.0737497313124205,0.0,0.0,0.0,1.9063333040894255,-2.879792779733379e-15,1.5599228063652873e-15,5.3324583629196075e-18,585.3543810376099,585.3543810376098,585.3543810376091,585.3543810376106
0.43200000000000005,3.86662065409608e-17,4.0,0.21150199379675766,4.714010238543555e-14,-7.809464047054362e-15,3.8515494213991513e-16,1.2856907131702917e-22,4.0,0.28757466438650475,6.206514386863278e-22,3.3225651309558524e-16,9.089157292445035e-16,1.081672735580216,0.0,0.0,0.0,1.8615813791151365,-2.7212208188203866e-15,1.830706114447742e-15,1.1166783957819148e-17,584.2353962417759,584.2353962417757,584.235396241775,584.2353962417764
0.43600000000000005,3.9557497440799745e-17,4.0,0.2158825573762806,4.606097114620341e-14,-1.0012159816286e-14,3.701088740461248e-16,1.2826345991653985e-22,4.0,0.291645135610177,6.191761370959093e-22,3.705782734426224e-16,8.978947592493728e-16,1.0894143751859404,0.0,0.0,0.0,1.8171154336455126,-2.5164373867436413e-15,2.007999341795134e-15,1.1306236592481114e-18,583.1214353858634,583.1214353858634,583.1214353858627,583.1214353858641
0.44000000000000006,4.041424326447943e-17,4.0,0.22029281806632073,4.483272767330554e-14,-1.2101979431542613e-14,3.6341082836518263e-16,1.279568983682994e-22,4.0,0.29572826195428326,6.176962487836404e-22,4.0654961687796566e-16,8.838109349536765e-16,1.0969743823730087,0.0,0.0,0.0,1.772946219455018,-2.3006772709446273e-15,2.12616798830128e-15,-8.02918639191638e-18,582.0127974414049,582.0127974414049,582.0127974414042,582.0127974414056
0.44400000000000006,4.122937739289507e-17,4.0,0.22473205721063813,4.3474175962637915e-14,-1.4068155538876486e-14,3.6126730527936443e-16,1.2764940911029659e-22,4.0,0.29982374456482985,6.162118820661625e-22,4.392355144186351e-16,8.665039189254966e-16,1.1043538841927465,0.0,0.0,0.0,1.7290844198938076,-2.095821066378686e-15,2.2233042677098446e-15,-1.3099917851990952e-17,580.9097817988898,580.90978179889,580.9097817988891,580.9097817988904
0.44800000000000006,4.1996287499855664e-17,4.0,0.22919954836928966,4.1983503815081697e-14,-1.5898057551218564e-14,3.6385787100254153e-16,1.2734101434466183e-22,4.0,0.30393128772924555,6.147231441215399e-22,4.683073671107293e-16,8.460907506570193e-16,1.1115527753355838,0.0,0.0,0.0,1.6855655238429978,-1.878989463769999e-15,2.2997339173162716e-15,-1.8567284761843584e-17,579.8133155401085,579.8133155401088,579.8133155401079,579.8133155401092
0.45200000000000007,4.270861479816339e-17,4.0,0.2336945650414128,4.0373233826177403e-14,-1.7555051906074126e-14,3.7424658739937023e-16,1.270317360396983e-22,4.0,0.30805059884933,6.132301409990645e-22,4.934494703445707e-16,8.226972528828473e-16,1.1185704957383744,0.0,0.0,0.0,1.6424096417650595,-1.666705507298009e-15,2.328549290708101e-15,-2.7808538234611995e-17,578.7239440116538,578.7239440116541,578.7239440116532,578.7239440116545
0.45600000000000007,4.33609703319742e-17,4.0,0.23821640767175878,3.866259881152985e-14,-1.903943094979018e-14,3.8331323618202136e-16,1.267215959318969e-22,4.0,0.3121813884144149,6.117329776289828e-22,5.143157337899094e-16,7.964517385450102e-16,1.1254089422536082,0.0,0.0,0.0,1.5995821224099362,-1.4675777680625538e-15,2.341801202635178e-15,-2.6716877007506255e-17,577.6408301975005,577.6408301975009,577.6408301975,577.6408301975011
0.4600000000000001,4.3948599344491807e-17,4.0,0.24276438057538827,3.686563143016938e-14,-2.0352563060113633e-14,3.861971261129158e-16,1.2641061552793556e-22,4.0,0.3163233699747358,6.102317578321475e-22,5.308105096600103e-16,7.676814405533587e-16,1.1320720739090908,0.0,0.0,0.0,1.5570943332747815,-1.2767789723129958e-15,2.3438515305103584e-15,-1.9893504424268612e-17,576.5642976566833,576.5642976566837,576.5642976566828,576.564297656684
0.4640000000000001,4.446744218686641e-17,4.0,0.24733779825301072,3.500675567123129e-14,-2.1504744081273636e-14,3.8839671145276187e-16,1.2609881610666275e-22,4.0,0.3204762601150138,6.087265843295922e-22,5.430752055090843e-16,7.366793894844012e-16,1.138562155490913,0.0,0.0,0.0,1.5149447469898805,-1.1073427280041695e-15,2.343952446828479e-15,-1.9239513255096827e-17,575.4943445146207,575.4943445146212,575.4943445146203,575.4943445146214
0.4680000000000001,4.49134777714519e-17,4.0,0.2519360010421964,3.316767924077279e-14,-2.2454201818737238e-14,3.9060104767282077e-16,1.2578621872106537e-22,4.0,0.3246397784282443,6.072175587520317e-22,5.511252636524528e-16,7.041117650529128e-16,1.1448829870188137,0.0,0.0,0.0,1.4730997922387887,-1.0277880372842028e-15,2.289046297440821e-15,-1.9362501656564712e-17,574.4301529678495,574.43015296785,574.430152967849,574.4301529678501
0.4720000000000001,4.5282775199039805e-17,4.0,0.25655831261494594,3.138133966553115e-14,-2.310400441779737e-14,3.932334040837055e-16,1.254728442002212e-22,4.0,0.32881364748969266,6.057047816492868e-22,5.541376721065484e-16,6.710621253785203e-16,1.1510363000333421,0.0,0.0,0.0,1.4316113780839899,-9.867655710838934e-16,2.1111673720703536e-15,-1.9980284530838086e-17,573.373078897478,573.3730788974784,573.3730788974776,573.3730788974785
0.4760000000000001,4.557323186291389e-17,4.0,0.2612040369519668,2.961820909695442e-14,-2.344367413091063e-14,3.9092835107066063e-16,1.2515871315123596e-22,4.0,0.332997592831094,6.041883524996356e-22,5.510160270101357e-16,6.382064015698249e-16,1.157019481115959,0.0,0.0,0.0,1.3905381299211221,-9.136216505063384e-16,1.8841812021154342e-15,-1.434815684827011e-17,572.3246595622377,572.3246595622381,572.3246595622375,572.3246595622384
0.4800000000000001,4.5783228187924624e-17,4.0,0.26587251880366414,2.7873509180430114e-14,-2.341104296718936e-14,3.87173219808955e-16,1.248438459611651e-22,4.0,0.33719134291505654,6.026683697190901e-22,5.409586963167296e-16,6.055542979215003e-16,1.1628330301028333,0.0,0.0,0.0,1.349816638286378,-8.352540800342878e-16,1.5610016136041351e-15,-1.2586876595225996e-17,571.2833196136321,571.2833196136324,571.2833196136319,571.2833196136326
0.4840000000000001,4.5912225940189045e-17,4.0,0.27056309002854634,2.6182766881934365e-14,-2.2936137884404134e-14,3.7475202029141523e-16,1.2452826279892049e-22,4.0,0.3413946291096666,6.011449306706013e-22,5.231191655183189e-16,5.730297260923924e-16,1.1684801649477383,0.0,0.0,0.0,1.3094911445531787,-7.984148000649988e-16,1.1206693583085436e-15,-2.3363719215314056e-18,570.2502322699079,570.2502322699081,570.2502322699077,570.2502322699082
0.4880000000000001,4.596177802817946e-17,4.0,0.2752751018022947,2.4543479718209374e-14,-2.2019204940035043e-14,3.5809601535889485e-16,1.2421198361716203e-22,4.0,0.34560718566329346,5.996181316731903e-22,4.966280667355249e-16,5.409295268065894e-16,1.173962645705784,0.0,0.0,0.0,1.2695409753204845,-7.611626784429008e-16,6.274449179719239e-16,3.094440844339049e-18,569.224911403698,569.224911403698,569.2249114036978,569.2249114036982
0.4920000000000001,4.5935097067794926e-17,4.0,0.28000788797959064,2.2945383208259747e-14,-2.0682652179623002e-14,3.3955170612351296e-16,1.2389502815417448e-22,4.0,0.3498287496795929,5.980880680110079e-22,4.614895663578758e-16,5.094728575231495e-16,1.1792804904751208,0.0,0.0,0.0,1.2300192417783151,-7.142985756684983e-16,1.1019524521385286e-16,5.9592267980491544e-18,568.2087658259917,568.2087658259916,568.2087658259916,568.2087658259917
0.4960000000000001,4.583690155109142e-17,4.0,0.28476078769072416,2.137190696217717e-14,-1.8965888747095326e-14,3.15569999967237e-16,1.2357741593572922e-22,4.0,0.35405906109270824,5.965548339423233e-22,4.183658161494902e-16,4.784672904242501e-16,1.1844330153341798,0.0,0.0,0.0,1.190933789401457,-6.497857245575646e-16,-4.096136853927043e-16,1.3048748627782434e-17,567.202047103749,567.2020471037489,567.2020471037489,567.202047103749
0.5000000000000001,4.567344858191457e-17,4.0,0.28953314724995705,1.9891785141381414e-14,-1.6939021567404414e-14,2.8966673334661137e-16,1.2325916627693161e-22,4.0,0.3582978626426669,5.95018522708441e-22,3.683465952560542e-16,4.480584928488115e-16,1.1894207675774704,0.0,0.0,0.0,1.1522884643333362,-6.661210788727602e-16,-8.954042044037e-16,1.6256168764084696e-17,566.2049048472851,566.2049048472848,566.204904847285,566.204904847285
0.5040000000000001,4.545201698833448e-17,4.0,0.2943243200871008,1.8537952950273287e-14,-1.4674025941735645e-14,2.6419553369407435e-16,1.229402982840536e-22,4.0,0.3625448998509709,5.934792265425478e-22,3.1297358525500016e-16,4.1894455184470323e-16,1.1942455411217967,0.0,0.0,0.0,1.1140870640611855,-7.262664154340456e-16,-1.3357646214414837e-15,1.6794893718677475e-17,565.2174879821913,565.2174879821907,565.2174879821911,565.217487982191
0.5080000000000001,4.518081010878876e-17,4.0,0.2991336667060692,1.7301637186885268e-14,-1.2259550938710588e-14,2.4135492073220513e-16,1.2262083085635193e-22,4.0,0.3667999209963806,5.919370366784898e-22,2.540180897706436e-16,3.9187679309823943e-16,1.1989091130386709,0.0,0.0,0.0,1.0763332844475628,-7.838578311209249e-16,-1.7062966600662994e-15,1.4749436143746435e-17,564.2399433451312,564.2399433451305,564.239943345131,564.2399433451308
0.512,4.486788703350341e-17,4.0,0.3039605546619143,1.6194735627783076e-14,-9.722185570008709e-15,2.1512744918248093e-16,1.2230078268787183e-22,4.0,0.3710626770908894,5.903920433594801e-22,1.9305296848629825e-16,3.6714389320181166e-16,1.2034132509801454,0.0,0.0,0.0,1.0390306831381382,-8.625156068134814e-16,-2.061954725263745e-15,1.962688040584003e-17,563.2724146900725,563.2724146900717,563.2724146900723,563.272414690072
0.516,4.4521527250466763e-17,4.0,0.3088043585527115,1.520585116577886e-14,-7.077806227934739e-15,1.8610882824906763e-16,1.2198017226923673e-22,4.0,0.37533292185588896,5.888443358467375e-22,1.3098009703454243e-16,3.447423913271433e-16,1.207759717674095,0.0,0.0,0.0,1.0021826497600768,-9.359414984258818e-16,-2.4177746506098512e-15,2.3949348446593865e-17,562.3150418611187,562.315041861118,562.3150418611185,562.3150418611182
0.52,4.4151253508995335e-17,4.0,0.31366446002320586,1.435281085715695e-14,-4.4350268991750735e-15,1.5405227529216755e-16,1.2165901788942355e-22,4.0,0.3796104116985217,5.872940024280573e-22,6.88018692453945e-17,3.247896356197218e-16,1.211950274460305,0.0,0.0,0.0,0.965792381915175,-1.037564538653605e-15,-2.6766888388345526e-15,2.8676737085093165e-17,561.3679601083736,561.3679601083725,561.3679601083734,561.3679601083728
0.524,4.3765935482082075e-17,4.0,0.31854025295537214,1.3671156813612137e-14,-1.837493608955918e-15,1.1790080475530085e-16,1.213373376375241e-22,4.0,0.3838949056882217,5.857411304263139e-22,8.002024279625918e-18,3.075705032499851e-16,1.2159872018585705,0.0,0.0,0.0,0.929852357747011,-1.1893850651098736e-15,-2.886222856929429e-15,3.47658372224098e-17,560.4310253508661,560.431025350865,560.4310253508659,560.4310253508653
0.528,4.33740666277188e-17,4.0,0.3234311566831273,1.3129955853158722e-14,6.899870166499288e-16,6.791711018551583e-17,1.2101514940449252e-22,4.0,0.38818616553344054,5.841858062078961e-22,-5.024394241450892e-17,2.934710703197888e-16,1.2198746212279177,0.0,0.0,0.0,0.8943278849151683,-1.3163278278975818e-15,-3.0681913254547586e-15,5.240032539103032e-17,559.5033819000671,559.5033819000658,559.5033819000669,559.5033819000663
0.532,4.298486145598575e-17,4.0,0.32833659452085057,1.2685655684336449e-14,3.02690317844092e-15,8.65193053193035e-18,1.2069247088487875e-22,4.0,0.39248395555855753,5.826281151910758e-22,-1.0477381372667387e-16,2.822536729119418e-16,1.2236163467665484,0.0,0.0,0.0,0.8592270750668318,-1.4016398544578538e-15,-3.1217069281069276e-15,6.529031600369975e-17,558.5852883881463,558.585288388145,558.5852883881461,558.5852883881456
0.536,4.2606162160365266e-17,4.0,0.33325597792509976,1.233054701016697e-14,5.1328832055661585e-15,-5.928952324086451e-17,1.2036931957854848e-22,4.0,0.396788042680973,5.810681418543104e-22,-1.5404357175839384e-16,2.732709367155226e-16,1.2272126295432173,0.0,0.0,0.0,0.8245900952812879,-1.4842656111434939e-15,-3.10833651032757e-15,7.785858963674556e-17,557.6778451624971,557.6778451624957,557.6778451624969,557.6778451624964
0.54,4.2244220651820785e-17,4.0,0.33818870056311023,1.2093508353711725e-14,7.048850837827126e-15,-1.2900930696868165e-16,1.2004571279238936e-22,4.0,0.401098196388383,5.795059697444795e-22,-1.9726512856840867e-16,2.663128434192142e-16,1.230660622832652,0.0,0.0,0.0,0.7904695666869166,-1.6064649681231468e-15,-3.1165449304196384e-15,8.272999265268131e-17,556.7824862429947,556.7824862429933,556.7824862429944,556.782486242994
0.544,4.190531854399192e-17,4.0,0.34313418765480286,1.1965363806229338e-14,8.746996176119535e-15,-1.954742895203896e-16,1.1972166764200362e-22,4.0,0.4054141887162341,5.779416814850558e-22,-2.346089691096657e-16,2.6157646029360367e-16,1.2339605472667656,0.0,0.0,0.0,0.7568185747791589,-1.725857742887386e-15,-3.0864020953917525e-15,8.179979392298332e-17,555.8980359851965,555.8980359851952,555.8980359851962,555.898035985196
0.548,4.1595019256353696e-17,4.0,0.3480919014284954,1.1921767363475455e-14,1.0203208011624192e-14,-2.623767940233484e-16,1.1939720105338738e-22,4.0,0.40973579422535716,5.763753587842118e-22,-2.660450171270489e-16,2.5907919169158014e-16,1.2371193062348904,0.0,0.0,0.0,0.7235781639599312,-1.8241778754844403e-15,-3.0115912393509007e-15,8.505379998777485e-17,555.0229933314895,555.022993331488,555.0229933314891,555.0229933314888
