Time_s,X,Y,Z,Roll_deg,Pitch_deg,Yaw_deg,Ref_X,Ref_Y,Ref_Z,Ref_Yaw,vx,vy,vz,p,q,r,T_pert,tau_x,tau_y,tau_z,RPM_0,RPM_1,RPM_2,RPM_3
0.0040000000000000036,3.540239794309915e-22,-6.0,0.010006999594037988,1.030927412343402e-18,1.9273866450044995e-18,-5.1486728461073835e-21,2.3110657071748654e-22,-6.0,0.010074639714689831,1.7916199615202707e-22,-1.8465271353911924e-19,-1200.0,2.0013999188075973,0.0,0.0,0.0,0.13727673356390743,-1.2038473377160515e-18,-3.683021169308074e-18,1.800587151680914e-20,539.3555031529193,539.3555031529194,539.3555031529193,539.3555031529194
0.007999999999999993,1.9812678274751357e-22,-6.0,0.01001099936604295,6.771774911299838e-19,3.7479884741046936e-19,6.830176131541204e-20,2.3109003058650283e-22,-6.0,0.01021705724096241,1.7914917365687059e-22,-1.199125285063292e-19,-666.6666666666666,1.112333262893661,0.0,0.0,0.0,0.28307763445396705,3.425879812716135e-19,4.826921632935392e-18,-8.516963572556575e-20,543.2938902409246,543.2938902409246,543.2938902409246,543.2938902409246
0.011999999999999997,1.7495155020803742e-22,-6.0,0.010014999147029455,-5.146485463588592e-19,2.2155928334288687e-19,1.0466883522319862e-19,2.310653696959898e-22,-6.0,0.010429397942859043,1.7913005566140433e-22,1.0028920295986394e-20,9.422104168492536e-24,0.000999943866873687,0.0,0.0,0.0,0.4294012161417058,1.3454268716368671e-18,-1.2638592169386786e-18,-4.486696967986688e-20,547.2178991661531,547.2178991661532,547.2178991661531,547.2178991661531
0.016,5.955045956397529e-24,-6.0,0.010018998946083438,-1.7344561104913328e-18,1.6190235072154796e-19,9.317505553021614e-20,2.310326863828539e-22,-6.0,0.010710815098006973,1.7910471839987987e-22,-2.4044903033926725e-20,-8.150747390288375e-24,0.0009999466368180304,0.0,0.0,0.0,0.5762362185834609,1.4596016984070322e-18,1.7734083345503402e-18,9.54826523409193e-21,551.1275382973588,551.1275382973588,551.1275382973588,551.1275382973588
0.020000000000000004,1.8357408955468196e-22,-6.0,0.010022998767309147,-1.845977253329655e-18,1.141641329557212e-18,2.906954202387603e-20,2.3099207809276586e-22,-6.0,0.0110604696579496,1.790732374156313e-22,-2.451052048362723e-20,-2.503943484499192e-23,0.000999951260884438,0.0,0.0,0.0,0.7235715100403757,2.488330745625769e-19,-5.05204261822335e-18,7.14785905793848e-20,555.0228180311838,555.0228180311838,555.0228180311838,555.0228180311838
0.024000000000000007,1.0737780041144201e-22,-6.0,0.010026998611960769,-2.705913386995077e-18,6.440758705783705e-19,1.6388042277746455e-20,2.309436413873475e-22,-6.0,0.011477530186265229,1.7903568756664676e-22,1.3506126028199656e-21,-3.621446129398104e-23,0.0009999568005545495,0.0,0.0,0.0,0.8713960702936046,1.1304075855822806e-18,3.3137877868649795e-18,1.4039109250592875e-20,558.9037502847705,558.9037502847706,558.9037502847705,558.9037502847705
0.027999999999999997,5.336452742711862e-23,-6.0,0.010030998479731056,-1.824261478945533e-18,1.5685150043563278e-19,1.0655457005203791e-19,2.308874719513042e-22,-6.0,0.011961172797154362,1.789921430310976e-22,-1.6648916905197707e-20,-3.780378406067233e-23,0.0009999625939565923,0.0,0.0,0.0,1.0196989912959737,-8.444967191881097e-19,3.306738154350232e-19,-1.0558339662080387e-19,562.7703484631118,562.7703484631119,562.7703484631118,562.7703484631118
0.032,1.2840647422207364e-23,-6.0,0.010034998369231383,-2.0160635450840707e-18,5.451534908479361e-20,9.387307030590828e-20,2.308236645995032e-22,-6.0,0.012510581094492131,1.7894267731282594e-22,-1.100461224444891e-20,-3.850698151247244e-23,0.0009999682538515409,0.0,0.0,0.0,1.1684694777883478,3.4872081363681527e-19,-1.997124747795184e-21,1.085633632563268e-20,566.6226274273959,566.622627427396,566.6226274273959,566.6226274273959
0.036000000000000004,4.181392744446207e-24,-6.0,0.010038998278697276,-2.789502632273545e-18,-3.730633932328745e-21,2.8688762560062077e-19,2.307523132839982e-22,-6.0,0.013124946111342446,1.7888736324679027e-22,-1.115278887439801e-20,-3.951132987668034e-23,0.0009999735662910916,0.0,0.0,0.0,1.3176968458508882,1.0410330863173031e-18,-2.7138443345201915e-19,-2.289089472729209e-19,570.4606034122532,570.4606034122534,570.4606034122532,570.4606034122532
0.04000000000000001,-5.043114798102035e-23,-6.0,0.010042998206219596,-3.0239384043736993e-18,-3.7145557192136635e-19,4.751513006827444e-19,2.3067351110100106e-22,-6.0,0.013803466249930549,1.7882627300447015e-22,-5.468783045034772e-22,-4.5315047624165654e-23,0.0009999784339385226,0.0,0.0,0.0,1.4673705228750595,4.645110530068637e-19,9.744749151895101e-19,-2.3128548342536305e-19,574.2842939830241,574.2842939830242,574.2842939830241,574.2842939830241
0.044,-6.158752812997113e-23,-6.0,0.010046998149864508,-3.2131905215426138e-18,-6.1536652462800895e-19,4.743470014680864e-19,2.3058735029780027e-22,-6.0,0.014545347222070593,1.787594780992297e-22,-1.057538080649366e-20,-5.1777362281870614e-23,0.0009999828289241133,0.0,0.0,0.0,1.617480046821397,4.277799095645138e-19,-1.4820644623614786e-19,-1.8155430027484038e-20,578.0937179771544,578.0937179771545,578.0937179771544,578.0937179771544
0.048,-3.759469703624068e-23,-6.0,0.010050998107830101,-3.606305514251345e-18,-4.8282350913183095e-19,4.015753961148339e-19,2.3049392227962713e-22,-6.0,0.015349801990044966,1.7868704939164056e-22,7.587583779497266e-22,-5.717446006774855e-23,0.0009999867514211627,0.0,0.0,0.0,1.768015065188224,6.787787024551774e-19,-5.102237875669951e-19,6.594625661038175e-20,581.8888954411059,581.888895441106,581.8888954411059,581.888895441106
0.052000000000000005,-1.4085207860235512e-23,-6.0,0.010054998078596755,-3.525926938245652e-18,-3.205498846743343e-19,4.981641412582437e-19,2.3039331761647e-22,-6.0,0.016216050707932004,1.786090570947644e-22,4.783653493543139e-21,-5.972667440099516e-23,0.000999990246260997,0.0,0.0,0.0,1.9189653340737722,1.5274705850751733e-19,-1.6814439223734436e-19,-1.289057201843622e-19,585.6698475725008,585.6698475725008,585.6698475725008,585.6698475725008
0.05600000000000001,-2.766764970961267e-23,-6.0,0.010058998060643264,-3.478372000295345e-18,-3.9169967523388253e-19,5.584171818574742e-19,2.302856260498366e-22,-6.0,0.01714332066337891,1.7852557077939534e-22,4.072860394198948e-23,-6.101709527620283e-23,0.0009999933489416094,0.0,0.0,0.0,2.0703207181145515,1.855798063364642e-19,5.201067130946032e-19,-9.042666742583075e-20,589.4365966866516,589.4365966866517,589.4365966866516,589.4365966866516
0.06,-2.9827672245131155e-23,-6.0,0.010062998052692663,-3.4548965361317648e-18,-4.550693946536468e-19,6.21045662562999e-19,2.30170936499465e-22,-6.0,0.01813084621981657,1.7843665937926265e-22,-6.024353569712964e-22,-6.072940891690479e-23,0.0009999960997816165,0.0,0.0,0.0,2.222071188488582,2.1044626850169181e-19,-1.8562796806724004e-20,-9.567630036315777e-20,593.1891661370678,593.1891661370679,593.1891661370678,593.1891661370678
0.064,-4.602311025647285e-23,-6.0,0.010067355446486369,1.1939866006430844e-17,6.0878157878950094e-18,-2.7829380895944486e-19,2.3004933706998385e-22,-6.0,0.019177868759113068,1.783423911961939e-22,-2.2735867471241197e-21,-1.5834980202820086e-23,0.0010357378199668532,0.0,0.0,0.0,2.3734814879897765,-1.774070893502475e-17,-7.441347717677819e-18,1.025482089011158e-18,596.9098122516309,596.9098122516309,596.9098122516309,596.9098122516309
0.068,-4.215084518916538e-22,-6.0,0.010075885273369138,6.95022808366702e-17,4.963054619796468e-17,4.1972225476919625e-19,2.2992091505752197e-22,-6.0,0.02028363662466268,1.7824283390523892e-22,-3.977444778756706e-20,7.744635010037261e-22,0.0014887217891222312,0.0,0.0,0.0,2.51751306878383,-6.803397297191236e-17,-4.705965195432371e-17,-8.03552568798038e-19,600.4277419096609,600.427741909661,600.4277419096609,600.4277419096609
0.07200000000000001,-9.164486227068974e-22,-6.0,0.010093760054069647,1.29292789808187e-16,1.1534420121019013e-16,1.0351068393139344e-19,2.2978575695626755e-22,-6.0,0.02144740506490721,1.781380545597548e-22,-9.413113444633082e-20,4.305315892437745e-21,0.0028762001949745805,0.0,0.0,0.0,2.651279537141715,-7.457204515441962e-17,-7.842015520575353e-17,3.52562318521012e-19,603.6765882515944,603.6765882515945,603.6765882515944,603.6765882515944
0.07600000000000001,-1.0206357882924887e-21,-6.0,0.01012566947860132,1.768955200205623e-16,1.7145328748509371e-16,-2.41051650653596e-18,2.296439484649778e-22,-6.0,0.02266843617728647,1.7802811959645234e-22,-9.483847164475348e-20,1.2940278142075955e-20,0.005490585707918286,0.0,0.0,0.0,2.775586267171474,-6.442859789162707e-17,-7.753970276510853e-17,2.9329425755624455e-18,606.6800859345559,606.680085934556,606.6800859345559,606.6800859345559
0.08000000000000002,-6.335254742067994e-22,-6.0,0.010175869740284248,2.4812415005801965e-16,2.264715496898043e-16,-6.299575096469496e-18,2.2949557449343874e-22,-6.0,0.023945998852614794,1.7791309484040405e-22,-2.1806534848936076e-20,3.0729035025799574e-20,0.00925190001655491,0.0,0.0,0.0,2.89115398441031,-9.527251412286939e-17,-8.159721020673231e-17,4.642430130817282e-18,609.4591544975282,609.4591544975283,609.4591544975282,609.4591544975282
0.08399999999999999,2.801567976710122e-22,-6.0,0.010248228359376534,3.1530653495378007e-16,2.947730281590018e-16,-1.0655365021879251e-17,2.293407191688764e-22,-6.0,0.025279368719880475,1.7779304551001407e-22,7.315638437024484e-20,6.155800837309292e-20,0.014054353054569757,0.0,0.0,0.0,2.998626347889874,-9.541836527261776e-17,-1.0169279196463687e-16,5.3473427884342705e-18,612.0322293496523,612.0322293496524,612.0322293496523,612.0322293496523
0.088,2.152398352657378e-21,-6.0,0.01034626444834667,4.0500615650645967e-16,3.5532147889976155e-16,-1.8613211350610035e-17,2.2917946584231875e-22,-6.0,0.026667828091465062,1.7766803622195042e-22,2.0286976105836838e-19,1.1172182031122157e-19,0.019803151361305442,0.0,0.0,0.0,3.0985777731662596,-1.2630656283842316e-16,-1.0278937839889783e-16,9.733976396827092e-18,614.4155690748582,614.4155690748582,614.4155690748582,614.4155690748584
0.092,4.940923647726425e-21,-6.0,0.010473168764038513,5.187390648294535e-16,4.3359906495254844e-16,1.8579721183895017e-06,2.2901189709490944e-22,-6.0,0.028110665908779343,1.7753813099603955e-22,3.5479517639534103e-19,1.9043463641368282e-19,0.026411716279703918,0.0,0.0,0.0,3.1915531720778167,-1.605048832925655e-16,-1.2795322502220365e-16,-2.1704052351455055e-06,616.6275125816603,616.6275125816604,616.6210787549755,616.6210787549755
0.096,8.9742203332629e-21,-6.0,0.010631793225177797,6.410070750981162e-16,5.225834197463597e-16,6.648376708631691e-06,2.2883809474417365e-22,-6.0,0.029607177688313134,1.7740339326012374e-22,5.296544784615814e-19,3.070654316589765e-19,0.033796383733814175,0.0,0.0,0.0,3.2781292845494554,-1.782489244011872e-16,-1.5042384406627685e-16,-5.672244381410712e-06,618.6822900435129,618.682290043513,618.6655312676331,618.6655312676332
0.1,1.4736047012005776e-20,-6.0,0.010824817638014678,7.566608109938025e-16,6.049649750723232e-16,1.25972311493455e-05,2.286581398502359e-22,-6.0,0.031156665468095743,1.7726388585488156e-22,7.528814780787584e-19,4.647579577533448e-19,0.041889269470178105,0.0,0.0,0.0,3.358555366437055,-1.788861985148837e-16,-1.5550783465308132e-16,-7.222206420077086e-06,620.5825002516992,620.5825002516992,620.5612273380324,620.5612273380325
0.10400000000000001,2.2494298435060586e-20,-6.0,0.011054704079821225,8.811678413441111e-16,6.840202088331324e-16,1.9399233632242088e-05,2.284721127219908e-22,-6.0,0.03275843775456411,1.771196710386115e-22,1.0426987456566471e-18,6.667016986482638e-19,0.05063604943873044,0.0,0.0,0.0,3.4331788262699634,-1.9713315407036833e-16,-1.6186928238640688e-16,-8.46309734804285e-06,622.3401343173208,622.3401343173209,622.315276707755,622.3152767077551
0.10800000000000001,3.2441923261907323e-20,-6.0,0.011323707300570612,1.0126625528871454e-15,7.700820580260549e-16,2.6800859602416175e-05,2.282800929232266e-22,-6.0,0.034411809469835686,1.769708104919793e-22,1.364705276521049e-18,9.185968026726695e-19,0.05998608391783074,0.0,0.0,0.0,3.5023329896414013,-2.1380698185676816e-16,-1.7943823732360936e-16,-9.442864510090941e-06,623.9642787271293,623.9642787271293,623.9366155014487,623.9366155014487
0.11200000000000002,4.5049756106714496e-20,-6.0,0.011633894439829444,1.1386493256448626e-15,8.476871644885431e-16,3.4583473691262766e-05,2.2808215927870237e-22,-6.0,0.03611610189938309,1.7681736532272897e-22,1.7368969847790817e-18,1.2257133531437668e-18,0.06988868604271228,0.0,0.0,0.0,3.566317862230603,-2.1636710359751228e-16,-1.8284955275903997e-16,-1.0191853458784785e-05,625.4630314223037,625.4630314223036,625.433245501659,625.433245501659
0.11600000000000002,6.063525704169699e-20,-6.0,0.011987153509454326,1.2520580311955684e-15,9.153316444358052e-16,4.256236477005989e-05,2.278783898801784e-22,-6.0,0.03787064264010755,1.7665939607035804e-22,2.1681781837130647e-18,1.5818763933162817e-18,0.08029707847543258,0.0,0.0,0.0,3.625422301160376,-2.1029456141395436e-16,-1.8255640623364406e-16,-1.0740715198947227e-05,626.8440746883269,626.8440746883269,626.8127538276395,626.8127538276395
0.12,7.94624381298695e-20,-6.0,0.012385194725041801,1.3573515655868865e-15,9.733811103076422e-16,5.057766220314497e-05,2.2766886209240103e-22,-6.0,0.03967476554880826,1.76496962710757e-22,2.6612296527398563e-18,1.9777873496073557e-18,0.09116641899467384,0.0,0.0,0.0,3.6799382580440736,-2.0857336945450331e-16,-1.8167963618750848e-16,-1.111088252115618e-05,628.1150127219714,628.1150127219713,628.0826779559699,628.0826779559699
0.124,1.0169865799433302e-19,-6.0,0.012829622941403161,1.4600471914071467e-15,1.0284657459073416e-15,5.849429416539855e-05,2.2745365255904167e-22,-6.0,0.041527810691044824,1.763301246608136e-22,3.1925698596777217e-18,2.413651112682651e-18,0.10245919618393877,0.0,0.0,0.0,3.730016429648095,-2.1273992910470585e-16,-1.8701459244245892e-16,-1.1324759554799897e-05,629.2800468812617,629.2800468812617,629.2471506957602,629.2471506957603
0.128,1.2753106576883823e-19,-6.0,0.013321908176134434,1.5641718809824978e-15,1.0838912066318757e-15,6.6201012995218e-05,2.272328372085905e-22,-6.0,0.04342912429038966,1.7615894078298172e-22,3.747992489143172e-18,2.8943750243563078e-18,0.11414351300896157,0.0,0.0,0.0,3.7758707802498277,-2.214312636488417e-16,-1.9641113353610605e-16,-1.1404630206382025e-05,630.3447601094485,630.3447601094484,630.3116878690727,630.3116878690727
0.132,1.571462802575289e-19,-6.0,0.013863382188042925,1.6730874576795877e-15,1.1426573463496396e-15,7.360566819589376e-05,2.2700649126020523e-22,-6.0,0.04537805867806791,1.7598346938981565e-22,4.321621479918815e-18,3.429679615222471e-18,0.12618669684944844,0.0,0.0,0.0,3.8177266022745733,-2.3414603101863665e-16,-2.0951985165540117e-16,-1.1368234797353103e-05,631.3149038393907,631.3149038393906,631.2819878073461,631.2819878073462
0.136,1.9072561736244808e-19,-6.0,0.014455294210971428,1.782703426433425e-15,1.2095472195606536e-15,8.06336597845856e-05,2.267746892295152e-22,-6.0,0.047373972242981614,1.7580376824846954e-22,4.899494314526604e-18,4.0253680074345445e-18,0.13855956534522385,0.0,0.0,0.0,3.8557005682731655,-2.424118070097681e-16,-2.285741672055076e-16,-1.1232291107240864e-05,632.193636192866,632.193636192866,632.1611589952456,632.1611589952456
0.14,2.285831623451899e-19,-6.0,0.015098786871587305,1.894896449129186e-15,1.2786511100489744e-15,8.722562092392327e-05,2.265375049343812e-22,-6.0,0.0494162293821156,1.7561989458516264e-22,5.4932961045521226e-18,4.683477175567948e-18,0.15123707259755442,0.0,0.0,0.0,3.889960941700749,-2.529169163515424e-16,-2.4302140733810567e-16,-1.1011530543413775e-05,632.9852461354495,632.9852461354494,632.9534470835912,632.9534470835912
0.14400000000000002,2.709731378784991e-19,-6.0,0.01579489289035737,2.011856968607126e-15,1.3514184352309892e-15,9.333657479119851e-05,2.2629501150061117e-22,-6.0,0.05150420045132223,1.7543190508961035e-22,6.104617159268628e-18,5.4073689872592885e-18,0.16419335156442183,0.0,0.0,0.0,3.920686164442802,-2.661561018219691e-16,-2.5891959075726126e-16,-1.072032512510515e-05,633.6941984056913,633.6941984056913,633.6632749525779,633.6632749525779
0.14800000000000002,3.1848057874186313e-19,-6.0,0.016544576984589516,2.101453342156672e-15,1.3979036510287535e-15,9.893361324226447e-05,2.2604728136763237e-22,-6.0,0.05363726171648213,1.7523985591942145e-22,6.789967988505129e-18,6.180559450321124e-18,0.17740499282228367,0.0,0.0,0.0,3.9479732233052065,-2.4220013988922953e-16,-2.442125537927262e-16,-1.0370926084218897e-05,634.3230235320378,634.3230235320378,634.2931376239331,634.2931376239331
0.152,3.714736134806938e-19,-6.0,0.017348721143160172,2.1485432444834884e-15,1.4029838668417584e-15,0.00010399413745528459,2.257943862941201e-22,-6.0,0.0558147953050383,1.7504380270446173e-22,7.617320943019154e-18,6.941403025299573e-18,0.19085201487496412,0.0,0.0,0.0,3.971951241798143,-1.9869076894382173e-16,-2.0805915438642633e-16,-9.97402502512915e-06,634.8749489513366,634.8749489513366,634.846231807288,634.8462318072881
0.156,4.299411040254945e-19,-6.0,0.01820812811352864,2.1626989149406867e-15,1.3744138666223969e-15,0.00010850461170138169,2.2553639736358333e-22,-6.0,0.05803618915790083,1.7484380055118416e-22,8.608116096384643e-18,7.628970902980401e-18,0.2045147464472683,0.0,0.0,0.0,3.9927449869819,-1.6345251866398102e-16,-1.7407241551799592e-16,-9.53928109321108e-06,635.3530604190947,635.3530604190947,635.3256156828213,635.3256156828213
0.16,4.940552408092752e-19,-6.0,0.0191235261592253,2.131764456517009e-15,1.2889528557856613e-15,0.0001124593156899678,2.2527338498990793e-22,-6.0,0.06030083698171933,1.746399040469261e-22,9.773992973115515e-18,8.201310409483359e-18,0.21837365617543014,0.0,0.0,0.0,4.0104721794118605,-1.117673127374826e-16,-1.1282978087378828e-16,-9.075268135655496e-06,635.7602443389786,635.7602443389786,635.7341513294668,635.7341513294668
0.164,5.634433690454562e-19,-6.0,0.02009557332874857,2.057928493697857e-15,1.1576395784860531e-15,0.00011585922297131593,2.2500541892285698e-22,-6.0,0.06260813820152066,1.7443216726417344e-22,1.1124911273147326e-17,8.619503472501794e-18,0.23241037493647312,0.0,0.0,0.0,4.0252443326222656,-5.955446455365683e-17,-5.44398892443972e-17,-8.589570723544779e-06,636.0992112360434,636.0992112360435,636.0745278809563,636.0745278809565
0.168,6.375880466388428e-19,-6.0,0.02112486130388256,1.9449148960446268e-15,9.871491001542825e-16,0.00011871099571806661,2.2473256825352944e-22,-6.0,0.06495749791370911,1.742206437647923e-22,1.2629206247724693e-17,8.850168740056349e-18,0.24660757658955568,0.0,0.0,0.0,4.037167470142002,-8.75639285814416e-18,1.2311858413063315e-18,-8.088874044452223e-06,636.3725158908803,636.3725158908804,636.349281368563,636.349281368563
0.17200000000000001,7.157095361932526e-19,-6.0,0.022211918883083333,1.804527707645233e-15,7.952031247626864e-16,0.00012102608573430189,2.244549014197767e-22,-6.0,0.06734832683942642,1.740053866042282e-22,1.4207013638650452e-17,8.882122405919201e-18,0.26094887597183225,0.0,0.0,0.0,4.0463427429708965,3.093677375187897e-17,4.2321680599528627e-17,-7.5790467155324465e-06,636.5825747462018,636.5825747462019,636.5608118634166,636.5608118634167
0.17600000000000002,7.970536565913169e-19,-6.0,0.02335721514807951,1.6485902456611039e-15,5.862358481273008e-16,0.00012281993226099865,2.2417248621157785e-22,-6.0,0.0697800412782689,1.737864483356731e-22,1.5813900668816883e-17,8.72483846093454e-18,0.2754187404443165,0.0,0.0,0.0,4.052866960968354,5.86953409486519e-17,8.000660940362929e-17,-7.065216941538524e-06,636.7316809648981,636.7316809648983,636.711398295046,636.711398295046
0.18000000000000002,8.809147412706497e-19,-6.0,0.02456116235529545,1.4734074167080362e-15,3.5359588042440975e-16,0.00012411124785811372,2.238853897763738e-22,-6.0,0.07225206306235925,1.735638810142006e-22,1.7423201956031038e-17,8.400762290553494e-18,0.29000241309534436,0.0,0.0,0.0,4.056833049889583,9.183215299280313e-17,1.2664634673772187e-16,-6.551842461565816e-06,636.8220174663077,636.8220174663078,636.8032112706358,636.8032112706359
0.184,9.664580919661461e-19,-6.0,0.025824119685380367,1.2922812353721904e-15,9.432676519116048e-17,0.00012492395347162255,2.235936786243603e-22,-6.0,0.07476381951077025,1.7333773620086924e-22,1.90719334899878e-17,7.923938783691082e-18,0.3046859557529754,0.0,0.0,0.0,4.058328217171003,1.1075181551331403e-16,1.8041662785034466e-16,-6.0457758920135474e-06,636.8556213941549,636.8556213941552,636.838268731003,636.8382687310032
0.188,1.0526770856668762e-18,-6.0,0.027146395006015834,1.0985612305727004e-15,-1.8713786443969772e-16,0.00012527981065341997,2.2329741863374043e-22,-6.0,0.07731474338429796,1.7310806496679463e-22,2.0748359005850204e-17,7.293861209307331e-18,0.31945612284726976,0.0,0.0,0.0,4.057437863975636,1.3784386910050962e-16,2.335049385516551e-16,-5.545476990149332e-06,636.8344604120058,636.834460412006,636.8185432021952,636.8185432021953
0.192,1.1385569119913302e-18,-6.0,0.028528244727014845,8.841183474463084e-16,-4.94493388221431e-16,0.00012520360180181292,2.229966750559372e-22,-6.0,0.07990427284058149,1.7287491789719012e-22,2.2454857235751818e-17,6.501558186132237e-18,0.33430005126306483,0.0,0.0,0.0,4.054249400211931,1.7528967892614622e-16,2.9334502427299243e-16,-5.055368181617177e-06,636.7605426564382,636.7605426564386,636.746030539904,636.7460305399042
0.196,1.2229306513274837e-18,-6.0,0.029969878418121307,6.452565537051696e-16,-8.262623551151964e-16,0.00012471955204783653,2.226915125207656e-22,-6.0,0.08253185138956737,1.7263834509537655e-22,2.4192688645089765e-17,5.491007919484189e-18,0.34920529644417925,0.0,0.0,0.0,4.048842582670269,2.1846854496971355e-16,3.5584307079893635e-16,-4.575816135146355e-06,636.6356821420321,636.6356821420325,636.6225440823001,636.6225440823002
0.2,1.3045333957356907e-18,-6.0,0.03147146146282413,3.8345337115560785e-16,-1.18096663307556e-15,0.0001238548012546368,2.223819950415653e-22,-6.0,0.08519692784931539,1.7239839618676131e-22,2.5946664406187608e-17,4.2263279658349186e-18,0.3641602536685836,0.0,0.0,0.0,4.0412933532373465,2.6159188396630076e-16,4.2040429372869627e-16,-4.111220480584312e-06,636.4615999250171,636.4615999250174,636.4497925936369,636.4497925936369
0.20400000000000001,1.3818297683648307e-18,-6.0,0.03303311389784158,1.1644464853139742e-16,-1.5386525640855615e-15,0.00012263723669057546,2.220681860202939e-22,-6.0,0.08789895630214385,1.7215512032278675e-22,2.7652752838429156e-17,2.709483703211314e-18,0.37915367520861726,0.0,0.0,0.0,4.031681495019362,2.8557328440569667e-16,4.674569363138734e-16,-3.663568755526011e-06,636.2400920658564,636.2400920658566,636.2295667274435,636.2295667274435
0.20800000000000002,1.453503533282236e-18,-6.0,0.03465491389001933,-1.4689941834605952e-16,-1.9044910520336196e-15,0.00012109442858170984,2.2175014825258103e-22,-6.0,0.0906373960511115,1.7190856618484825e-22,2.9273897445563384e-17,1.000486162989718e-18,0.3941746113096435,0.0,0.0,0.0,4.020081257118033,2.995526370006658e-16,5.195094916187883e-16,-3.23363574540512e-06,635.9728172636271,635.9728172636276,635.9635232163209,635.963523216321
0.21200000000000002,1.5180609569747306e-18,-6.0,0.03633689951898387,-4.0879400727663226e-16,-2.2681341408794703e-15,0.00011925382766981138,2.214279439327436e-22,-6.0,0.0934117115768337,1.7165878198818237e-22,3.0748370627665454e-17,-8.484392310191685e-19,0.409212634083899,0.0,0.0,0.0,4.0065646817692535,3.158681266233004e-16,5.632473712749764e-16,-2.8224139958836086e-06,635.6613764263205,635.6613764263209,635.6532603368241,635.6532603368242
0.21600000000000003,1.5741043658228257e-18,-6.0,0.03807907223114891,-6.677588022315939e-16,-2.628839831354738e-15,0.0001171410913910502,2.211016346587627e-22,-6.0,0.09622137249463046,1.7140581548572489e-22,3.2067748891155105e-17,-2.816119953323931e-18,0.42425800674982667,0.0,0.0,0.0,3.9911981549543167,3.3035588452194493e-16,6.061546640831568e-16,-2.4289358582365488e-06,635.3072311583798,635.3072311583802,635.3002426611357,635.3002426611359
0.22000000000000003,1.6202978828865526e-18,-6.0,0.03988140129790214,-9.230528275837884e-16,-2.990300590221329e-15,0.00011478314555898349,2.207712814372218e-22,-6.0,0.09906585351200385,1.7114971397193943e-22,3.32129684372624e-17,-4.902699948923995e-18,0.439301863928341,0.0,0.0,0.0,3.974040257760719,3.4377803491392635e-16,6.536928161055436e-16,-2.0557365747141957e-06,634.9116628003936,634.9116628003941,634.9057443863588,634.9057443863588
0.22400000000000003,1.6552409698674489e-18,-6.0,0.041743812498635915,-1.1798466354487302e-15,-3.3495578827891604e-15,0.00011220650398105359,2.2043694468820766e-22,-6.0,0.10194463438644233,1.708905242866164e-22,3.419853661416087e-17,-7.100219144632082e-18,0.45433492151199245,0.0,0.0,0.0,3.955173639656664,3.629869905854232e-16,6.9978384709309115e-16,-1.70344051757491e-06,634.4764995392129,634.4764995392134,634.4715920170056,634.4715920170057
0.22800000000000004,1.677438063966591e-18,-6.0,0.043666199565414815,-1.4425736819128441e-15,-3.693306486670895e-15,0.00010943523235725228,2.200986842501729e-22,-6.0,0.10485719988354963,1.706282928186429e-22,3.498432657087515e-17,-9.446933885924341e-18,0.4693478545083972,0.0,0.0,0.0,3.934659183651414,3.874755952428925e-16,7.325651293013291e-16,-1.3702766524515196e-06,634.0030614659933,634.0030614659937,633.9991108263458,633.9991108263459
0.23200000000000004,1.6848388652109898e-18,-6.0,0.04564843317368276,-1.7016247362839419e-15,-3.9491165395082955e-15,0.00010649281416449835,2.197565593847616e-22,-6.0,0.10780303973549585,1.7036306550974365e-22,3.531319506653688e-17,-1.1942682860499231e-17,0.484333050086233,0.0,0.0,0.0,3.9125406212769773,4.011489188465605e-16,6.875362756218109e-16,-1.0565530658121886e-06,633.492272626459,633.4922726264593,633.4892240281838,633.4892240281839
0.236,1.6758445808612024e-18,-6.0,0.047690348912872015,-1.951825005608756e-15,-4.06302243785985e-15,0.00010340339693138247,2.1941062878159734e-22,-6.0,0.11078164859978819,1.7009488785819281e-22,3.470136916584567e-17,-1.4567057008384702e-17,0.4992832743985147,0.0,0.0,0.0,3.8888869060485085,4.0852809601486463e-16,5.700608040121597e-16,-7.640097821472477e-07,632.945638072664,632.9456380726645,632.9434316819218,632.9434316819219
0.24,1.6494744774273995e-18,-6.0,0.049791742851605106,-2.1532627517515336e-15,-3.990660075639692e-15,0.00010018888101853627,2.190609505630349e-22,-6.0,0.11379252601835947,1.698238049224977e-22,3.2631543078460885e-17,-1.7183139204041875e-17,0.514189822416302,0.0,0.0,0.0,3.8637771830821794,3.686958058892914e-16,3.853619970789191e-16,-4.910133291660773e-07,632.3648925777507,632.364892577751,632.3634732745572,632.3634732745572
0.244,1.6059376305234633e-18,-6.0,0.0519523900766651,-2.2955821650592562e-15,-3.7386536117445464e-15,9.687098436148951e-05,2.18707582288875e-22,-6.0,0.11683517637697123,1.6954986132505373e-22,2.892322376325615e-17,-1.956618198388103e-17,0.5290447072551017,0.0,0.0,0.0,3.8372543043426743,3.134362043349231e-16,1.827825128143779e-16,-2.3824990478483307e-07,631.7509349025594,631.7509349025596,631.7502455581765,631.7502455581765
0.248,1.5458740163368562e-18,-6.0,0.054172024389164464,-2.3928152246783804e-15,-3.2870231863026785e-15,9.347042740646247e-05,2.1835058096104257e-22,-6.0,0.11990910886493009,1.6927310125577139e-22,2.3461955510402524e-17,-2.155461423943108e-17,0.5438400375288477,0.0,0.0,0.0,3.809403069195889,2.705195475797426e-16,-6.04349227396292e-17,-5.446092077604203e-09,631.1056324713743,631.1056324713745,631.1056166977284,631.1056166977282
0.252,1.4710396060792377e-18,-6.0,0.0564503523318427,-2.4508664115222552e-15,-2.652738177901691e-15,9.000645309277844e-05,2.1799000302822955e-22,-6.0,0.12301383743511429,1.689935684756752e-22,1.6286130392541703e-17,-2.314329336210778e-17,0.5585676569541564,0.0,0.0,0.0,3.7802811956054096,2.314146326550706e-16,-3.1085579442884844e-16,2.0827322244982557e-07,630.4302264849449,630.430226484945,630.4308303575982,630.4308303575981
0.256,1.3839764892060217e-18,-6.0,0.05878705938768292,-2.4978130762765147e-15,-1.8594235626135572e-15,8.649632060735165e-05,2.176259043905013e-22,-6.0,0.12614888076430864,1.6871130632047505e-22,7.526484228189185e-18,-2.4435877072772386e-17,0.5732207783938458,0.0,0.0,0.0,3.7499347608796274,2.224172003259016e-16,-5.566453582587789e-16,4.044351982900155e-07,629.7256877868311,629.7256877868311,629.7268617278918,629.7268617278916
0.26,1.287829990810416e-18,-6.0,0.06118181733457208,-2.5114823259789952e-15,-9.292300981713854e-16,8.295702021040812e-05,2.172583404038677e-22,-6.0,0.12931376221384513,1.6842635770410977e-22,-2.5399373210098453e-18,-2.550572842973123e-17,0.5877946325665719,0.0,0.0,0.0,3.7183956573193218,1.8676840900136692e-16,-7.96454604328684e-16,5.82645266585984e-07,628.9926604618304,628.9926604618304,628.9943536577842,628.9943536577841
0.264,1.1869459379431977e-18,-6.0,0.06363426210676561,-2.440874019183328e-15,4.991233514293723e-17,7.94038334843278e-05,2.168873658848192e-22,-6.0,0.1325080097905475,1.6813876512226353e-22,-1.3436990262850778e-17,-2.6209841273457657e-17,0.6022834292179147,0.0,0.0,0.0,3.6857412141216934,8.928951171007927e-17,-9.594470078533168e-16,7.442017584960439e-07,628.2328427618575,628.2328427618573,628.235008063815,628.2350080638147
0.268,1.0853638507268134e-18,-6.0,0.06614401773381054,-2.2615840994269198e-15,1.0462237241659742e-15,7.58514427549283e-05,2.165130351148274e-22,-6.0,0.13573115610797695,1.6784857065585504e-22,-2.452867415172164e-17,-2.611672748337489e-17,0.616681329652726,0.0,0.0,0.0,3.652001387693905,-4.244989214635883e-17,-1.0886568293501364e-15,8.891771894972435e-07,627.446835372738,627.4468353727377,627.4494257298745,627.4494257298743
0.272,9.865693819450458e-19,-6.0,0.0687106735395846,-1.9780291987395482e-15,2.087784336427128e-15,7.231294770687548e-05,2.1613540184481135e-22,-6.0,0.13898273834797736,1.6755581597449983e-22,-3.549466978101155e-17,-2.488610033148578e-17,0.630982234261588,0.0,0.0,0.0,3.617252857316024,-1.7646375819972093e-16,-1.2487129590033084e-15,1.0188174311724082e-06,626.6363272090445,626.6363272090441,626.639299073041,626.6392990730407
0.276,8.94442457452857e-19,-6.0,0.07133380982230886,-1.6071908398230292e-15,3.1768122162185393e-15,6.880078604989785e-05,2.157545192995691e-22,-6.0,0.14226229822251726,1.672605423399458e-22,-4.6446338786345535e-17,-2.243140772900029e-17,0.6451808343441764,0.0,0.0,0.0,3.581521358603743,-2.9777763678020013e-16,-1.4219596573494005e-15,1.1333578597196626e-06,625.8018240618316,625.8018240618312,625.8051344448778,625.8051344448776
0.28,8.131503114497555e-19,-6.0,0.07401296820347263,-1.1667925149166094e-15,4.302961420011522e-15,6.532637607539215e-05,2.15370440182175e-22,-6.0,0.14556938193582666,1.669627906094822e-22,-5.743351962092631e-17,-1.8810177557987368e-17,0.6592710024032806,0.0,0.0,0.0,3.5448931596548157,-4.043638692171024e-16,-1.5929963295170962e-15,1.2334785845654402e-06,624.945247295576,624.9452472955754,624.9488550548547,624.9488550548543
0.28400000000000003,7.47018839998605e-19,-6.0,0.07674767617590694,-6.59042077742296e-16,5.452928121943192e-15,6.189955771934481e-05,2.14983216678343e-22,-6.0,0.14890354014682666,1.6666260123932222e-22,-6.834597554836742e-17,-1.412649918420422e-17,0.6732466414113001,0.0,0.0,0.0,3.5074060077790405,-5.131285948159055e-16,-1.7564423249206102e-15,1.3205545026256918e-06,624.0673884488534,624.067388448853,624.0712563258788,624.0712563258786
0.28800000000000003,7.008546725139148e-19,-6.0,0.07953745750445516,-1.3825025629717576e-16,6.574235670524714e-15,5.8529591990270296e-05,2.145929004607566e-22,-6.0,0.15226432793184938,1.6636001428795952e-22,-7.887555468629558e-17,-8.560486162564462e-18,0.6871041787339659,0.0,0.0,0.0,3.4690770587954622,-5.630786210659345e-16,-1.8695727112293502e-15,1.3948578332972457e-06,623.1685597341394,623.1685597341389,623.1726511360882,623.1726511360879
0.29200000000000004,6.787846084848593e-19,-6.0,0.08238178750108353,3.7784268815297355e-16,7.673150645388718e-15,5.522519834567408e-05,2.1419954269336466e-22,-6.0,0.15565130474764627,1.6605506941949883e-22,-8.869765828000652e-17,-2.4381666625124725e-18,0.7008380412657487,0.0,0.0,0.0,3.430014423132085,-5.932045703078359e-16,-1.984318470093018e-15,1.456640906982796e-06,622.2512104062671,622.2512104062665,622.2554893287668,622.2554893287664
0.29600000000000004,6.847859091868275e-19,-6.0,0.08528012060004352,9.1546881646903e-16,8.757421183442713e-15,5.199341128929507e-05,2.1380319403564443e-22,-6.0,0.1590640343946827,1.6574780590696055e-22,-9.769924447807987e-17,4.019028182954552e-18,0.7144406260393004,0.0,0.0,0.0,3.3902718570593477,-6.536412264857046e-16,-2.1084962458933997e-15,1.5075139671391107e-06,621.3165211844331,621.3165211844324,621.3209562092502,621.3209562092499
0.30000000000000004,7.228590402798321e-19,-6.0,0.0882319050762416,1.4801721664308118e-15,9.82444958315791e-15,4.8840856140923285e-05,2.134039046468316e-22,-6.0,0.16250208498071647,1.6543826263556008e-22,-1.0598920246861785e-16,1.0913260578238026e-17,0.7279066138705964,0.0,0.0,0.0,3.349873976214675,-7.220243253780869e-16,-2.232484510526553e-15,1.5476661459623755e-06,620.3649936162038,620.364993616203,620.3695537497898,620.3695537497894
0.304,7.967438507160872e-19,-6.0,0.09123657037656568,2.0486735376637174e-15,1.0888635933077634e-14,4.5772864368393e-05,2.130017241901172e-22,-6.0,0.16596502888465847,1.6512647810596155e-22,-1.1362332851793763e-16,1.8315838325348442e-17,0.7412333261356678,0.0,0.0,0.0,3.308871368310378,-7.650751524778739e-16,-2.372707599418682e-15,1.5783368101829808e-06,619.3977425114996,619.3977425114988,619.4024002767445,619.4024002767441
0.308,9.102706412730226e-19,-6.0,0.09429355999164077,2.6183820841217976e-15,1.1950710857148743e-14,4.279389307355775e-05,2.1259670183681255e-22,-6.0,0.1694524427207134,1.6481249043750638e-22,-1.2067101581129735e-16,2.6106362145257804e-17,0.754419193713482,0.0,0.0,0.0,3.2672485714525736,-8.053602824196536e-16,-2.5181017408772075e-15,1.600328430303874e-06,618.4143273116904,618.4143273116897,618.4190574852786,618.4190574852782
0.312,1.0672504725976186e-18,-6.0,0.09740237632215415,3.197423999760232e-15,1.3011405219083947e-14,3.9907425340455507e-05,2.1218888627048144e-22,-6.0,0.17296390730279768,1.6449633737141692e-22,-1.2720483385826331e-16,3.4211601421348835e-17,0.7674713751747982,0.0,0.0,0.0,3.2248986824450867,-8.552171818076949e-16,-2.6675538229343743e-15,1.6145957902101882e-06,617.4121375577287,617.4121375577278,617.4169176483867,617.4169176483863
0.316,1.271659967549661e-18,-6.0,0.10056251874534922,3.7739717809480914e-15,1.4052604397051418e-14,3.7116828247046083e-05,2.1177832569104056e-22,-6.0,0.17649900760923407,1.6417805627397518e-22,-1.3316338277094873e-16,4.262535045657436e-17,0.7803961181807512,0.0,0.0,0.0,3.1818386777366463,-8.919009599620288e-16,-2.8012847910960374e-15,1.6211313767061493e-06,616.3914844071247,616.3914844071238,616.3962917937348,616.3962917937343
0.32,1.5283857794771225e-18,-6.0,0.10377346081974699,4.345064054142436e-15,1.495863363600654e-14,3.4424578610817355e-05,2.113650678188281e-22,-6.0,0.1800573327477193,1.6385768413967686e-22,-1.3796284752724894e-16,5.130057132813358e-17,0.7931941160908853,0.0,0.0,0.0,3.138131955548717,-9.249560914623332e-16,-2.8129860122511076e-15,1.620836891743585e-06,615.3537811465028,615.3537811465019,615.3585957652468,615.3585957652464
0.324,1.8418909667884474e-18,-6.0,0.1070347263224528,4.891845219851334e-15,1.5616746099475767e-14,3.183275304260951e-05,2.1094915989864069e-22,-6.0,0.18363847592056376,1.6353525759436109e-22,-1.4032758080102607e-16,6.011349193792162e-17,0.8058660417181132,0.0,0.0,0.0,3.093688479757204,-9.356198680048602e-16,-2.6834310181824875e-15,1.6140781338752376e-06,614.2967976698972,614.2967976698963,614.3016004617667,614.3016004617663
0.328,2.214930643596883e-18,-6.0,0.11034574413801836,5.372921453463667e-15,1.5996180486438084e-14,2.9343078160695306e-05,2.1053064870373919e-22,-6.0,0.18724203439020096,1.6321081289831571e-22,-1.3897311411878259e-16,6.876720605338193e-17,0.8184074192475869,0.0,0.0,0.0,3.048711179588318,-8.962842833397279e-16,-2.4853765620676525e-15,1.6011786774405614e-06,613.2252726490261,613.2252726490253,613.2300453829641,613.2300453829638
0.332,1.6500725177948486e-11,-5.9999999999834985,0.11370590260929675,1.6078874651065718e-06,-1.6078784771545937e-06,2.6302770145982872e-05,2.1010958053982316e-22,-6.0,0.19086760944496448,1.6288438594935854e-22,4.820645737562024e-09,4.820732067451731e-09,0.8308066349992856,0.0,0.0,0.0,3.003295763993486,-1.685291652822192e-06,1.685289853388111e-06,2.3466393104139003e-06,612.1402745182662,612.1402745177597,612.1468072520702,612.147756104541
0.336,1.0380430528233081e-10,-5.9999999998961915,0.11711456518226968,1.0547231286158954e-05,-1.0546941786377763e-05,2.286466571952066e-05,2.096860012489747e-22,-6.0,0.1945148063651308,1.6255601228589467e-22,5.3109147572060046e-08,5.3110437826009286e-08,0.8430509441619527,0.0,0.0,0.0,2.957507543172171,-9.709777734086134e-06,9.709481952154861e-06,2.936173253505015e-06,611.0446619334735,611.0446618500578,611.0507068748797,611.0561833769607
0.34,2.2662592311179398e-10,-5.99999999977336,0.12057099285742985,2.5923022056051097e-05,-2.5921763395758433e-05,1.927813001883332e-05,2.0925995621357146e-22,-6.0,0.198183234389226,1.622257270899501e-22,1.843663227187595e-07,1.843735995031354e-07,0.8551276016756806,0.0,0.0,0.0,2.9115700670314624,-1.81886904775182e-05,1.8187616860265298e-05,3.2507440846569235e-06,609.9439153205773,609.9439150172516,609.9485183714462,609.958795494478
0.34400000000000003,3.2121066946483137e-10,-5.999999999678758,0.12407445965916714,4.644876579423313e-05,-4.6445569704597706e-05,1.56131950256142e-05,2.0883149036016937e-22,-6.0,0.20187250668059403,1.618935651901816e-22,4.079275008246925e-07,4.079506889358137e-07,0.8670242647242663,0.0,0.0,0.0,2.865475863996565,-2.5966143514370108e-05,2.5963885066261324e-05,3.489601552810481e-06,608.8375282802467,608.8375276410148,608.8406554833955,608.8553535245561
0.34800000000000003,3.0505663870654585e-10,-5.999999999694893,0.12762421818322212,7.09064985017089e-05,-7.09002518308571e-05,1.1928361276704965e-05,2.0840064816335512e-22,-6.0,0.20558224029422514,1.6155956106486348e-22,7.018184980679504e-07,7.018716937665306e-07,0.8787365262868461,0.0,0.0,0.0,2.819287028469968,-3.2945141417105555e-05,3.2941403687619264e-05,3.66334047048943e-06,607.7269480915725,607.726947031711,607.7286246292649,607.747306921096
0.35200000000000004,8.177363031790873e-11,-5.999999999918166,0.13121952368469061,9.816248615163631e-05,-9.815205364057392e-05,8.272395854676451e-06,2.079674736495688e-22,-6.0,0.2093120561438421,1.6122374884485086e-22,1.0457577340841068e-06,1.0458566994925054e-06,0.8902630599870335,0.0,0.0,0.0,2.7730175096850003,-3.9100527270054104e-05,3.909512002658572e-05,3.780928831136457e-06,606.6124744423951,606.6124729063133,606.6127597746759,606.6349730638791
0.35600000000000004,-4.545283510145345e-10,-6.000000000454481,0.13485964175402115,0.00012717244597066553,-0.0001271567778260178,4.685525047671852e-06,2.075320104008965e-22,-6.0,0.21306157896924247,1.6088616231651997e-22,1.4207951436605668e-06,1.420955589994421e-06,0.9016042636072772,0.0,0.0,0.0,2.726665651729845,-4.4420510437848264e-05,4.441342339715082e-05,3.850341099856548e-06,605.4940337821208,605.4940317651259,605.4930151000976,605.5182970446635
0.36000000000000004,-1.4152272181238893e-09,-6.000000001415236,0.1385438576683415,0.00015698851176840136,-0.0001569667331197427,1.2014374470570204e-06,2.0709430155883384e-22,-6.0,0.21683043730389515,1.6054683492468566e-22,1.8095396836834692e-06,1.809775786240233e-06,0.9127633703359008,0.0,0.0,0.0,2.680210548189688,-4.890851058566425e-05,4.889979056534471e-05,3.877562519452774e-06,604.3710892127027,604.3710867263452,604.3688712914851,604.3967590361203
0.36400000000000005,-2.8800637749088638e-09,-6.000000002880195,0.14227142849752694,0.00019003264053893689,-0.0001900040919142323,-3.1207713190886302e-06,2.0665438982801983e-22,-6.0,0.22061826344278904,1.6020579977549606e-22,2.2085026375573687e-06,2.2088253990176694e-06,0.9237403611185062,0.0,0.0,0.0,2.6337279236460374,-5.600778409755336e-05,5.599757241251439e-05,4.999688421309108e-06,603.2437283387189,603.2437254215985,603.2428784112705,603.2748736132955
0.36800000000000005,-4.923082401645999e-09,-6.000000004923425,0.14604161024790172,0.00023004809933259397,-0.0002300120857081621,-7.614626051995925e-06,2.0621231747994175e-22,-6.0,0.22442469341053228,1.5986308963930482e-22,2.652916661781586e-06,2.653334596378905e-06,0.9345326600454777,0.0,0.0,0.0,2.5872393699661855,-6.770374008295182e-05,6.769192420226965e-05,5.377681853481625e-06,602.1152422064921,602.115238824783,602.1121907951633,602.1509400314383
0.372,-7.700942766376153e-09,-6.000000007701611,0.14985366671908484,0.00027481959821976803,-0.00027477539583049175,-1.21779313258568e-05,2.0576812635661136e-22,-6.0,0.22824936692969977,1.5951873695352088e-22,3.1703726188813235e-06,3.170893508308811e-06,0.9451396056400274,0.0,0.0,0.0,2.54074859398356,-7.831948304040404e-05,7.830595680158722e-05,5.64334320390897e-06,600.9847538606284,600.9847499821323,600.9794607544529,601.024370048903
0.376,-1.1385637777189397e-08,-6.000000011386774,0.15370686297760677,0.00032236077600095566,-0.00032230781176837016,-1.6729215695953877e-05,2.0532185787421209e-22,-6.0,0.23209192738942783,1.59172773825436e-22,3.7467450700226046e-06,3.747376438458524e-06,0.9555623909768223,0.0,0.0,0.0,2.494272355146844,-8.74686223912212e-05,8.745339289564301e-05,5.817535066530915e-06,599.8526287150905,599.8526243399629,599.8452280349178,599.895478126565
0.38,-1.615753828079061e-08,-6.000000016159318,0.15760047173500238,0.00037086997007792263,-0.0003708079672531246,-2.120145367157223e-05,2.0487355302671813e-22,-6.0,0.23595202181425312,1.588252320350304e-22,4.346038322615305e-06,4.346784817593198e-06,0.9658021616847261,0.0,0.0,0.0,2.447814483228906,-9.499247972411372e-05,9.4975786848309e-05,5.913254679865795e-06,598.7189311442495,598.7189263396416,598.7096431101862,598.7643188617288
0.384,-2.219877221067365e-08,-6.000000022201409,0.16153378351483505,0.0004187336798793247,-0.0004186627702905437,-2.5538778544347404e-05,2.0442325238948514e-22,-6.0,0.2398293008331952,1.5847614303775645e-22,4.936749597910175e-06,4.937610425693331e-06,0.9758615234212608,0.0,0.0,0.0,2.4013579847903985,-0.00010092125492608223,0.00010090346169885643,5.9407794654217744e-06,597.5832206490882,597.5832155180398,597.5722894419429,597.6304880419914
0.388,-2.9687631742894974e-08,-6.000000029691371,0.16550606244847751,0.00046447003413779586,-0.0004643908501116548,-2.969576823370334e-05,2.0397099612281292e-22,-6.0,0.24372341864907998,1.581255379673004e-22,5.490594276610216e-06,5.49156177516799e-06,0.9857403287098367,0.0,0.0,0.0,2.3549750658465096,-0.0001052372941340245,0.00010521899777955576,5.910006914529242e-06,596.4472407134845,596.4472354273001,596.4349473637435,596.4957505698559
0.392,-3.879311908127504e-08,-6.000000038798242,0.1695165720462618,0.0005067575440511507,-0.0005066712752144261,-3.363641389454324e-05,2.0351682397548034e-22,-6.0,0.24763403300810277,1.5777344763832301e-22,5.982284035739995e-06,5.983342005267236e-06,0.9954361395331965,0.0,0.0,0.0,2.3086865244990395,-0.00010796157453922398,0.00010794342514513555,5.8300554081756335e-06,595.3114866411244,595.3114813873956,595.2981357252291,595.3606321488227
0.396,-4.9670268745518543e-08,-6.000000049677085,0.17356457739090142,0.0005444357214344766,-0.0005443441401145778,-3.73327568181108e-05,2.0306077528825266e-22,-6.0,0.25156080516962903,1.5741990254917836e-22,6.389498219854059e-06,6.3906212286554525e-06,1.004947922059603,0.0,0.0,0.0,2.262508780305518,-0.00010913012372813209,0.0001091129048167367,5.708835035856198e-06,594.176351616066,594.1763466221629,594.1622633547848,594.2255572709896
0.4,-6.245601417791075e-08,-6.000000062464858,0.17764933216543527,0.0005765009717664761,-0.0005764064274115581,-4.076442472034156e-05,2.0260288899736132e-22,-6.0,0.25550339987623083,1.5706493288461169e-22,6.693050682462721e-06,6.694203520838922e-06,1.0142747768200457,0.0,0.0,0.0,2.216484582466473,-0.00010878670683629824,0.00010877122172905224,5.5540428111510294e-06,593.0428813711944,593.0428768715531,593.0283888601265,593.0916047227888
0.404,-7.726590106899407e-08,-6.000000077277124,0.18177009330696647,0.0006021055326010652,-0.0006020109212602628,-4.391558277583672e-05,2.0214320363795678e-22,-6.0,0.25946148532395785,1.5670856851843597e-22,6.876849202985317e-06,6.8779869958404155e-06,1.0234159670269274,0.0,0.0,0.0,2.170627355931394,-0.00010698995009737099,0.00010697707767288413,5.370124173946007e-06,591.9114102393056,591.911406491704,591.8968451598032,591.9591365124094
0.40800000000000003,-9.4191742042951e-08,-6.0000000942057,0.18592616839431392,0.0006205571670694817,-0.0006204658845150743,-4.677553928326956e-05,2.0168175734753411e-22,-6.0,0.2634347331328405,1.5635083901618769e-22,6.9278858742877544e-06,6.928955067462752e-06,1.0323758881668712,0.0,0.0,0.0,2.124854299771783,-0.00010381612786765025,0.00010380676404419005,5.162417294270407e-06,590.7798920550997,590.7798893237502,590.7655822132764,590.8261424515827
0.41200000000000003,-1.1329913289180379e-07,-6.000000113316177,0.19011687787607975,0.0006313067792259948,-0.000631222649097846,-4.933916012055598e-05,2.0121858786933202e-22,-6.0,0.26742281831762377,1.559917736377618e-22,6.836159757343842e-06,6.837099114472216e-06,1.0411623083360413,0.0,0.0,0.0,2.0791577086468216,-9.93333116346557e-05,9.932828878271681e-05,4.936954938133526e-06,589.6481261264693,589.648124658533,589.6344000179105,589.6924576770039
0.41600000000000004,-1.346248646390779e-07,-6.000000134645324,0.19434149160280217,0.0006339642430304541,-0.0006338913998737962,-5.160576352297238e-05,2.0075373255570505e-22,-6.0,0.2714254192587302,1.556314013400261e-22,6.594660989248551e-06,6.5954030021503095e-06,1.0497732902655144,0.0,0.0,0.0,2.033658326688354,-9.363365058698751e-05,9.36337894717268e-05,4.698706651276329e-06,588.519103317648,588.5191033583154,588.5062798503169,588.5611126884068
0.42000000000000004,-1.581763876521252e-07,-6.000000158200558,0.1985992741203572,0.0006282843394043044,-0.0006282271104306905,-5.357740283669881e-05,2.002872283714696e-22,-6.0,0.27544221767345006,1.5526975077941496e-22,6.199349222290681e-06,6.199822322490781e-06,1.0582035122253457,0.0,0.0,0.0,1.988386637771975,-8.682488497764024e-05,8.6830861442362e-05,4.450818744554804e-06,587.3935934243908,587.3935951777261,587.3819715286163,587.4329162859468
0.42400000000000004,-1.839313604831473e-07,-6.000000183959486,0.20288949381064078,0.0006141597626512594,-0.0006141225397884153,-5.525883571524325e-05,1.998191118972236e-22,-6.0,0.279472898587357,1.549068503145031e-22,5.649085329763075e-06,5.6492165122769245e-06,1.066450103128067,0.0,0.0,0.0,1.943354793744048,-7.901627471893593e-05,7.902870500402925e-05,4.196514001183298e-06,586.271914744893,586.2719183985839,586.2617729871149,586.3082268364227
0.42800000000000005,-2.1183757304963301e-07,-6.000000211869832,0.20721142281931265,0.0005916153835465043,-0.0005916024866989043,-5.665707486080404e-05,1.9934941933264025e-22,-6.0,0.283517150305948,1.5454272800855885e-22,4.945443410675749e-06,4.945159899117849e-06,1.0745140229110077,0.0,0.0,0.0,1.8985750203818443,-7.032334765862766e-05,7.034264449406533e-05,3.938601778954439e-06,585.1543904610255,585.1543961438654,585.1459837360313,585.1874084289271
0.432,-2.418133363502839e-07,-6.000000241849825,0.21156433704743072,0.0005608016823530122,-0.0005608172174852416,-5.7780987136273065e-05,1.9887818649973592e-22,-6.0,0.28757466438650475,1.5417741163207764e-22,4.0925804222097905e-06,4.091813175781349e-06,1.0823962137239633,0.0,0.0,0.0,1.8540594895739084,-6.0867751573523155e-05,6.08942415366854e-05,3.679516224223097e-06,584.0413453646311,584.0413531806851,584.0349017195053,584.0708277616112
0.436,-2.737483073597085e-07,-6.000000273789024,0.21594751617960872,0.0005219874206853186,-0.0005220351369515523,-5.864094012244969e-05,1.9840544884611246e-22,-6.0,0.291645135610177,1.5381092866529543e-22,3.0970906405191743e-06,3.095776524788377e-06,1.090097617287615,0.0,0.0,0.0,1.8098202450126737,-5.077627959742951e-05,5.0810072924722694e-05,3.421355363108571e-06,582.9331039602735,582.9331139501937,582.928821799355,582.9588520140176
0.44,-3.075047162715555e-07,-6.000000307549551,0.22036024374195876,0.0004755515868191442,-0.0004756347360657379,-5.9248491182248364e-05,1.9793124144817402e-22,-6.0,0.29572826195428326,1.5344330630068267e-22,1.967841802413238e-06,1.965926435080636e-06,1.0976191840169154,0.0,0.0,0.0,1.7658691403978226,-4.01794237136228e-05,4.022045522238723e-05,3.165916347656739e-06,581.8299888028508,581.8300009555057,581.8280346064503,581.8518469231007
0.444,-3.429189613391541e-07,-6.000000342967682,0.22480180718405562,0.0004219746557868012,-0.00042209585815168886,-5.961611458080652e-05,1.9745559901431871e-22,-6.0,0.29982374456482985,1.5307457144541842e-22,7.157940692846971e-07,7.132343881400605e-07,1.1049618801374907,0.0,0.0,0.0,1.7222177883938756,-2.9210115996490597e-05,2.925812034742597e-05,2.9147272261874807e-06,580.732319125962,580.7323333706975,580.732825622733,580.7501751208522
0.448,-3.798035347887311e-07,-6.000000379855776,0.2292714979800279,0.00036182922029628933,-0.0003619903394235374,-5.975696268296478e-05,1.9697855588810514e-22,-6.0,0.30393128772924555,1.5270475072384532e-22,-6.461970095799294e-07,-6.494302670240005e-07,1.1121266934117533,0.0,0.0,0.0,1.678877518757186,-1.800233064032465e-05,1.8056860557951096e-05,2.669075609739539e-06,579.6404096733052,579.6404258849085,579.6434745036894,579.6541946521276
0.452,-4.1794924177016127e-07,-6.000000418004501,0.23376861174462196,0.0002957700610650676,-0.00029597209204176525,-5.96846576690907e-05,1.9650014605139416e-22,-6.0,0.30805059884933,1.5233387047990503e-22,-2.103592062307868e-06,-2.107512115170847e-06,1.1191146376837382,0.0,0.0,0.0,1.6358593442874259,-6.689782330982802e-06,6.75016168290021e-06,2.43003456366207e-06,578.5545697338792,578.5545877181943,578.5602545733419,578.5642576798588
0.456,-4.5712767309711174e-07,-6.0000004571853065,0.23829244836071728,0.00022452373583889193,-0.0002247667085470433,-5.941311058220319e-05,1.9602040312746587e-22,-6.0,0.3121813884144149,1.5196195677955474e-22,-3.640392226473772e-06,-3.64499456641469e-06,1.1259267564216215,0.0,0.0,0.0,1.5931739334516506,4.595514884654992e-06,-4.530157049859383e-06,2.198486014876499e-06,577.4751023164357,577.4751218200083,577.4834324980078,577.4807093193715
0.46,-4.970938916390702e-07,-6.0000004971531125,0.24284231211531349,0.0001488777749105759,-0.00014916067551665375,-5.895636484897712e-05,1.9553936038411213e-22,-6.0,0.3163233699747358,1.5158903541316461e-22,-5.239374232946677e-06,-5.244634768921818e-06,1.1325641254109733,0.0,0.0,0.0,1.5508315886936668,1.5724566938542852e-05,-1.56552788873084e-05,1.975141930897602e-06,576.4023034762735,576.4023241911533,576.4132680750163,576.4038866209755
0.464,-5.375892916817348e-07,-6.000000537649173,0.24741751184147,6.966957880707651e-05,-6.999029158285858e-05,-5.832846170858606e-05,1.950570507367048e-22,-6.0,0.3204762601150138,1.5121513189789628e-22,-6.882334011477593e-06,-6.888207930726008e-06,1.139027854729364,0.0,0.0,0.0,1.508842229589026,2.6572679872178252e-05,-2.650068425248984e-05,1.760563495363898e-06,575.3364617600745,575.3364833243045,575.3500141269192,575.3341176723579
0.468,-5.783445903825175e-07,-6.000000578404074,0.2520173610640745,-1.2224880429613722e-05,1.1869609443606264e-05,-5.754332524139511e-05,1.9457350675123985e-22,-6.0,0.3246397784282443,1.5084027148006284e-22,-8.550336412476761e-06,-8.556757508800702e-06,1.1453190901139174,0.0,0.0,0.0,1.4672153801226075,3.70206787171811e-05,-3.694738838737177e-05,1.5551784776842179e-06,574.2778577527894,574.2778797452784,574.2939164789253,574.2717208103453
0.47200000000000003,-6.190829106210172e-07,-6.000000619140813,0.2566411781476524,-9.590244937415626e-05,9.55170256714112e-05,-5.661466491746764e-05,1.9408876064735742e-22,-6.0,0.32881364748969266,1.5046447913747011e-22,-1.0223968504905516e-05,-1.023084865039185e-05,1.151439013817064,0.0,0.0,0.0,1.4259601594756703,4.695618934418861e-05,-4.688310718959822e-05,1.3592969696798563e-06,573.2267636913581,573.2267856615911,573.2452140218522,573.2170039120391
0.47600000000000003,-6.595229150807977e-07,-6.000000659577947,0.2612882864447175,-0.00018044416765912246,0.000180034137487857,-5.555589378683052e-05,1.9360284430133828e-22,-6.0,0.332997592831094,1.5008777958173957e-22,-1.1883593817389618e-05,-1.1890823334453159e-05,1.1573888450318879,0.0,0.0,0.0,1.3850852757949386,5.627451836196936e-05,-5.620333776880414e-05,1.173125640977255e-06,572.1834432006359,572.1834646382326,572.2041387765198,572.1702638255505
0.48000000000000004,-6.993820111279527e-07,-6.000000699432795,0.26595802026213106,-0.00026493454946306395,0.0002645065665934019,-5.4379339546991356e-05,1.9311578924907652e-22,-6.0,0.33719134291505654,1.4971019726061284e-22,-1.3509635284148453e-05,-1.351708407727729e-05,1.1631704218286938,0.0,0.0,0.0,1.3445872133016785,6.488853934069838e-05,-6.482103651168276e-05,9.959383277561921e-07,571.1478500456141,571.1478704124332,571.1706150073169,571.1314795109604
0.48400000000000004,-7.383795257986581e-07,-6.000000738424616,0.2706497340873848,-0.00034848509717387506,0.00034804686667468126,-5.30978193591983e-05,1.9262762668902894e-22,-6.0,0.3413946291096666,1.4933175636023824e-22,-1.5083020351244688e-05,-1.5090538538801237e-05,1.1687871089581376,0.0,0.0,0.0,1.3044434255851742,7.273598852091732e-05,-7.267394105635044e-05,8.288047931819875e-07,570.1194463548808,570.1194651094876,570.1440884360874,570.1001367072192
0.48800000000000004,-7.762393282693965e-07,-6.000000776277236,0.27536276963975787,-0.00043019811024310687,0.0004297583026050573,-5.1723124974899264e-05,1.9213838748514112e-22,-6.0,0.34560718566329346,1.4895248080743918e-22,-1.6585237736477732e-05,-1.6592657466269154e-05,1.1742404881531916,0.0,0.0,0.0,1.2646976361205609,7.971722641417412e-05,-7.966252992282053e-05,6.71046182340462e-07,569.0993956344503,569.0994121967686,569.1256890533657,569.0774284032425
0.49200000000000005,-8.12663983912859e-07,-6.000000812751218,0.28009647925347086,-0.0005120412604308516,0.0005059402016207835,-5.1138213054477486e-05,1.9164810216975048e-22,-6.0,0.3498287496795929,1.4857239427196464e-22,-1.798571325435928e-05,-1.8018351307167014e-05,1.179530804509539,0.0,0.0,0.0,1.2253465615778205,8.87417696989217e-05,-8.275214914664388e-05,1.5407985685151062e-06,568.0851188165661,568.0869357331441,568.1169949809597,568.0649737514808
0.49600000000000005,-8.47361716713361e-07,-6.000000847622279,0.2848501950096414,-0.0005970500500232365,0.0005718341670124162,-5.075293139569221e-05,1.9115680094646643e-22,-6.0,0.35405906109270824,1.48191520168722e-22,-1.921431177324702e-05,-1.940327102970052e-05,1.1846569114623073,0.0,0.0,0.0,1.1864492696723896,0.00010141639274086048,-8.015938171204937e-05,1.7535500366974173e-06,567.0803697294326,567.0868293185639,567.1168394543457,567.0616626842667
0.5,-8.801261137746692e-07,-6.0000008806075025,0.28962327487804734,-0.0006831644124676388,0.000627919157965893,-5.050587607614585e-05,1.9066451369302771e-22,-6.0,0.3582978626426669,1.478098816599922e-22,-2.0210377568651994e-05,-2.0775712670191358e-05,1.1896191910950917,0.0,0.0,0.0,1.1479718702224002,0.00011285188984859763,-7.673912672635278e-05,1.9027425769380952e-06,566.0848487241301,566.09584193999,566.1253452080075,566.0676317523571
0.504,-9.107831400809445e-07,-6.000000911422991,0.29441510300080637,-0.0007685435462252494,0.0006745938772847099,-5.0349675469324986e-05,1.901712699641373e-22,-6.0,0.3625448998509709,1.474275016576274e-22,-2.096020114730286e-05,-2.2120058038581067e-05,1.1944225999806446,0.0,0.0,0.0,1.1098791134699582,0.00012254598858712682,-7.297397314238748e-05,2.0022563371243874e-06,565.0978201763788,565.1129368737962,565.1416652329519,565.0820432424989
0.508,-9.391903534695313e-07,-6.000000939789249,0.29922506138120936,-0.0008514716610000019,0.0007122389582014365,-5.024416373728732e-05,1.896770989942749e-22,-6.0,0.3667999209963806,1.470444028252313e-22,-2.147823241063329e-05,-2.339608155357017e-05,1.199070879492716,0.0,0.0,0.0,1.0721924142675523,0.0001304614265807137,-6.884903089386667e-05,2.0585699291883583e-06,564.1198766699652,564.1386975199695,564.1663979741311,564.1055149677994
0.512,-9.652357617796846e-07,-6.000000965436699,0.3040525149788676,-0.0009303359160176236,0.0007412398241591002,-5.015633701838964e-05,1.8918202970048701e-22,-6.0,0.3710626770908895,1.4666060758032225e-22,-2.177773442537298e-05,-2.4567920536755116e-05,1.20356317141933,0.0,0.0,0.0,1.034963545895777,0.00013653645238641572,-6.437944572411615e-05,2.078403874162491e-06,563.1524106937914,563.1744904275431,563.2009350955045,563.1394564310052
0.516,-9.88835947821711e-07,-6.000000988110947,0.30889683490508957,-0.0010036726008761114,0.000761981872880905,-5.0059462970844546e-05,1.8868609068515538e-22,-6.0,0.37533292185588907,1.462761380964792e-22,-2.1871797150374553e-05,-2.5603097161708755e-05,1.2078979220636077,0.0,0.0,0.0,0.998197789865475,0.0001407674045440209,-5.95843217443012e-05,2.0677302888354204e-06,562.1956074880922,562.2204913775965,562.2454765345976,562.1840663190866
0.52,-1.0099345508566983e-06,-6.00000100757739,0.31375740016250747,-0.0010701740525493903,0.0007748555578299452,-4.993211091920596e-05,1.8818931023874306e-22,-6.0,0.37961041169852183,1.458910163054708e-22,-2.1773445173302298e-05,-2.6472855670713975e-05,1.2120759378893986,0.0,0.0,0.0,0.9618967408909962,0.00014317098365791096,-5.4485897463071873e-05,2.0316440102453303e-06,561.2495556867073,561.2767848208872,561.3001291968606,561.239442980844
0.524,-1.0285007795644697e-06,-6.00000102362526,0.3186335975259796,-0.001128691756406611,0.0007802610878688199,-4.975743480265591e-05,1.876917163425191e-22,-6.0,0.3838949056882218,1.4550526389936752e-22,-2.1495672374354737e-05,-2.715250375956583e-05,1.216099186583787,0.0,0.0,0.0,0.926062023349117,0.00014377968610537734,-4.911296459745829e-05,1.974618452979241e-06,560.3143442729967,560.3434584218357,560.365003362562,560.3056811350704
0.528,-1.0445279100582902e-06,-6.000001036071091,0.3235248214530221,-0.001178238674885974,0.0007786118945326819,-4.9522540777647845e-05,1.871933366712615e-22,-6.0,0.38818616553344065,1.451189023326371e-22,-2.1051531769563034e-05,-2.7621436208757563e-05,1.2199696064618515,0.0,0.0,0.0,0.8906952347545491,0.00014264178427273559,-4.350029357628854e-05,1.9005753744635016e-06,559.3900608886588,559.4206015634401,559.4402112403047,559.3828705495582
0.532,-1.058031758471783e-06,-6.0000010447616425,0.3284304740152383,-0.001217990650531036,0.0007703369984169083,-4.9217928648378065e-05,1.866941985959388e-22,-6.0,0.39248395555855764,1.4473195282422345e-22,-2.045419893332601e-05,-2.7863130856128648e-05,1.2236891145418993,0.0,0.0,0.0,0.8557979056116458,0.0001398206524675774,-3.768775057347519e-05,1.8129454251877516e-06,558.4767906229181,558.5083042269671,558.5258657703054,558.4710952703092
0.536,-1.0690490018024553e-06,-6.000001049576124,0.3333499698111905,-0.0012472844143166424,0.0007558773798902783,-4.883666021368461e-05,1.8619432918637052e-22,-6.0,0.3967880426809731,1.4434443635960912e-22,-1.9716990521149733e-05,-2.7865110010168887e-05,1.227260108082895,0.0,0.0,0.0,0.821361391296654,0.00013539307166036708,-3.1714984311453595e-05,1.714326444168518e-06,557.5743508916956,557.6063930303407,557.6218139050411,557.5701689946069
0.54,-1.0776354097102834e-06,-6.000001050427807,0.3382827436773733,-0.0012656131523818756,0.0007356786571976121,-4.8374694178648064e-05,1.8569375521386638e-22,-6.0,0.401098196388383,1.439563736928612e-22,-1.8853252138456243e-05,-2.761882453815146e-05,1.2306862435362824,0.0,0.0,0.0,0.7873610362484178,0.0001294459759889887,-2.5616294595946477e-05,1.6078122194981389e-06,556.6821335165631,556.7142739319975,556.7274820606982,556.6794830832366
0.544,-1.0838650521654607e-06,-6.0000010472662115,0.34322821755296445,-0.0012726404448332952,0.0007102240494075774,-4.7830110335055194e-05,1.8519250315384457e-22,-6.0,0.4054141887162341,1.4356778534866132e-22,-1.7876489353076218e-05,-2.71196336477074e-05,1.2339691289775079,0.0,0.0,0.0,0.753838825803302,0.0001220843522661203,-1.9454868370508283e-05,1.495708933527174e-06,555.8012820279889,555.8331012790986,555.844051504177,555.8001690643745
