Time_s,X,Y,Z,Roll_deg,Pitch_deg,Yaw_deg,Ref_X,Ref_Y,Ref_Z,Ref_Yaw,vx,vy,vz,p,q,r,T_pert,tau_x,tau_y,tau_z,RPM_0,RPM_1,RPM_2,RPM_3
0.0040000000000000036,3.3827230054016896e-22,2.0,0.010006999594037988,-2.096004393768565e-18,1.4202641527917514e-18,1.8284134537641468e-20,0.0,0.0,7.200000000000012e-05,0.0,6.963764715863389e-20,400.0,2.0013999188075973,0.0,0.0,0.0,-10.19,1.0,-5.600355710732237e-18,-2.1358760407350176e-20,0.0,401.5129355377966,401.5129355377966,0.0
0.008000000000000007,5.904251349174114e-22,1.9999999999998948,0.010010999365572752,2.753621089744872e-10,1.5093962475021545e-18,8.403155466419205e-20,3.114048099517828e-06,7.079404808878911e-05,0.00021513340800000038,0.0,6.669714473069729e-20,222.22222222221052,1.1123332628414166,0.0,0.0,0.0,-0.03433847629815168,1.0,0.03628781958460233,-7.755546521242598e-20,327.57689540976037,681.5162880670739,672.2780754704041,346.1405242799944
0.01200000000000001,4.419868164523987e-15,1.9999999999979494,0.010014999139898327,4.734064339311752e-09,1.0129630627271203e-11,1.5956679623654133e-11,9.304663615627688e-06,0.00021153006710357067,0.00042854147030131276,0.0,4.4195143515132235e-13,-2.0503535342866016e-10,0.0009999431537609585,0.0,0.0,0.0,0.11268126321600136,1.0,0.03848483083970004,-1.863992493302065e-11,333.5079579835587,684.939843396981,675.1879340762194,352.8333893676223
0.016000000000000014,1.2309649208190128e-13,1.9999999999898856,0.010018998925805569,2.3214868047508398e-08,2.8211680576479784e-10,4.205574846849016e-11,1.8534704877171892e-05,0.0004213636868965482,0.0007113732083620786,0.0,1.2308320043569608e-11,-1.0112905432263384e-09,0.0009999446090310645,0.0,0.0,0.0,0.2602149951833343,1.0,0.04070723476636323,-3.1144186052257434e-11,339.3510709686354,688.360468472878,678.0931629249754,359.42863838382505
0.020000000000000018,5.043257503662493e-13,1.9999999999733509,0.010022998730934145,6.111005108972367e-08,1.1558305552739858e-09,6.257873675588635e-11,3.076736649371982e-05,0.0006994581822480708,0.0010627853561306145,0.0,5.042501886855237e-11,-2.598986156315648e-09,0.000999947886041153,0.0,0.0,0.0,0.4082515240957248,1.0,0.042955094296464144,-2.5705090014125848e-11,345.1102115543908,691.7779779423843,680.9935729337229,365.9311169061583
0.02400000000000002,1.23021877014452e-12,1.9999999999477698,0.01002699855844168,1.1973805595794063e-07,2.8194555872297346e-09,7.862665730866235e-11,4.5966176645193224e-05,0.0010449844112496035,0.0014819422978531074,0.0,1.1913481512163944e-10,-4.7112511622253785e-09,0.0009999527650954361,0.0,0.0,0.0,0.5567797775106833,1.0,0.045228473040470056,-2.1324612019600194e-11,350.78903853548144,695.1921927706614,683.8889806325168,372.3452651228818
0.027999999999999997,2.338704272079291e-12,1.9999999999133704,0.010030998408948858,1.9857489379487263e-07,5.3599180570157556e-09,9.15288467482322e-11,6.40949943920074e-05,0.0014571207541530986,0.001968016006352204,0.0,2.064097323867615e-10,-6.934606511263967e-09,0.0009999583261685759,0.0,0.0,0.0,0.7057887944536135,1.0,0.047527433081894874,-1.831436908110433e-11,356.39092641728905,698.602939498151,686.7792081284302,378.67516245010125
0.032,4.625301748064867e-12,1.9999998374750512,0.01003548547149585,0.00037248076399535684,1.0661201848277227e-08,1.1746488223618634e-10,8.511800700557965e-05,0.001935053052683394,0.002520185981773086,0.0,3.802766309033834e-10,-1.6247610136101712e-05,0.0010486830561806017,0.0005131454531393674,3.321686392128837e-09,1.7130469022339708e-11,0.8542789662831984,1.0,0.04985202509876766,-3.407615764178838e-11,361.8790472901618,701.9894535614958,689.6431200954258,384.88700216440054
0.036000000000000004,8.394274320765794e-12,1.9999972402466666,0.010047275821634139,0.006324142583410725,1.939794486368061e-08,1.5238903770237365e-10,0.00010939139549587075,0.002478762644318164,0.003137639190793574,0.0,6.654319191873839e-10,-0.00027588640296911574,0.0018277534157179996,0.010900756473408263,1.8570185857793624e-08,7.736979465263314e-11,0.9893794428673317,1.0,0.05676641253919917,-4.564892074052816e-11,365.67182210401654,705.6427434423696,691.6408530920386,391.510527130623
0.04000000000000001,1.2949239936150657e-11,1.9999887494972566,0.0100767279285948,0.025769826934956223,2.991627809512052e-08,1.8964526922808698e-10,0.00013687528151037443,0.003087440627994856,0.0038195700062949476,0.0,9.889892082543113e-10,-0.0011240103941798948,0.004373253815162454,0.04483987363358273,3.692815529794281e-08,1.3759927856315506e-10,1.1036729368699048,1.0,0.05941882203530442,-4.981789131876247e-11,369.5960952162381,708.3298875354063,693.7236205931445,396.3332449365118
0.04400000000000001,1.8364559409429442e-11,1.9999712609890918,0.01013306952771442,0.06576551679863127,4.234423941845216e-08,2.294023623920633e-10,0.0001675301496589036,0.0037602854706015546,0.004565180147490079,0.0,1.1899234872514523e-09,-0.002774559949739944,0.009329030656857475,0.11104926202822621,4.806057740170483e-08,1.421023056162156e-10,1.1991134938456536,1.0,0.06210024559351067,-5.4282393666165154e-11,372.73357618410296,710.6225655069165,695.4002494739557,400.41633590213866
0.048000000000000015,2.4623537566662597e-11,1.9999420279845104,0.010224308100320949,0.13244629740575453,5.658317522232541e-08,2.744057625068599e-10,0.0002013168445805966,0.004496502947416766,0.005373678620505558,0.0,1.3918619853035958e-09,-0.005167801451814842,0.01651908961924146,0.2069056320532205,5.611146575463027e-08,1.2399877285605754e-10,1.2778729614379387,1.0,0.06481076242714226,-6.205947927073366e-11,375.1886436838515,712.5691636534158,696.7192450868184,403.86089735323424
0.05200000000000002,3.175608722210553e-11,1.9998985884552325,0.010357354003491007,0.23112792970681592,7.26313451030627e-08,3.3375323974535355e-10,0.0002381965680331583,0.005295306083000823,0.006244281659414513,0.0,1.5946416655258433e-09,-0.008206526866982044,0.025655705865486877,0.3287044698722109,6.411463847217807e-08,7.518277899490344e-11,1.341912270672987,1.0,0.06755044034812441,-8.0682771142069e-11,377.0506692990988,714.2126679851505,697.7237241744285,406.75366803953403
0.05600000000000002,3.978539507070382e-11,1.9998386928062408,0.010538138296327708,0.36640474837202164,9.043429270668161e-08,4.1423457822047534e-10,0.000278130876004174,0.006155915092535618,0.007176212667716822,0.0,1.7928334522437015e-09,-0.011802266917687598,0.03647761522852945,0.47295709371977546,7.189900484930273e-08,1.0741403762756737e-11,1.3929882777172071,1.0,0.07031934933785203,-1.0783076172575276e-10,378.39628956461956,715.591075700073,698.4518164583438,409.16915679885915
0.06,4.871512988260621e-11,1.9997602571331479,0.0107716590491675,0.5421929522351299,1.0987673954647108e-07,5.270153271689149e-10,0.00032108167584433495,0.007077557323609392,0.008168702160263459,0.0,1.9865090958937726e-09,-0.01587566811267061,0.04875081972357418,0.6365385758281712,7.94138444933614e-08,-8.729546763520803e-11,1.4327951558066176,1.0,0.07311755885208723,-1.488953224322005e-10,379.296303778488,716.7404885728711,698.9398213491553,411.17604388322167
0.064,5.853391551159634e-11,1.9996613039825923,0.011062074720987435,0.7618095834324773,1.3080795971267412e-07,6.917893056201316e-10,0.00036701122342241776,0.008059467198443372,0.009220987705621773,0.0,2.167800751250158e-09,-0.020354356963033976,0.0622619542671171,0.8165993707086147,8.636651300886444e-08,-2.1137484865202387e-10,1.4628673961003151,1.0,0.07594513801916308,-2.1429956925957298e-10,379.812945082441,717.6932796619625,699.2203235180313,412.83465762532575
0.068,6.932605316357942e-11,1.9995398968145022,0.011412826548285734,1.0280735094957225,1.532625115809561e-07,9.280527010600184e-10,0.0004158821203018543,0.009100886156556935,0.010332313868878385,0.0,2.3439626241849585e-09,-0.025175053543360422,0.07682453083914058,1.0106488005408285,9.302823038952082e-08,-3.679193865856585e-10,1.484517954129701,1.0,0.07880215435769161,-3.046249587090408e-10,379.99828787550285,718.4769608583666,699.3210178641618,414.19555021600826
0.07200000000000001,8.117601279066705e-11,1.9993940864845503,0.011826735317424234,1.3433868764092207,1.772408864747861e-07,1.253735171630974e-09,0.00046765869152767424,0.010201052603302858,0.011501932154876639,0.0,2.5215788034878636e-09,-0.03028427839595229,0.09228104247955501,1.216583248959488,9.963607217898894e-08,-5.658452099479453e-10,1.4988863393689744,1.0,0.08170476574722124,-4.188471038913594e-10,379.893014907327,719.1171919347116,699.2638197390612,415.30512379810796
0.07600000000000001,9.413552780393372e-11,1.9992218761907037,0.01230605493274086,1.709783309038001,2.0265587159193706e-07,1.6900382278452996e-09,0.0005223042050511568,0.01135922196282547,0.012729100951885338,0.0,2.7012988089208974e-09,-0.03563675628105504,0.10849817240662538,1.4326222236356205,1.0615690195384932e-07,-8.247418847717191e-10,1.5070232155503596,1.0,0.08462183962932857,-5.615305378414864e-10,379.54443273904167,719.6319770298329,699.0745044144197,416.19585769099683
0.08000000000000002,1.0826501453316062e-10,1.9990211868573626,0.012852534375144527,2.1289828002914724,2.294341600333176e-07,2.264103044599235e-09,0.0005797822663262433,0.012574656506074509,0.014013085475695665,0.0,2.877321821736052e-09,-0.04119328435909185,0.12536040243633897,1.6572230557723675,1.1236476309434711e-07,-1.1421883005788499e-09,1.5098716657419171,1.0,0.08756856934633614,-7.404920528191428e-10,378.98480398716174,720.0425553344544,698.7708260209569,416.9053734765324
0.08400000000000002,1.23657092625251e-10,1.9987898255270644,0.013467478309581659,2.602445946510493,2.575621619607784e-07,3.0079932936849387e-09,0.0006400568155697085,0.0138466252952017,0.015353157714143143,0.0,3.050927515985952e-09,-0.046920571245355126,0.1427695830254771,1.889075157968335,1.183262532911522e-07,-1.5129777931038356e-09,1.5082679604677893,1.0,0.09054502311834253,-9.626060251581878e-10,378.24550643478796,720.3660883933177,698.3701367977686,417.46390195575844
0.08800000000000002,1.40414211671587e-10,1.9985254607116933,0.01415179382638457,3.1314180927892394,2.8702248539357884e-07,3.953020326169837e-09,0.000703092125042159,0.015174404128380095,0.016748596372051543,0.0,3.2268701776338044e-09,-0.05279094052435181,0.16064410864495282,2.1270889670676305,1.2420004105520056e-07,-1.9477185464171775e-09,1.5029677680417803,1.0,0.0935512696318456,-1.2283221188830505e-09,377.3547512319939,720.6180353555534,697.8880942807286,417.89850446889363
0.09200000000000003,1.5861934774151943e-10,1.9982256031089882,0.014906026930601652,3.7169662787241164,3.1774316167996747e-07,5.13149726649728e-09,0.0007688527963497061,0.01655727548504309,0.018198686816595647,0.0,3.404608131650199e-09,-0.05878146274313967,0.1789163653122135,2.3703618305722243,1.2993621864540618e-07,-2.4555705221981496e-09,1.4946654718763246,1.0,0.09658737761256611,-1.5401103505371362e-09,376.33842776605513,720.8125658167203,697.33908174935,418.2338592905855
0.096,1.7835774949581336e-10,1.9978875895459351,0.0157303934717781,4.3600127393009105,3.4966167668722564e-07,6.583021908482714e-09,0.0008373037577661611,0.017994528471540015,0.019702721023079815,0.0,3.580293787747531e-09,-0.06487325469258773,0.19753067946790806,2.61815059281199,1.354049956929304e-07,-3.0280493082586406e-09,1.4840042910287863,1.0,0.09965341502442265,-1.907823544620911e-09,375.22056706860826,720.9627800480918,696.7364317506389,418.49269394842594
0.1,1.997299591084781e-10,1.9975085708692584,0.016624801820769784,5.061362974993415,3.827315148139131e-07,8.346830174550027e-09,0.000908410261575607,0.01948545876720537,0.02125999752112935,0.0,3.753817349737115e-09,-0.07105094951200222,0.21644177805681966,2.8698509989950685,1.40606676811761e-07,-3.663367133423247e-09,1.4715920441955241,1.0,0.10274944978519952,-2.332684053290251e-09,374.02400620533047,721.0810395099505,696.0927646815591,418.696391984807
0.10400000000000001,2.2282465945981752e-10,1.9970855020530567,0.017588870987106126,5.821731366683037,4.1689603708503264e-07,1.0471844040717295e-08,0.0009821378814351904,0.02102936857083848,0.022869821341291532,0.0,3.926583962886688e-09,-0.0773022528889192,0.2356135043869231,3.1249805120832455,1.4561512716323366e-07,-4.355617439324389e-09,1.4580096806628389,1.0,0.10587555017667655,-2.827639673541591e-09,372.77076053936264,721.1791472656364,695.4201736560286,418.8653289085762
0.10800000000000001,2.477745442222951e-10,1.9966151372482195,0.018621937591797266,6.6417591966734735,4.521673540043689e-07,1.300760171085414e-08,0.0010584525097579944,0.022625566547590802,0.02453150396204348,0.0,4.1008878866001105e-09,-0.08361738733638809,0.2550171814241249,3.383156450679034,1.5051064418792564e-07,-5.108743426186685e-09,1.4438333211186745,1.0,0.10903178332101043,-3.3954443676219325e-09,371.48291872905185,721.268799373064,694.7306923163657,419.01966562942584
0.11200000000000002,2.7467857789540355e-10,1.9960940247233372,0.019723063394899192,7.522034342106164,4.884904191502594e-07,1.6005552810722247e-08,0.001137320355115841,0.024273367776257743,0.026244363257203772,0.0,4.277247302983102e-09,-0.08998876890295351,0.27463067790600965,3.6440834910963837,1.5533312710740422e-07,-5.916352598597367e-09,1.4296329097653422,1.0,0.11221821787978625,-4.040393851944079e-09,370.18261733912567,721.3615603003387,694.036269773546,419.1793143229817
0.11600000000000002,3.036192255071146e-10,1.9955185030516078,0.020891039296202535,8.463109580372748,5.257973888073426e-07,1.9526986717272114e-08,0.0012187079396618768,0.025972093696972093,0.02800772344374488,0.0,4.451694151566367e-09,-0.09641083025705977,0.2944379175459869,3.907547070643041,1.5996703440727944e-07,-6.763549988198373e-09,1.41597913246775,1.0,0.11543492128866456,-4.77612746624018e-09,368.89233067105727,721.4690033392036,693.3489183083672,419.3641817882579
0.12000000000000002,3.3472127646998665e-10,1.994884702759869,0.022124377368973464,9.465512725390786,5.640890960157992e-07,2.363630337736116e-08,0.0013041492945706312,0.02772603157293781,0.02982091503000352,0.0,4.6248634787237595e-09,-0.10287968166390597,0.3144278820816421,4.173400069270011,1.644625791735827e-07,-7.642164206837666e-09,1.4034675765872602,1.0,0.13694442647562766,-5.60883213307419e-09,363.33045447956295,723.7805377510595,690.4058132718793,423.3285461325581
0.124,3.680786413903855e-10,1.9941885463273605,0.023421306162038236,10.529760840735964,6.03389932174714e-07,2.844247488007958e-08,0.0013935926987089743,0.02953445571892833,0.031683274764285965,0.0,4.7977511893213095e-09,-0.10939285626279635,0.3345938691417799,4.441552885411109,1.6903210422018863e-07,-8.495622557494753e-09,1.392712352067794,1.0,0.14132755268790875,-6.5932606737732935e-09,361.85516941950453,724.0849818690237,689.6305734841307,423.84885102228384
0.128,8.105591972038496e-08,1.9934258288363107,0.024779777775490258,11.656386043623828,8.122184188128341e-07,-6.732850023007011e-05,0.0014869869075236032,0.031396647196434126,0.03359414558386552,0.0,8.10352328610966e-06,-0.11594114247530085,0.3549332355055611,4.711993388510542,-2.2741208079308962e-05,-0.00011532426769716136,1.3843223467548351,1.0,0.1448138981882882,7.868238198749509e-05,360.4846460505928,724.2310753416884,689.121189106563,424.4374005954394
0.132,7.556533914829753e-07,1.9925925688728487,0.026197529846454824,12.846010551946051,2.3444209974430565e-06,-0.000638381594554951,0.0015842811491668847,0.03331189375858381,0.0355528765643691,0.0,7.60915902991616e-05,-0.12247286885051575,0.37544666585380326,4.984898887803761,-0.0002337775721301928,-0.0010894022624243073,1.37878956026512,0.8893923270940602,0.14323292415136818,0.000669849729710266,384.7593590428015,709.8839935756665,676.0315858097367,447.0503104666066
0.136,2.6720199311634003e-06,1.991684747790899,0.027671991049163513,14.099295006825264,6.91370808697758e-06,-0.0022886471833148446,0.0016854251206521757,0.03527948979548542,0.03755882286955032,0.0,0.0002695358613678463,-0.12892194254966388,0.39613260686071977,5.260519265933963,-0.000899075280048129,-0.003881778298302169,1.376804718302796,0.7561369921308219,0.139689296390201,0.0019540344240396544,411.34941038917503,691.343570392579,661.0259870570586,473.81000904473024
0.14,6.518085648174528e-06,1.9906986449145299,0.02919962592865188,15.41639740874036,1.6682926583686965e-05,-0.005666128883453605,0.0017903689840383986,0.0372987362799846,0.03961134570144606,0.0,0.0006316267224177614,-0.13522074006927268,0.41691501700061695,5.5381313309812805,-0.0023019240488950385,-0.009159140555580477,1.3803981672102816,0.6174689791265104,0.1351614488363999,0.004039620959831129,436.0934800308688,670.5016739074147,646.3411450810476,501.52668160241126
0.14400000000000002,1.3017400896108888e-05,1.9896313914738317,0.03077529785836827,16.796396645276396,3.4319968988756083e-05,-0.011500920640132457,0.0018990633626436602,0.03936894071383674,0.0417098122509138,0.0,0.0011758213198367008,-0.1412830203816719,0.43756656041575387,5.814981007200063,-0.004705125754064031,-0.017185258467723452,1.3929239799498354,0.47459304538720604,0.1296555665383902,0.007049233517568905,458.92547461687565,647.1998094966218,632.4176168636446,530.1593440911338
0.14800000000000002,2.2871849712903384e-05,1.9884812170774007,0.032392213127067145,18.237166673452368,6.290135734945325e-05,-0.02057004109095768,0.0020114593372877023,0.041489417074289985,0.0438535956485469,0.0,0.0019115342834855951,-0.1469798261494853,0.4577157076855822,6.086441504369954,-0.008406632304382353,-0.028181397103219097,1.4179008582435018,0.32893530494805345,0.12379659378299142,0.01106783911763153,479.6954079653281,621.4034690323882,619.6266050247276,559.6747529364312
0.15200000000000002,3.636452428940218e-05,1.987248418833267,0.03404286055157212,19.736125058919512,0.00010476242476111934,-0.033348544982523425,0.0021275084425629726,0.043659485761076144,0.04604207491596505,0.0,0.002802019464974029,-0.15207449653983687,0.47699583134060786,6.348596932061983,-0.013526191026560464,-0.041697751644551445,1.4569934847752435,0.18113165864079472,0.12221865486358899,0.01577482887022949,498.386759675438,594.0870376098003,607.0303028992586,590.0689382409246
0.15600000000000003,5.313029964354108e-05,1.98593573656623,0.03572008345138203,21.290522052302542,0.000690602449005145,-0.04933708540695007,0.0022471626631341063,0.0458784735438065,0.04827463491747721,0.0,0.0037427502752378633,-0.15617898320248538,0.4951652055519644,6.599387821122074,-0.018672298787159793,-0.05589548643904726,1.5097139413509915,0.031513455492107045,0.12732001123857978,0.020051713801374178,516.7373070592215,567.2385631862475,592.6070347007292,619.8410609718551
0.16000000000000003,7.267280673155214e-05,1.9845452348691177,0.03741711105231329,22.89600216205289,0.00401077625490653,-0.06638847297434726,0.002370374430065612,0.04814571350976955,0.05055066631211419,0.0,0.004619778866891278,-0.159066923932879,0.5121710074624523,6.835568571905566,-0.01858199002199886,-0.06755672815710603,1.575499389642374,-0.11789489640664286,0.13164472610277614,0.021953272630907746,538.950003153485,543.3286307968227,574.5351680676926,645.0540960146877
0.16400000000000003,9.465612860113146e-05,1.9830792073345103,0.03912671101933253,24.54707348195395,0.012720638998270162,-0.08163428914563643,0.0024970966171775568,0.050460545012127725,0.052869565506028296,0.0,0.005389868836061018,-0.16080886271168834,0.5279900610747176,7.0519147247972445,-0.006999040390600457,-0.0740864259463369,1.65549475049653,-0.26550419273086656,0.1312157980456157,0.020548899359527886,566.4665476626867,524.0245173756122,551.8152902400232,664.2515568719035
0.16800000000000004,0.00011830739531287707,1.9815398426514286,0.040841737556254275,26.23746926124936,0.029590216735349326,-0.09211619119637195,0.0026272825374290387,0.05282231361851019,0.055230734605257216,0.0,0.005985664538965649,-0.16157860849035005,0.5425807122935985,7.243588383069536,0.019800560765957802,-0.07483332834626215,1.749747395146402,-0.41006590150383126,0.13254789153860505,0.015615635770686845,597.779479272804,511.55976573231106,522.5876164370721,678.314311688604
0.17200000000000004,0.00014184341123183784,1.9799255021036828,0.042558050582060164,27.957828815567574,0.056028283286433334,-0.09639661955563762,0.002760885939329254,0.055230371059998826,0.05763358136884959,0.0,0.006237644514200136,-0.16173651200555567,0.5563412127178966,7.403041923274631,0.05957930559598397,-0.07209567420044458,1.852377532674013,-0.5475660545802759,0.14409193026125783,0.008808185412864345,628.0847017412002,505.40335984789755,487.8235570834974,690.1829969321954
0.17600000000000005,0.00016522838756443875,1.978231332649521,0.04427351907963934,29.696438596520082,0.09192378314174077,-0.09385903772383071,0.002897868196702056,0.05768351264660909,0.06007751916234959,0.0,0.006141442748061875,-0.16183265564514798,0.570063159975759,7.519952480377976,0.1064112617604354,-0.06849511934528635,1.9594323746596976,-0.6746379492824437,0.1363352108972154,0.0010261692950741313,659.6061189960842,499.5533542471007,454.22120463786456,697.00772314235
0.18,0.0001885416091715471,1.97645230172829,0.04598603926088371,31.44128233388822,0.13737462948411333,-0.08382311563054143,0.0030381838319205063,0.06018110905550238,0.0625619669116377,0.0,0.005868741068749391,-0.1623182977463516,0.5843996602701479,7.586308987382049,0.15547069371501068,-0.06536694540270546,2.070917344470389,-0.7901398283591108,0.12644598796018325,-0.00783072652062437,690.0275807679968,497.3883708182291,418.5547479357275,700.7784727290611
0.184,0.00021189634006766407,1.974583315654426,0.04769348150167799,33.18028822737637,0.19255074712600798,-0.06560540607856594,0.003181787793087593,0.06272253691534063,0.06508634905712558,0.0,0.005490524348001611,-0.1633407621065469,0.5995041647760779,7.600231910800116,0.20657667219811987,-0.06300494297901577,2.1869447841451657,-0.8931894986012692,0.1152539867003663,-0.01779460335610871,719.3266560964712,499.31396889446864,380.1828442797799,701.4985678385931
0.188,0.00023544398778007649,1.9726192546586638,0.04939368840674594,34.90152023360903,0.25757799876159937,-0.0386017733448403,0.0033286354505493287,0.06530717875730953,0.06765009550830155,0.0,0.005001707088409488,-0.16498535430939515,0.6154344204058999,7.561658298628832,0.2600149525752039,-0.06174081841138549,2.307631876522069,-0.9831159138386811,0.10271373764065263,-0.028801448605816956,747.4872416305493,505.2776663837455,338.54625334072523,699.1752608474625
0.192,0.00025937705880029475,1.9705550098160798,0.05108447465668889,36.59334723522478,0.3325358584694709,-0.0023149079197426954,0.003478682593434509,0.06793442296651718,0.0702526415986251,0.0,0.0043971872681827714,-0.16733626744822439,0.6322405373649567,7.4713278838616075,0.3155098830622202,-0.06190803723416919,2.433097089331309,-1.0,0.08879538708801135,-0.04075189349006046,767.8271036779397,524.8911396381252,309.7218472828835,686.4271605321753
0.196,0.0002839320655340652,1.9683855184212067,0.05276363464998607,38.244680245964936,0.4174157488980562,0.043657270356779444,0.0036318854262209085,0.0706036637337652,0.07289342804076722,0.0,0.003672314323857026,-0.17047634622159216,0.6499637383549295,7.330851025142192,0.37261058754809684,-0.06374697152255314,2.5634443594659895,-1.0,0.07351824722697492,-0.05355576429063122,787.0241923147419,547.8083991772156,281.0128155724537,670.0429405196181
0.2,0.0003093932554648019,1.9661057564817088,0.05442901901989177,39.84580767979533,0.5120826651550319,0.09949749898420567,0.0037882005653277324,0.07331430100768949,0.07557190088219416,0.0,0.0028235149050439595,-0.17448385828998264,0.6686435218804845,7.14385423920975,0.4305933552371931,-0.06748397344664339,2.698623066007879,-1.0,0.05693970726267076,-0.06697402096300283,806.6872274890989,570.7165955311306,247.49002596854206,652.3241825030645
0.20400000000000001,0.0003360948402540835,1.9637107578247641,0.056078554856369284,41.38860196289776,0.6163352405298126,0.1650935042617675,0.0039475850357341274,0.07606574044726805,0.07828751146109222,0.0,0.0018491919911107612,-0.17942773363762443,0.6883195025198053,6.916069480066916,0.4884750633144,-0.07346839579449813,2.838539841609705,-1.0,0.039069302573392126,-0.08067023648485845,826.4083423185473,593.0976660397469,208.29673698321488,633.6434332885865
0.20800000000000002,0.0003644219355342301,1.9611956665896522,0.057710214326601325,42.86632701158087,0.7298838577285333,0.2400902361298892,0.004109996267623564,0.07885739337469322,0.08103971636263091,0.0,0.0007505023388324826,-0.18536545624290104,0.7090228253092528,6.654045516166576,0.5451650690391436,-0.08210532414679007,2.983162652782969,-1.0,0.019959097249514432,-0.09435688044117117,845.8670069212849,614.5882618725774,160.91152746835587,614.3473240843236
0.21200000000000002,0.0003948100322486575,1.9585557901855908,0.059321987508098535,44.273397238241365,0.8523346070308379,0.32394227905542633,0.004275392093053899,0.08168867672860546,0.08382797737556208,0.0,-0.0004684490121934547,-0.19234584919569755,0.7307632421642232,6.3635754842527925,0.5996122051663041,-0.0935564429939019,3.1325132498191826,-1.0,-0.0002984521288255382,-0.10779765265289018,864.8224049057001,634.951763360115,95.82751872455508,594.7530914723626
0.21600000000000003,0.00042774262340841414,1.9557866499435945,0.06091186298651978,45.60513984330773,0.9833744179742746,0.4158280353790731,0.0044433071499140045,0.08455895189835519,0.08665176144915256,0.0,-0.0018006202177446424,-0.20041261188633364,0.7535272097224265,6.0494238895470405,0.6509242999442786,-0.10803639299923047,3.2866522734609736,-1.0,-0.02673474319596203,-0.12064815042444084,883.4423734445339,653.1501189103827,0.0,574.6251647319812
0.22000000000000003,0.0004637444151860932,1.9528841337886835,0.0624777022474678,46.857344519825624,1.1229679999809037,0.5147465411655971,0.004613705162484676,0.08746764765224627,0.08951054065044778,0.0,-0.0032363910885371897,-0.20960937333838575,0.7772634936622389,5.714969444798219,0.6986905310993203,-0.12613181702835935,3.445895419607109,-1.0,-0.05005445770769354,-0.13266566899761748,900.6179397454285,670.2314202632855,0.0,555.757002047341
0.22400000000000003,0.0005033809971073077,1.9498444371858015,0.0640173422645368,48.02624741511133,1.270944523684922,0.6198178458323184,0.004786550200968935,0.09041419823022186,0.09240379212186405,0.0,-0.004764438636001669,-0.21998422222361583,0.801896644231177,5.3625286312876215,0.7427883862183903,-0.14789389243062978,3.6103543153080726,-1.0,-0.07478306592888999,-0.14395095928231313,916.9579110587755,685.8473224853984,0.0,537.3879277558387
0.22800000000000004,0.0005472857072029533,1.9466633619023812,0.06552929989371976,49.10939183099875,1.4265404718709005,0.7294485099423057,0.004961806678634432,0.09339804329857214,0.09533099803910693,0.0,-0.006368501588752124,-0.23158421978842858,0.8274390676291107,4.995514413544498,0.7815729864394336,-0.17282336490695466,3.77871187197431,-1.0,-0.1005795233946106,-0.1536348494167015,931.6017406885907,698.9747939949617,0.0,521.1169723516359
0.23200000000000004,0.000596159044873964,1.943336335983497,0.06701271986464945,50.10542491780506,1.5884729121897205,0.8413839662959238,0.005139439348977796,0.09641862790499015,0.09829164556941349,0.0,-0.008021383334276214,-0.24444664971104885,0.8540053493954147,4.61876825519502,0.811740109959921,-0.2002538173656146,3.949734959609009,-1.0,-0.12685088252105475,-0.16087992418233946,943.7445146745445,708.7194178389852,0.0,508.71800107878704
0.23600000000000004,0.0006507530413095208,1.9398586703791232,0.06846711756345297,51.01363051796465,1.7553415254204854,0.9529448640168537,0.005319413302910762,0.09947540243397324,0.10128522683011586,0.0,-0.00968288962152237,-0.25859863088455126,0.8817090247463536,4.236707271838665,0.8301144126963779,-0.23001223072694424,4.122692535380479,-1.0,-0.15326269646070226,-0.16509755019440572,952.8759416326444,714.4922682053381,0.0,501.58878743784646
0.24000000000000005,0.0007118582345472709,1.9362256689624104,0.06989228476121544,51.83365955094803,1.9256515407433366,1.0612441765652134,0.005501693965967912,0.10256782256256759,0.10431123884752393,0.0,-0.011302825442368825,-0.27406427196895483,0.9105844154878348,3.8520438632172485,0.8350355052501005,-0.261825202852624,4.297033140387741,-1.0,-0.1795166676478997,-0.16593508051998002,958.7107106732025,715.9639694662037,0.0,500.63429330136717
0.244,0.0007802804691652852,1.9324328596401135,0.07128810995519187,52.565241678988244,2.098061414538578,1.163458939368963,0.005686247095535883,0.1056953492164532,0.10736918351612454,0.0,-0.012824600526259371,-0.29087022834895354,0.9406027630680759,3.4661991741392484,0.826013461981996,-0.2954140973504847,4.47256119796439,-1.0,-0.20546761197802213,-0.16334857136594005,961.2510837822304,713.1183640073842,0.0,505.9879248413095
0.248,0.0008568237446472304,1.9284760801738505,0.07265453531388809,53.20801511608507,2.2714034941558765,1.2569495528207597,0.005873038778103887,0.10885744852636711,0.11045856755809541,0.0,-0.014188631213014623,-0.30904981328498815,0.9716733657396597,3.0794986256437857,0.8037041952134683,-0.3304297636762109,4.64916550010318,-1.0,-0.23105564708264947,-0.15743587721529295,960.6092407647216,706.0349295525192,50.68708127020109,517.2878939402453
0.252,0.0009422752035196251,1.92435151727683,0.07399155472147373,53.761315522977775,2.4446309147256855,1.3393700058766955,0.0060620354265353464,0.1120535917848618,0.11357890248313054,0.0,-0.015334725885608075,-0.328646269700779,1.0036718839189807,2.6913732765115688,0.7692878385761049,-0.36641582475044815,4.826737167358738,-0.9570553204312062,-0.2561807622742832,-0.14843095642071635,953.1171974939034,700.2064941878143,189.6110103826767,526.791784875895
0.256,0.0010373873503148176,1.9200557913994347,0.07529919193871225,54.224233523450806,2.6167174258355046,1.4088066477025951,0.006253203777360558,0.11528325540339696,0.11672970454857585,0.0,-0.016204166473531137,-0.34971374028613317,1.0364466909450372,2.300779971616643,0.7242596150516236,-0.4025638447056473,5.0052100642041815,-0.8890256729836113,-0.2805886222132919,-0.13674176647040037,940.6211271965179,694.0166771594706,280.1206269081172,536.8110637875383
0.26,0.0011428644642040105,1.9155859815524672,0.07657753806531394,54.59611570560252,2.786689029706256,1.4636986917394994,0.006446535976525853,0.11854453486980555,0.11991049471987207,0.0,-0.01674160376352931,-0.3723133650410191,1.069823858348365,1.907475691232407,0.6702217277276226,-0.43793200071513905,5.184441141269444,-0.8141160069313098,-0.30380383718399595,-0.12270102153384135,924.8980964745392,685.6705375803474,355.3637906433329,549.6936596271086
0.264,0.0012593536779701576,1.9109396269995398,0.07782677550063637,54.876953407025894,2.953788993029738,1.5026816084476793,0.006641999097891982,0.12183693338785231,0.12312079863130282,0.0,-0.016895250215536974,-0.3965064688160938,1.10361814625956,1.5128757141671159,0.6086913072349334,-0.4721238136088748,5.364236642032178,-0.7399458821550375,-0.32644837320200243,-0.10647287452044935,906.726064648865,674.2537422611621,421.76809481177736,566.0395159724873
0.268,0.001387444124218747,1.9061146464491445,0.07904724314993357,55.06744638940874,3.1172394574589544,1.524622600046319,0.006839560533720165,0.12515995900257093,0.12636014654704567,0.0,-0.016615681986061743,-0.4223487211096133,1.1376494476135304,1.1197094023432141,0.5409013966292735,-0.5050489732418352,5.544267629487447,-0.6605631159120939,-0.34812403533661135,-0.08827088212782383,885.5515300565266,660.7240627011424,483.56942540375843,584.3987419504205
0.272,0.001527665312816937,1.9011092745760823,0.08023949466017125,55.169111129358456,3.2761787187922304,1.5285884529835214,0.007039187992025168,0.1285131245598792,0.1296280733225239,0.0,-0.01585523303626744,-0.44988521478470095,1.171753288459805,0.7312193307068663,0.46774997099303545,-0.5363821216930534,5.724082052844179,-0.5769061915244903,-0.3686217081495443,-0.06828048422256788,861.4151082699741,645.103615331092,541.8363869108055,604.4602260620555
0.276,0.0016804867939926565,1.8959220012725564,0.08140434488370867,55.18432715574017,3.4295533050462907,1.513827422229192,0.0072408494939487705,0.131895947666506,0.1329241183660568,0.0,-0.014567905483087812,-0.47914515642625083,1.2057852534314215,0.35096323364529447,0.38979068108118836,-0.5654521427435313,5.903126781327768,-0.49002460952904714,-0.3876126350510784,-0.0466740890808366,834.3133432151299,627.3755138514618,597.1275751405673,625.9854229121869
0.28,0.0018463171002400186,1.890551526176139,0.08254290079855371,55.11640278054633,3.576253512421007,1.4796186771610258,0.0074445133711534784,0.1353079506502277,0.13624782560080612,0.0,-0.012709034731566416,-0.510137137094746,1.2396201928621942,-0.017236382033348846,0.30727869820027864,-0.5918795284445174,6.080777666981266,-0.40110530531366734,-0.4049028640674056,-0.023455633166279362,804.045937127577,607.2052335189829,649.9999930837381,648.9924174222281
0.28400000000000003,0.0020255095077451966,1.8849966367956985,0.08365662837257622,54.96919413450558,3.7148243785325326,1.4252854194422797,0.0076501482632363406,0.13874866052041168,0.1395987434270168,0.0,-0.010233418183113501,-0.5428489438963934,1.2731589347138477,-0.3700256919188364,0.22004568159348864,-0.6151333859940152,6.256265608356316,-0.3109561718358066,-0.420033948721248,0.0013544041802941442,770.2885772130553,584.3011881396704,700.8027336881402,673.4468695587055
0.28800000000000003,0.002218341702996093,1.8792563845438133,0.08474723393906364,54.74765980171805,3.8436167990568864,1.3503836992703753,0.007857723115162703,0.1422176089288651,0.1429764246845496,0.0,-0.007096456357565636,-0.5772443475145479,1.3063073718616007,-0.7038313908871117,0.12794563333246275,-0.6346196955372131,6.429050869226744,-0.221072920116443,-0.43239910490291966,0.027513215524319408,732.9555573361047,558.5731277570005,749.4083400450569,699.1273413424458
0.29200000000000004,0.0024250168643253495,1.8733299998151751,0.0858167010813958,54.4576331063199,3.9607530083739335,1.2546303957342388,0.008067207174719775,0.145714332130986,0.14638042661570336,0.0,-0.0032560419535433887,-0.6132598647473873,1.3389730248045222,-1.0147626289416152,0.031006858782347213,-0.6492924211854176,6.59851125029695,-0.13276420305912506,-0.44156828376075247,0.05485259324574612,691.7865378283497,529.7397850161586,795.8265348504023,725.8857900456991
0.29600000000000004,0.002645661426579516,1.8672168389898283,0.08686730311236446,54.10559938807457,4.064332138770504,1.1377389049562963,0.008278569989989845,0.14923837094721515,0.1498103108283251,0.0,0.0013268082055956083,-0.6508024345465578,1.3710848273070155,-1.299235321876259,-0.0707873231859757,-0.6589845566050025,6.763990442750989,-0.047142480287018396,-0.44729555816211686,0.0833896875710256,646.125042400015,497.0602708913153,840.287797262077,753.7707532235733
0.30000000000000004,0.0028803221964004227,1.8609163297789086,0.08790161096789022,53.698354280658904,4.152210704115337,0.9995554970631612,0.008491781406843006,0.15278927072478582,0.15326564325920558,0.0,0.006689200912704878,-0.6897556018641258,1.4026023883114154,-1.5549048106209693,-0.1776358459209133,-0.6633197941154326,6.924806935248721,0.03502971409604805,-0.44906507525212835,0.11298252525327458,595.1746032983998,459.9293741100468,882.8047608717874,782.6240485661588
0.30400000000000005,0.0031289507902501016,1.854428057367517,0.08892240466887921,53.24303554653811,4.222216344963243,0.8400585014438569,0.008706811566449254,0.15636658129976994,0.15674599413775817,0.0,0.012865566714351592,-0.7299834235362151,1.4335025003051574,-1.7803327034190588,-0.28967265738048475,-0.6620786301658832,7.080449470562485,0.11292670849024133,-0.44644105144967305,0.1434846392910174,537.7306845257696,417.3825277214943,923.3752253493824,812.3023104731358
0.30800000000000005,0.0033913947334905156,1.8477517642592867,0.08993263693073653,52.74693329297239,4.272003054694314,0.6595094931166224,0.008923828019018953,0.15996749436099267,0.16025093794997916,0.0,0.019885482608801235,-0.7713341887982026,1.4637621573719302,-1.974496464010155,-0.40673563036370136,-0.654701122166208,7.230474032106374,0.18591606953672762,-0.4365812968749617,0.17456753183388882,471.64466117909524,368.85853377429663,961.6153372482504,842.7096770248658
0.312,0.003667370890830819,1.8408875689501083,0.09093523149442395,52.21782097937097,4.299285476056085,0.4585724408674709,0.009142799116444245,0.1635915970457489,0.16378005340268725,0.0,0.02776955830161274,-0.8136403957509911,1.4933457753761308,-2.1362791682139504,-0.5281975057641651,-0.6406266604326738,7.374840438087796,0.25296332871253513,-0.42344055704661476,0.2,407.87807560304293,328.03863373902203,992.322089521455,866.9369794393924
0.316,0.0039564696037145495,1.833835805425331,0.0919331524157145,51.66356334726138,4.301978130621989,0.2381384851612579,0.009363693520027363,0.16723848061085972,0.1673329233880404,0.0,0.03652655665460551,-0.8567198217644801,1.522221085890569,-2.2646981004462146,-0.653068103872253,-0.6194911344835516,7.5133688558563385,0.313453370706182,-0.4048578695622425,0.2,395.9665147853243,353.95877115814807,997.9859971374287,865.1064835714462
0.32,0.004258162639551859,1.826596805049167,0.0929295294738129,51.09182434228219,4.278192778463764,-0.0007658016057565675,0.00958648019789588,0.17090774039795242,0.17090913494832732,0.0,0.04615445495178751,-0.9003799727415325,1.5504112215413544,-2.359785223005134,-0.7804653558268168,-0.5915917431968387,7.645623697178288,0.3671004164444308,-0.3808865935243789,0.2,383.7728500007131,377.53169149653706,1002.4757793154292,864.3859532966436
0.324,0.004571812842598326,1.8191706225327646,0.09392785335335085,50.50979989217,4.226462349069254,-0.2573065219568725,0.009811128422437969,0.17459897579901093,0.17450827924103268,0.0,0.0566450441878613,-0.9444261297825332,1.5780276697825502,-2.42286922133349,-0.9098996227615013,-0.558035483691049,7.770768012981616,0.41393911111143333,-0.35187810856381685,0.2,371.30982810653325,399.074412518329,1005.8280608248829,864.7255478597394
0.328,0.004896679044297073,1.8115566875893296,0.0949322709352529,49.92488081541451,4.145816883030166,-0.5304271507146545,0.010037607767757462,0.1783117902221932,0.1781299515041729,0.0,0.06798581621002224,-0.9886623559346065,1.6052881542947357,-2.4547336117099463,-1.0404120564667945,-0.520164833275943,7.887354096669624,0.45325698044807705,-0.3182510961528286,0.2,358.76208611487544,418.61697635231326,1008.0080775063647,866.1288061798266
0.332,0.005231881304990017,1.8037541616063457,0.09594727736676076,49.34442739140271,4.0357331466801485,-0.8188127384062422,0.0102658881071486,0.18204579105791452,0.1817737510219013,0.0,0.08015723420637397,-1.0328887058494982,1.6324567787358657,-2.4557605367349975,-1.1705177697883493,-0.47908323904253686,7.994538314121842,0.48458630508424416,-0.2799386865694818,0.2,346.1845508461878,436.32074000564654,1008.9655504997552,868.6294003757276
0.336,0.005576377399650652,1.795762239341534,0.09697742192304341,48.77521259587297,3.895992485561727,-1.1210731865666346,0.010495939610590305,0.18580058964519433,0.18543928109038016,0.0,0.09312975993219186,-1.0769049141226716,1.6597390981853,-2.4267942806356273,-1.298564063913815,-0.43542360107907285,8.092062927846097,0.5081064675392055,-0.2368379722728662,0.2,333.489627490239,452.447058670462,1008.7067574050486,872.2060169462496
0.34,0.005928951808687747,1.7875802646155265,0.09802716328956608,48.22331082640334,3.7266733307490556,-1.4357538242737837,0.010727732742259846,0.18957580123826479,0.189126148983918,0.0,0.1068669612619971,-1.1205217330676374,1.6872633516962456,-2.3704222883411803,-1.423502556421813,-0.3897076272033907,8.179962221027296,0.5241622219719991,-0.18898133509154802,0.2,320.58099207824193,467.2180042100895,1007.263519699809,876.8090007011789
0.34400000000000003,0.006288210685406751,1.7792077189421236,0.09910083650072611,47.69428665743556,3.528342549676062,-1.7611211744548578,0.010961330057896419,0.19336863845289998,0.19283396592136998,0.0,0.1213242578666324,-1.1635646817551382,1.7151291575676453,-2.2894117686497193,-1.5438873556884676,-0.3423746217344114,8.258340502511473,0.5329214368873494,-0.1356326799510731,0.2,307.18323549868785,480.92367624018766,1004.5835155113909,882.4795004935312
0.34800000000000003,0.006652583239889501,1.7706442633260908,0.10020256569339579,47.193039004860815,3.3019589386732946,-2.095284728832827,0.011196701497789056,0.1971787532395014,0.19656234703279934,0.0,0.13644589707296712,-1.2058741352292173,1.7434251368287863,-2.186443443339268,-1.6578956572814285,-0.2937933542195919,8.32748313025468,0.5347649329613084,-0.07918887307224376,0.2,293.8353214719928,493.3092605759485,1000.9001242496397,888.9325901778562
0.35200000000000004,0.00702032762365518,1.761889739522759,0.10133621537918999,46.723765908329945,3.048835193913508,-2.436235652015587,0.011433817299074849,0.20100580110307315,0.2003109113263984,0.0,0.15216464186134843,-1.2473064070267417,1.7722291639236645,-2.06438092892946,-1.7638477712501612,-0.2442645739622801,8.387781118545288,0.5301567549294507,-0.01899981802328249,0.2,280.22237674392613,504.6735837816755,996.1918635341251,896.1756320678331
0.35600000000000004,0.007389537348811041,1.752944116487222,0.10250539796979559,46.29004028851959,2.770852749324291,-2.781625759631331,0.011672647993248233,0.20484944107296849,0.2040792816556665,0.0,0.16840016776261293,-1.287735104588665,1.8016156431557893,-1.9261145272283027,-1.859742097638253,-0.19404546867717049,8.43961852537931,0.5195174801087498,0.044294883005271235,0.2,266.3956986226526,515.0585104620523,990.5420122731151,904.0948209422977
0.36000000000000004,0.007758155971780459,1.743807481759037,0.10371344169935004,45.89475886895023,2.470329503257177,-3.1289091575315133,0.011913164403689568,0.2087093356728726,0.20786708468684378,0.0,0.18505628470843744,-1.327051073033467,1.8316595329916592,-1.7744352429250814,-1.9432565192849727,-0.14335703985042283,8.483452587898611,0.5033675842131221,0.11007128796475568,0.2,252.38197483169054,524.5179668012289,984.0413559608039,912.5718351805406
0.36400000000000005,0.008123994121451641,1.7344800166314938,0.10496337904233814,45.54014280547065,2.1499922804552525,-3.4753601251161115,0.012155337643212862,0.2125851508910198,0.2116739508665982,0.0,0.20202007566914465,-1.3651625093654873,1.8624332156871664,-1.6121150929128685,-2.0122668289403345,-0.09239089655239632,8.519773149614082,0.48227102555810364,0.17766946570640288,0.2,238.21297869396358,533.0991444132092,976.7882054104138,921.4846220378112
0.36800000000000005,0.008484749650790883,1.7249619700926992,0.1062579416856549,45.227747092228704,1.8129499269626168,-3.818083105492041,0.012399139111632509,0.2164765561506433,0.2154995143899644,0.0,0.2191634778133232,-1.4019953533830063,1.8940051444136412,-1.4418831217491515,-2.0648802741258447,-0.041307588580835664,8.549089728516698,0.4568254250631165,0.24638306743920285,0.2,223.93434639698893,540.8403036907613,968.8893177540806,930.7079571075515
0.37200000000000005,0.00883803079008245,1.7152536342544906,0.10759955959092064,44.958475397123316,1.4626571265055222,-4.154024848897835,0.012644540493348889,0.22038322428065607,0.21934341316853215,0.0,0.2363432116256873,-1.4374930798361505,1.9264404694603214,-1.2663675088986686,-2.0993052699698627,0.009755159611169548,8.571923376829211,0.4276555479362296,0.31547024463004636,0.2,209.60815939115702,547.7725513260579,960.4592996213893,940.1155610504042
0.376,0.009181382013467885,1.7053553218061017,0.10899036363272062,44.732600879863334,1.1028702831726398,-4.47998797316186,0.012891513754952696,0.2243048314865607,0.22320528879888296,0.0,0.25340087022922375,-1.4716163362421129,1.9598002724819188,-1.0880776926735856,-2.113893940105233,0.060679115647507775,8.588799454211806,0.3954057578185325,0.384165643717141,0.2,195.31667564439218,553.921306440904,951.6197565427453,949.5821409231635
0.38,0.009512312285843497,1.695267345725696,0.11043219148484777,44.54979337334081,0.7375968157318029,-4.792645756316822,0.013140126427457162,0.22823845356289416,0.22708478653127287,0.0,0.2701632304435885,-1.5043424410883377,1.9941408393887645,-0.9093868553877125,-2.107178079663117,0.11136284677001154,8.600240952487896,0.3607316027251475,0.4528024588022246,0.2,180.63933825860704,559.4783745567463,942.3967524488673,959.0849644247962
0.384,0.009828325311668086,1.6849900014242782,0.11192659637649871,44.40915327988853,0.3710400024674625,-5.0885571195616155,0.013390349887875264,0.2321838047208165,0.23098155523855896,0.0,0.2864427613138425,-1.5356647525044815,2.029512996145865,-0.7325151046893412,-2.077897420353931,0.1617201797774359,8.606762484067016,0.32429053633222005,0.5184487299897382,0.2,166.69878820858096,564.1272689729466,933.1184799652941,968.3113909404669
0.388,0.01012695185256678,1.6745235493306907,0.1134748614886479,44.30929087141149,0.007497984749879562,-5.364235699486829,0.013642155798707464,0.23614060217870703,0.23489524738536904,0.0,0.3020386695194199,-1.5655916524307725,2.0659619526819886,-0.5594461221981835,-2.0251393711037915,0.21166531798233085,8.60885855663118,0.28668697803336396,0.5814227426088447,0.2,153.22469196266405,568.0430028318464,923.8177887633602,977.2514202324639
0.392,0.010405784450437553,1.663868191748454,0.11507802883690826,44.24853801181427,-0.34894627180094795,-5.616384996885734,0.013895516105536004,0.24010856613625758,0.23882551899751153,0.0,0.31674266742344204,-1.5941429533505194,2.103529578351183,-0.3916301946898956,-1.948931663259728,0.261146741258745,8.606973714238467,0.24831259857928212,0.6412965282690964,0.2,140.42003693489818,571.246557547424,914.5783246394229,985.8478027926244
0.396,0.010662504807635786,1.6530240840930217,0.11673688149844538,44.224660058932145,-0.6939870269321695,-5.841444660102583,0.014150403034637878,0.24408741974876977,0.2427720296316244,0.0,0.33033935590340424,-1.6213495373617923,2.1422500466393584,-0.23057229251288205,-1.8490635591324913,0.310133918915102,8.601596306079074,0.20991569294719326,0.6971986750641429,0.2,128.6231915846059,573.7438194173374,905.563974209294,993.9762422895187
0.4,0.010894916864841293,1.6419913238286665,0.11845196250626246,44.23489215097016,-1.0231512633391828,-6.035635323012833,0.014406789090616363,0.248076889101654,0.24673444234506117,0.0,0.34259986246056023,-1.6472564992846253,2.1821460508968693,-0.07810981981205833,-1.7246024948230692,0.358594094248183,8.593184636587095,0.1722424823672565,0.7482140929657423,0.2,118.31620981627721,575.5303450037379,896.9486020292376,1001.5119044384473
0.404,0.011100982372669882,1.630769930249929,0.12022361332813973,44.276152567594565,-1.3320756053739038,-6.195185765072571,0.014664647054050923,0.25207670318512915,0.25071242366601226,0.0,0.3532782074063066,-1.6719245554706652,2.223230122705501,0.06400880809352999,-1.5747286642136529,0.4064598927831485,8.582126616234472,0.13582822732479474,0.7936782942015993,0.2,110.07179708258069,576.6032671932197,888.8664992092849,1008.3711919343159
0.40800000000000003,0.011278854711332588,1.6193598364537132,0.12205200008302754,44.345150216753645,-1.6166030326700964,-6.316407219919412,0.0149239499791654,0.2560865938691211,0.25470564356386,0.0,0.3621185857303618,-1.6954257118394704,2.265508555274862,0.19468698792886832,-1.3997730419789605,0.4536853631053127,8.568763422262599,0.10110649144736822,0.83303276447959,0.2,104.53066647568994,576.9565537154697,881.4349809291875,1014.4884846030361
0.41200000000000003,0.011426911342182051,1.607760883199575,0.12393714091128061,44.43850364505087,-1.8728857955199685,-6.395768154234939,0.015184671191514332,0.260106295878359,0.25871377541976526,0.0,0.36886254410439223,-1.7178389004397387,2.308980245627352,0.3132815210073749,-1.2007413019000643,0.5002553210855518,8.55338632144429,0.06838848104477646,0.8658353479991596,0.2,102.28581819425048,576.5793453379301,874.749708665107,1019.8176617185113
0.41600000000000004,0.01154378434566524,1.5959728321702495,0.12587890909124205,44.55263793574695,-2.097255406148292,-6.4297793317637435,0.015446784285687262,0.2641355467676676,0.2627364959974845,0.0,0.3732497997075773,-1.73924985632353,2.3536319324189114,0.4191938362361599,-0.9786925002786819,0.5461535719433078,8.536285020879873,0.03811433779287163,0.8915024227989162,0.2,103.71202111060875,575.4560839652709,868.9343059637853,1024.289044021972
0.42000000000000004,0.011628389462955604,1.5839953541530254,0.1278770739123234,44.68401796448203,-2.286410793166943,-6.415172933142074,0.01571026312303091,0.26817408689745403,0.2667734854144152,0.0,0.37501987981199447,-1.7597499060612247,2.3994377112003202,0.5119732856024656,-0.7348550195620535,0.5913693623694773,8.517670941343212,0.010467548349023525,0.9096678407620681,0.2,108.83797387292454,573.5603367201513,864.0647258618676,1027.870760273523
0.42400000000000004,0.011679953826405652,1.5718280475803723,0.12993130378242862,44.8290429227811,-2.4373272162760475,-6.3488263764211545,0.015974395440193537,0.2722169341113042,0.27082442711286786,0.0,0.37391301723316,-1.7794360415323542,2.4463566721135033,0.5912794899182546,-0.4706694688951055,0.6358902682298413,8.497752560295314,-0.014245485424494164,0.9118700759994012,0.18398293802138943,210.75994120628937,594.8000795669099,843.8659775902149,1015.5277529098926
0.42800000000000005,0.011698041365357978,1.5594704397617452,0.13204119614025606,44.984252153031385,-2.547314081073772,-6.22794272144828,0.016239163886653894,0.2762638911817097,0.274889007831563,0.0,0.36967383892531036,-1.7984090603897116,2.4943312281576904,0.6569535103823428,-0.18781421009887805,0.6795824781202846,8.476680911843204,-0.03595171636268857,0.9132420052579702,0.1179938118960572,409.7905027567898,685.7750336276449,766.0913672135594,956.052680061019
0.43200000000000005,0.011682588628837488,1.5469221781358433,0.13420617671712506,45.146547395697944,-2.613486548463637,-6.050522044214432,0.016504551297196336,0.28031476309993725,0.27896691757735187,0.0,0.3620585229764447,-1.816765025214147,2.5432664128002545,0.7093847786224515,0.11186032882718969,0.7209766351303013,8.454813790304982,-0.05484479042783487,0.9051400011656728,0.04742055025677647,548.5805288459538,770.7112633532911,674.8311020720089,886.711292104803
0.43600000000000005,0.0116340121520127,1.5341838123232356,0.13642484102086994,45.31355315434536,-2.632452168571979,-5.814652616451875,0.016770540690305098,0.284369357056424,0.28305784959715846,0.0,0.35083735473789435,-1.8345775869120522,2.5929328437885992,0.7500734600816215,0.42767490544606324,0.757775889394119,8.433850981292522,-0.07156178213959681,0.8851893757888302,-0.027719890668496006,666.3291180364299,851.124086470537,563.9087047184399,804.821999447276
0.44000000000000006,0.011553258057853294,1.5212569082431344,0.13869477154202756,45.483586437814225,-2.600335651725747,-5.518718147406672,0.017037115266571232,0.28842748242132843,0.2871615003501419,0.0,0.33578899476851676,-1.8518976652015762,2.6429530749633203,0.781200614006424,0.760056111371084,0.7872675175769217,8.415889770883412,-0.08675219882274235,0.8515833295454496,-0.10716497535326117,772.7190179529638,927.736298092457,418.83727891718615,706.2741118968272
0.44400000000000006,0.011441956839183648,1.5081450754436059,0.14101147029429428,45.655382541016024,-2.512409795340515,-5.161438130235058,0.017304258407112107,0.29248895072523634,0.2912775694800769,0.0,0.3166983485169576,-1.8687665804552327,2.6927272963714746,0.8046610064274284,1.1101353971071455,0.8067754647385501,8.405226220027695,-0.1007915133564899,0.8007725828936014,-0.19059301852344296,872.0407823091904,1000.8518538975783,170.15434778491795,582.818701843125
0.44800000000000006,0.0113023036951369,1.4948531674432828,0.14336909544917945,45.827375353196324,-2.3641574332725637,-4.741665783386794,0.017571953672003364,0.2965535756400207,0.2954057597879514,0.0,0.2933648416885423,-1.8852394039385836,2.7415788357676982,0.8203609393500002,1.4781826108336782,0.8140008759947263,8.404727762663711,-0.11324251172666039,0.7334444803048673,-0.2,889.5973368425349,1002.5650937500234,145.60138232319255,559.4742536526419
0.45200000000000007,0.01113696011896628,1.481386777054979,0.14576090031018749,45.99672759959809,-2.1508701259251524,-4.258461888584507,0.017840184798723263,0.3006211729598542,0.2995457772047791,0.0,0.2656076333697472,-1.9014199026686662,2.7888986841210497,0.8247979023495372,1.8639199268833342,0.8078336816068348,8.416413834697385,-0.12251385750664705,0.6496707214150338,-0.2,898.7542653232156,994.7082331169054,185.41895780387,548.1920490717072
0.45600000000000007,0.010948698206396875,1.4677493327098696,0.1481822287974823,46.16104274552729,-1.8701623458688204,-3.711772328870645,0.0181089357006093,0.30469156058237257,0.30369733076462546,0.0,0.2332758821046816,-1.9174631859045153,2.834608343657404,0.8149722885832331,2.2628891728252545,0.7895894397111867,8.436253403453192,-0.12892435410546174,0.5555139764166251,-0.2,908.6637110669465,986.2526857140026,223.78854978673118,534.765181162416
0.4600000000000001,0.010740355414938054,1.4539410693268744,0.15063162824899845,46.31954855575336,-1.5226286917629226,-3.103811843160439,0.01837819046532701,0.3087645584899893,0.30786013257784617,0.0,0.19629764109097014,-1.9335262886926508,2.8791517321514783,0.7920903699143401,2.664656947712423,0.7623121124432323,8.457890404591351,-0.13420335134125816,0.4546364555676175,-0.2,919.0190372388994,977.2582263488061,259.2067771926171,519.7427176427069
0.4640000000000001,0.010515033550079256,1.4399601169990528,0.15310977985732482,46.472624167043904,-1.1109456904589319,-2.4384848586794465,0.018647933353350885,0.3128399887313585,0.3120338978045354,0.0,0.15472914005291583,-1.949715080390132,2.9232517102227047,0.7608014138069,3.0552926187532963,0.7285141237270125,8.47703739846724,-0.13963848063825302,0.3470457637698152,-0.2,929.8565368937205,967.5310567667136,292.15084796727376,503.0789412760002
0.4680000000000001,0.010276251519330029,1.4258036156724647,0.1556183894741331,46.62113807191019,-0.6390381025726347,-1.7206826152812218,0.018918148796457285,0.31691767540298643,0.3162183446281834,0.0,0.10875334421530972,-1.9660925653232362,2.9673227244978735,0.7246515589165962,3.424191676147771,0.6898272067084422,8.491590091927172,-0.1458233138291801,0.23228915286966328,-0.2,941.2226481829697,956.9224773353944,323.24511149832574,484.5661080657489
0.4720000000000001,0.010028008562969521,1.4114683906995713,0.15815952376001993,46.76604696720292,-0.11154795938571384,-0.9557842985996241,0.019188821396229263,0.32099744463098984,0.320413194229541,0.0,0.058639791649253245,-1.982705926825598,3.0114494130793594,0.685161566919702,3.7649991347470406,0.647409748770141,8.500758857430036,-0.1529170548849597,0.11029105648550763,-0.2,953.1075690256253,945.3692067816045,352.9256302738647,463.9735863946285
0.4760000000000001,0.009774797950869966,1.3969513353267373,0.160735251071288,46.90829260928405,0.4659564036659428,-0.14994631881484344,0.01945993592257324,0.325079124553,0.32461817076069005,0.0,0.00472580207243431,-1.9996017114649667,3.0555118822015244,0.6428229075532503,4.072929792225366,0.602177455363924,8.5044714251081,-0.16096516174143882,-0.018211523549009623,-0.2,965.4293288635781,932.898886010522,381.3429713632835,441.1605975750273
0.48,0.009521572035937285,1.3822496222901046,0.1633474398288616,47.04858167129745,1.0874642624204924,0.6903393454311124,0.019731408879642955,0.32915581171553376,0.3288330013193178,0.0,-0.05258947074401327,-2.0168326009933404,3.099285754356436,0.5976587848716612,4.344026187518388,0.5548647284879525,8.50306471776238,-0.16975566034152428,-0.15323031994458525,-0.2,978.1588176835169,919.4983255479082,408.8198742740985,415.7272757556501
0.484,0.009273686846830562,1.367360797581215,0.1659976762056505,47.187307114038944,1.7468090607880125,1.5585125225481067,0.020003226193243254,0.3332274192709673,0.33305741592319466,0.0,-0.11285595757582126,-2.0344609071016464,3.142506365013197,0.5493736839886748,4.5760179124199984,0.5060314307894677,8.49704912020736,-0.17896917664856973,-0.2924742103912227,-0.2,991.0609262590998,905.3829222895906,435.1612657428235,387.615379518885
0.488,0.009036842900310526,1.3522828687993231,0.16868719132815188,47.324525860778245,2.4373199958916163,2.4475363869405697,0.020275373945672474,0.3372938615967136,0.3372911474848517,0.0,-0.17558247975371183,-2.0525597412700085,3.1849031507134953,0.49760971230050827,4.767010526507367,0.4561474126863557,8.487091794702893,-0.18823908873613732,-0.4354441376823969,-0.2,1004.0644312515201,890.6133936586333,460.5584257538801,356.25068371439767
0.492,0.008817012351019083,1.3370143345275007,0.1714168416635595,47.459899297185494,3.1517114289715833,3.3497304996093926,0.02054783837434558,0.34135505428360524,0.34153393178645947,0.0,-0.24022402767228906,-2.071211024561161,3.226221988739166,0.4421170760052022,4.913967552544926,0.40562287962890264,8.47391106182736,-0.19710635521118727,-0.5805213794363128,-0.2,1016.9997519125599,875.3731618850082,484.97532193979015,321.0243279869046
0.496,0.008620356077600798,1.3215540997629576,0.17418719691006976,47.59268187204648,3.8826811902867115,4.257349123351183,0.020820605870428215,0.3454109141243717,0.3457855074549036,0.0,-0.3061811653461941,-2.090503086544506,3.266255556712408,0.3827418727038974,5.014459347601728,0.35478225706956146,8.458058847316872,-0.2050713391698072,-0.7265665053569172,-0.2,1029.7401551099429,859.8108494408041,508.4606310814059,280.7103215301247
0.5,0.008453143833024042,1.3059015078950758,0.17699851469981565,47.72171025927657,4.622626998879786,5.162237238811624,0.021093662977481602,0.34946135910221227,0.350045615937058,0.0,-0.37281045059464984,-2.110528407239759,3.3048544317068447,0.3194459103077082,5.066935380503309,0.30387775615224955,8.440147596647932,-0.21159340003829719,-0.8720737488843424,-0.2,1042.1321986596815,844.1281590073668,530.9982201178137,233.07460748743858
0.504,0.008321667807254633,1.2900563404987688,0.17985074254182576,47.84540522859026,5.363580732117265,6.05569509255513,0.021366996390118242,0.35350630837946284,0.3543140014752529,0.0,-0.4394284254630684,-2.1313809434341087,3.3419217291933316,0.2523753043346398,5.069326317610608,0.253095241982546,8.420795798259316,-0.21610470109285068,-1.0,-0.2,1052.7563646458457,830.1590407327753,550.1460972486269,180.25060889240874
0.508,0.008232147592789448,1.2740188395608563,0.1827434923807446,47.961792248316726,6.097017167836735,6.92825082610428,0.021640592952668278,0.35754568228635647,0.35859041108293627,0.0,-0.5052958611396099,-2.153152496742789,3.3774141222544847,0.18193544653885216,5.0184875992906886,0.20259628758349404,8.400683499237012,-0.21803192115831224,-1.0,-0.2,1052.6347400884,829.6045726508632,549.3090590648904,179.5388947964221
0.512,0.008190653765670556,1.2577895581544158,0.1856761850457653,48.06855309472775,6.814475296559144,7.770360155568466,0.0219144396578565,0.36157940230987684,0.3628745945205285,0.0,-0.5696240321805619,-2.1759278180962442,3.411365512925321,0.10872451498454087,4.912238376192478,0.1525736440497615,8.380208322341023,-0.21683359481413922,-1.0,-0.2,1052.252158425348,829.3681091238102,548.9518702392209,177.28204538122586
0.516,0.008203083433550987,1.2413690662038657,0.18864835421044884,48.163013639142896,7.508702212651306,8.573694636207696,0.02218852364548986,0.36560739108270357,0.3671663042714669,0.0,-0.6316226356586683,-2.1997813087521108,3.4439255137821965,0.033042063866629154,4.753054883767446,0.10327003793654455,8.359157131629114,-0.21192887434316354,-1.0,-0.2,1051.5577786805368,829.5065009770577,549.1609332160614,173.11291288431528
0.52,0.008275112261077836,1.224757917520485,0.19165969343479614,48.24231506179808,8.173951701834792,9.331405458554373,0.022462832201155466,0.3696295723722492,0.37146529551844026,0.0,-0.6905740864992509,-2.224780161366144,3.4753315234644924,-0.045163566997952195,4.54804882767357,0.05482700490381015,8.337217760646745,-0.20291063949039,-1.0,-0.2,1050.5132462701515,830.0563229128209,549.9910859414789,166.6505304305974
0.524,0.008412127170409012,1.2079567465813041,0.1947099666120819,48.30361742835258,8.805662232876246,10.03781962906864,0.022737352754928924,0.37364587106978664,0.37577132611981123,0.0,-0.7458735129443121,-2.2509876065524095,3.505842736746442,-0.1259008137471843,4.305884736339536,0.00720486168053442,8.31425473406784,-0.1895948674360972,-1.0,-0.2,1049.100513392652,831.0334544899874,551.4646841721561,157.49986001413842
