Time_s,X,Y,Z,Roll_deg,Pitch_deg,Yaw_deg,Ref_X,Ref_Y,Ref_Z,Ref_Yaw,vx,vy,vz,p,q,r,T_pert,tau_x,tau_y,tau_z,RPM_0,RPM_1,RPM_2,RPM_3
0.0040000000000000036,1.0221975646044887e-22,-4.0,0.010006999594037988,-7.417734548572634e-19,7.147505149775166e-19,-9.884920825861219e-20,1.4495483636856103e-06,-0.00013860000000000022,7.200000000000012e-05,0.0,2.8463870859018855e-19,-800.0,2.0013999188075973,0.0,0.0,0.0,-10.19,-1.0,0.016891501935607085,1.1547150625617203e-19,397.8715864404006,0.0,0.0,405.12155646392904
0.008,1.8068871470470754e-16,-3.99999999999999,0.010010999365430017,-5.72799561161828e-11,1.0342399483730543e-12,1.2032034445771772e-11,4.331198326951504e-06,-0.0004141318104,0.000215133408,0.0,2.007265954694742e-14,-444.4444444444433,1.1123332628255573,0.0,0.0,0.0,-0.03433847600847206,-1.0,0.0179141817560651,-1.4055318967825088e-11,674.6288304307265,341.53625653364566,332.3745935613212,679.1893718452362
0.012000000000000004,2.109708237050894e-14,-3.9999999999988316,0.0100149991385222,-2.712198231844087e-09,4.897116122480127e-11,2.4748716157595288e-11,8.627660931204052e-06,-0.0008249423303300261,0.0004285414703013123,0.0,2.1094868784782936e-12,1.1682761232867395e-10,0.0009999430161482942,0.0,0.0,0.0,0.11268126572374448,-1.0,0.018948681950097593,-1.535000917377675e-11,677.6764160887492,348.02991584460295,338.5175571737483,682.4778462474651
0.016,1.147687238796389e-13,-3.999999999992648,0.010018998920566433,-1.6883840996814044e-08,2.6365095912349766e-10,1.0380977188427508e-11,1.2151121017847386e-05,-0.001369393426096957,0.0007113732083620774,0.0,1.1475292052652865e-11,7.350915785828896e-10,0.0009999440851175129,0.0,0.0,0.0,0.2602150030672465,-1.0,-0.005299807086398361,1.5764961377676305e-11,683.9141237668846,348.22515062179133,350.8380543691993,682.5774270623778
0.020000000000000004,3.4063252337916713e-13,-3.999999999978329,0.010022998720441555,-4.970046298001104e-08,7.812929749005466e-10,1.5183347537822651e-12,1.4910727772529706e-05,-0.0020458618105513044,0.001062785356130613,0.0,3.349933378504357e-11,2.13582611253448e-09,0.000999946888572378,0.0,0.0,0.0,0.40825153492473826,-1.0,-0.00577303113794044,9.923398973281036e-12,687.1312464814414,354.27175938418,357.06884710868235,685.6818999254198
0.024000000000000007,6.55978825399458e-13,-3.999999999955015,0.010026998542150254,-1.0313108312872312e-07,1.504013501720704e-09,1.5849776091130758e-11,1.691554808939137e-05,-0.002852738923366978,0.0014819422978531054,0.0,6.01261535975816e-11,4.162556539463002e-09,0.0009999514424791126,0.0,0.0,0.0,0.5567797896140747,-1.0,-0.006252047648368022,-1.6807135931053584e-11,690.34451513026,360.235458508595,363.2139330437328,688.7820946114583
0.027999999999999997,9.211829914987147e-13,-3.9999999999227636,0.010030998387090772,-1.7704626305204804e-07,2.1118165400865832e-09,2.8263056242512057e-11,1.817456723215482e-05,-0.0037884308122275766,0.0019680160063522034,0.0,7.123109517304624e-11,6.380427559268658e-09,0.0009999569147796854,0.0,0.0,0.0,0.7057888062707174,-1.0,-0.006736870894774164,-1.5156021969779638e-11,693.5537539005929,366.11985829514055,369.2771603312395,691.8778352675711
0.032,1.1592471316819176e-12,-3.9999999635430714,0.01003510727319738,-8.355378018832874e-05,2.6277566542230492e-09,4.6225166686805387e-11,1.8696689490220098e-05,-0.0048513580149125695,0.0025201859817730854,0.0,6.568911170393898e-11,3.642164056482313e-06,0.001010864483074267,0.0,0.0,0.0,0.8550464822647401,-1.0,-0.007227518745912722,-2.21496355496232e-11,696.7541497699498,371.9195933869819,375.2534567312848,694.9642956411914
0.036000000000000004,1.3946843492849031e-12,-3.999998277858316,0.010044163690766205,-0.003946592390360104,3.0593401543414164e-09,8.202241234828585e-11,1.8490739098064164e-05,-0.006039955440964357,0.003137639190793573,0.0,5.9683084038777e-11,0.00017217124105866076,0.0015165307124346927,-0.0067422718419903995,7.53253650139734e-10,6.249249815574411e-11,0.9949400617211919,-1.0,-0.007724000845846911,-4.3724702932157295e-11,699.7449798583558,377.2661691892415,380.7779514693962,697.8402042063578
0.04000000000000001,1.4267253215116827e-12,-3.9999914826226055,0.010068537777181303,-0.01951230333386033,3.039487210119836e-09,1.1230161413605392e-10,1.756546034170379e-05,-0.007352672258195198,0.0038195700062949463,0.0,3.992926566209434e-11,0.0008511124640954229,0.0035541176305103977,-0.03390955962064255,7.185942163583128e-10,1.153164113991983e-10,1.1140780866980446,-1.0,-0.008226334688705239,-3.875443146591697e-11,702.291782979983,381.7425101597511,385.438140234763,700.2703279971839
0.044,1.2550935442903776e-12,-3.999976365725668,0.01011780310713239,-0.0540991726582894,2.564735882615386e-09,1.3804138718303124e-10,1.5929518471544668e-05,-0.00878797177610552,0.004565180147490074,0.0,-5.107940766128117e-12,0.002313643144628348,0.007944880783739432,-0.09259532472233771,-5.840795774167078e-10,1.2713873272848954e-10,1.2137360342354815,-1.0,-0.008734536995634716,-3.470286247194008e-11,704.4258540196537,385.42733025069214,389.31297863359157,702.2858500135138
0.048,8.843468910041557e-13,-3.999950074082313,0.01020032836024125,-0.1141149748093211,1.6449298177970253e-09,1.6049947986424865e-10,1.359150033885969e-05,-0.010344331331504534,0.005373678620505554,0.0,-5.5806290297047405e-11,0.0045482742897354055,0.014657346013960914,-0.18208581080754568,-2.551699210747395e-09,1.0649598438732621e-10,1.296043563922498,-1.0,-0.009248620137076793,-3.193593589090054e-11,706.1950340888164,388.42333850961205,392.5050798436381,703.9345694978301
0.052000000000000005,3.205377695537246e-13,-3.999910061865488,0.010323338459840549,-0.20511088487813997,2.969361161034926e-10,1.8116389175654515e-10,1.0559915027451951e-05,-0.012020242174998376,0.006244281659414509,0.0,-1.0514915455413055e-10,0.007456513261125135,0.023399862601210658,-0.2986330372287355,-4.4719104552952305e-09,8.756702077441528e-11,1.3630447393737493,-1.0,-0.009768598535568647,-3.0774039627254405e-11,707.6443003927112,390.8228606831746,395.1066532139055,705.2614385261472
0.05600000000000001,-4.307502421631957e-13,-3.9998540273374306,0.010493004427291919,-0.3318579915389606,-1.4592763582126179e-09,2.0181859903118115e-10,6.842882593263188e-06,-0.013814207562318956,0.007176212667716818,0.0,-1.5256353168194707e-10,0.010946019463708738,0.033899570087254825,-0.43859376418324514,-6.3171502025600325e-09,6.870340989525161e-11,1.4166378041940757,-1.0,-0.010298121006196849,-3.162389797442931e-11,708.8152193165643,392.7067189905444,397.19998321662337,706.307125389941
0.06,-1.3631733194334097e-12,-3.999779848133697,0.010714541215897627,-0.4984300466777722,-3.596203397386796e-09,2.2408908723352864e-10,2.448762214934421e-06,-0.0157247462561864,0.008168702160263459,0.0,-1.9763605698100498e-10,0.014932763672893529,0.0459085121476096,-0.598656844920382,-8.063792578402707e-09,4.749132642804787e-11,1.4585561261255218,-1.0,-0.010830153213262203,-3.4373623944139955e-11,709.7440266963862,394.1481573016972,398.85510521196176,707.1095800019646
0.064,-2.4635582181216865e-12,-3.9996855277420336,0.010992281571314492,-0.708267610686833,-6.071097718200132e-09,2.5133791201544177e-10,-2.6141628638710836e-06,-0.017750390597529184,0.009220987705621773,0.0,-2.3932590056500073e-10,0.01934096034931266,0.059203182084212394,-0.775837416738092,-9.670061110544218e-09,2.3895250105488923e-11,1.4904137357558576,-1.0,-0.011368126539324787,-4.111925057341989e-11,710.4653079514713,395.2109906487581,400.13718310144964,707.7025613427886
0.068,-3.744931635990789e-12,-3.9995691204673527,0.01132982380082,-0.964298486822912,-8.894726758331619e-09,2.870539263527599e-10,-8.33768472144475e-06,-0.019889686395381308,0.010332313868878385,0.0,-2.790470359892765e-10,0.024104763854295153,0.0735895037568867,-0.9675434586451963,-1.119065220764291e-08,-2.74913263170038e-12,1.5135529753434684,-1.0,-0.011912054916038068,-5.2146738017162686e-11,711.0073030170809,395.94784089473745,401.09873647406704,708.1143134201292
0.07200000000000001,-5.214217292140904e-12,-3.999428676677911,0.011730129335135916,-1.2690198881755574,-1.2056708835000389e-08,3.3416249660417857e-10,-1.4713670149654492e-05,-0.022141192817615934,0.011501932154876639,0.0,-3.1836034344023035e-10,0.02916866470241742,0.08890399223874404,-1.1715915109171249,-1.2682010998926605e-08,-3.44805020299005e-11,1.5291416870126593,-1.0,-0.012461953070257584,-6.694169945402324e-11,711.3944282140204,396.40360392813034,401.7845739912573,708.3692577423019
0.076,-6.874249565734271e-12,-3.9992622079924245,0.012195573165567925,-1.6245442293803092,-1.553594436188202e-08,3.9675174208212894e-10,-2.1734060050177232e-05,-0.024503482282509266,0.012729100951885333,0.0,-3.573335776558889e-10,0.034485890534383896,0.1050089496845876,-1.3861424964851004,-1.413361446508254e-08,-7.569094409739917e-11,1.5382657445927799,-1.0,-0.013017835323029487,-8.698333450676271e-11,711.6492499082757,396.61928108611517,402.2355854783695,708.4899732269814
0.08,-8.733338504151584e-12,-3.999067650281483,0.012728010628176455,-2.032657703044135,-1.9319494099675516e-08,4.792645784218779e-10,-2.9394485579867545e-05,-0.02697692065077989,0.01401308547569566,0.0,-3.950261529867932e-10,0.04001552975594476,0.12178382483172683,-1.6095865472122117,-1.551082095677162e-08,-1.2533180470055426e-10,1.5418942706387766,-1.0,-0.013621861574082003,-1.128550534737367e-10,711.7969225850002,396.62183483831427,402.49679531272153,708.4914027776427
0.084,-1.0804096731706733e-11,-3.998842830282953,0.01332884132501164,-2.4948770124150217,-2.3400590173705137e-08,5.86790505648671e-10,-3.7686990535856325e-05,-0.029560085091806014,0.015353157714143138,0.0,-4.319680389408244e-10,0.04572296590231056,0.13912657716774302,-1.8405610668127381,-1.683161929693486e-08,-1.844671831165e-10,1.5408833190164475,-1.0,-0.014192306355578475,-1.4549600050888971e-10,711.845205362729,396.4606068641729,402.5821748588878,708.4011579713159
0.08800000000000001,-1.3097011041836075e-11,-3.998585440865963,0.013999054938477654,-3.012492706398516,-2.776456790672737e-08,7.247113796561129e-10,-4.6603691434849576e-05,-0.032251565898794694,0.016748596372051536,0.0,-4.687795789587552e-10,0.051579329785800244,0.15695209147900038,-2.077929601791812,-1.8113877161431708e-08,-2.5540446962819397e-10,1.5360105863206015,-1.0,-0.014768807540646784,-1.8545843098867978e-10,711.8148924749576,396.15548175914194,402.52857304699285,708.2304380649828
0.09200000000000001,-1.5625495912289955e-11,-3.9982930202251765,0.014739271036018202,-3.5866085605710403,-3.24023411191259e-08,8.997079548302698e-10,-5.613677692429888e-05,-0.03504996638204533,0.01819868681659564,0.0,-5.050538051622849e-10,0.057560605491587966,0.17518954720991414,-2.3207466710986844,-1.934566218999305e-08,-3.36647540924251e-10,1.527986148886967,-1.0,-0.015351379374532723,-2.344827820361127e-10,711.7205642862699,395.7323617443987,402.36174323468833,707.9938485795461
0.09600000000000002,-1.8407365455765213e-11,-3.997962935417478,0.015549770623915033,-4.218175404545069,-3.730974473301368e-08,1.118494153983817e-09,-6.627850719804114e-05,-0.03795390276302538,0.01970272102307982,0.0,-5.410872087897362e-10,0.06364694822489536,0.19378042421589803,-2.568231109244064,-2.053793117287357e-08,-4.284905432833245e-10,1.5174679397997926,-1.0,-0.015940036116980805,-2.9288472126412865e-10,711.5757171920341,395.2152078999172,402.1054735697393,707.7049157922729
0.10000000000000002,-2.1458493604613628e-11,-3.997592369347634,0.016430520959653264,-4.9080206718941835,-4.247738552982912e-08,1.388630792646995e-09,-7.702121341637499e-05,-0.04096200406925237,0.021259997521129354,0.0,-5.776205817882664e-10,0.06982215590656847,0.21267696918570347,-2.8197455527229183,-2.171004961412738e-08,-5.343684622677039e-10,1.5050744253444175,-1.0,-0.01653479210536616,-3.619323056541665e-10,711.393034435767,394.6265644170056,401.7821048387954,707.3763583640043
0.104,-2.4799996221687405e-11,-3.9971783115027297,0.017381192385131385,-5.656872780404405,-4.7904493691552855e-08,1.7185994758560836e-09,-8.83572971305414e-05,-0.044072912029976305,0.022869821341291525,0.0,-6.143760836916736e-10,0.07607312690573913,0.23184061179499516,-3.074775266407614,-2.2858066352005694e-08,-6.518730320742522e-10,1.491400008251306,-1.0,-0.017135661485113075,-4.430152193066477e-10,711.1847098968381,393.9881687882473,401.41313085098926,707.02041263138
0.108,-2.8446560631391373e-11,-3.9967175505395516,0.018401171359597162,-6.465383690466095,-5.357513621394423e-08,2.116635912171213e-09,-0.00010028181262585804,-0.047285208535028454,0.024531503962043472,0.0,-6.511500190867529e-10,0.08238945051159385,0.2512407780173703,-3.3329122667858733,-2.3971756404398298e-08,-7.816341832001105e-10,1.4770222041347898,-1.0,-0.017772757166798693,-5.361986753148299e-10,710.9662482784358,393.3146526146648,401.0259541214269,706.6453158077732
0.112,-3.241384527930234e-11,-3.99620666818411,0.01948957018267061,-7.334150154439111,-5.947818391869316e-08,2.59317515949985e-09,-0.00011278726943839322,-0.05059756127920268,0.026244363257203765,0.0,-6.876205387882948e-10,0.08876313371225397,0.27085411377985247,-3.5938449145605906,-2.5043726756989303e-08,-9.217722188683128e-10,1.4625079438370852,-1.0,-0.01838771844460551,-6.44394798220491e-10,710.7422288598972,392.63975667248445,400.628662450754,706.2698949523194
0.116,-3.6721158670096714e-11,-3.995642037359906,0.020645226891247547,-8.263728524783406,-6.560639025998916e-08,3.158498974421412e-09,-0.00012586624607589504,-0.05400865034293073,0.028007723443744872,0.0,-7.234448387601494e-10,0.09518827647116125,0.29066354301275604,-3.857345313290378,-2.6070181238567315e-08,-1.0689426551744137e-09,1.4484332060030953,-1.0,-0.01900885677032125,-7.678584854183562e-10,710.5279331162857,391.97873706555237,400.24836361875555,705.9026249110303
0.12000000000000001,-4.1386842177912886e-11,-3.995019821078434,0.021866703305165606,-9.254649472213085,-7.195030569413629e-08,3.823527084969552e-09,-0.000139511389457305,-0.05751716809117166,0.029820915030003513,0.0,-7.59200767728817e-10,0.10166066176251035,0.3106570570747652,-4.123253143541446,-2.706719087203551e-08,-1.2255151574157052e-09,1.4353867777502187,-1.0,-0.019636186388774263,-9.077633887928787e-10,710.3354919097261,391.35366069726365,399.9066383497064,705.5557191139945
0.12400000000000001,-4.642966862263453e-11,-3.9943359736083717,0.02315227791064357,-10.307430032651997,-7.850805133620574e-08,4.603720318156798e-09,-0.00015371694107050164,-0.061121742894345056,0.03168327476428597,0.0,-7.947592290407827e-10,0.10817755493388433,0.33082713808616065,-4.391467940863377,-2.804663996503647e-08,-1.3858478643418867e-09,1.4239807940737648,-1.0,-0.02028751215043267,-1.0698695898799537e-09,710.1796869583842,390.78367960428596,399.629823092841,705.2397242681093
0.128,-5.1861632821728084e-11,-3.993586241786095,0.024499937841271146,-11.422586511157695,-8.52555861472986e-08,5.508992778088092e-09,-0.0001684756646168455,-0.0648210923030988,0.033594145583865524,0.0,-8.292737655716455e-10,0.11473759834947853,0.3511704727965872,-4.66194524153026,-2.8983228530992043e-08,-1.5469519903590728e-09,1.4148527965638582,-1.0,-0.020928344010740056,-1.2483405505728786e-09,710.069486021574,390.3005354768428,399.43395206642094,704.9721212798096
0.132,-5.76930855856341e-11,-3.9927661659774656,0.025907370139389013,-12.600648621284549,-9.217464546228248e-08,6.55347494788142e-09,-0.0001837803907190911,-0.06861394584558723,0.035552876564369104,0.0,-8.621558935202118e-10,0.12134081948354228,0.3716880159161872,-4.934697375243293,-2.9859761720356586e-08,-1.706602943683238e-09,1.4086674498530884,-0.91888188067929,-0.021575422062517845,-1.448517505489344e-09,700.1075397473015,407.4565501091361,416.4814879252485,694.7766310567221
0.136,-6.394471359329451e-11,-3.9918711262262754,0.027371878513072025,-13.842112137824566,-9.926134317234007e-08,7.75121379004855e-09,-0.00019962477431542758,-0.07249899407850843,0.03755882286955031,0.0,-8.934515608484069e-10,0.1279861679962933,0.39237735914721555,-5.209692036870098,-3.068232513344357e-08,-1.8633855560097558e-09,1.4062680284804006,-0.7868904105758052,-0.022237592491026897,-1.6708928511335436e-09,683.7024190718006,434.26037127379465,442.9969262066807,678.074316766319
0.14,-7.06341238384091e-11,-3.9908967539233,0.02888976115605116,-15.146921542764426,-1.0650829892714407e-07,9.116454339871624e-09,-0.00021600176911811664,-0.07647499080384086,0.03961134570144605,0.0,-9.247323605399003e-10,0.13464902974069845,0.4131625895454857,-5.4859205766303445,-3.149603661753327e-08,-2.0233684998634566e-09,1.4097728528848372,-0.6497615270519945,-0.022897739843659705,-1.916285480639931e-09,666.3590920177536,460.6534747760234,469.1410769325262,660.4110078288606
0.14400000000000002,-5.2704250299001545e-08,-3.9898394252059033,0.030455841049702392,-16.514037322938748,-2.5374868286306843e-07,-4.632648691352847e-05,-0.00023290439422086903,-0.08054070150379346,0.041709812250913796,0.0,-5.290715489509087e-06,0.14125704914184295,0.43383465850702574,-5.760629470952841,2.2373359694482913e-05,-7.771035431866111e-05,1.4222856619230178,-0.5086038458053812,-0.022950765341090137,5.4126933609258936e-05,648.0628726260263,486.6051360916131,494.86608569654265,642.085161081763
0.14800000000000002,-6.411382993978649e-07,-3.9886973785326125,0.032063779617174056,-17.941648666828602,-1.911142857929593e-06,-0.0005743998692835477,-0.0002503257335655803,-0.08469490324508558,0.04385359564854689,0.0,-6.478734279442692e-05,0.14760270319910257,0.4540774775586366,-6.030128544992188,0.00029461108073447115,-0.0009582373048965335,1.4463207652277024,-0.36434562323111996,-0.017946840824386585,0.0006187787597841805,627.6420770858558,512.0322498573148,520.215858334792,624.5088400200065
0.15200000000000002,-1.9134146149698612e-06,-3.9874724619963327,0.03370675834291143,-19.4277255673011,-5.727524438658633e-06,-0.0017477160145235944,-0.00026825893541313053,-0.08893638458395846,0.04604207491596504,0.0,-0.00019470570441350917,0.15319993295341364,0.4735407484104056,-6.291793609949786,0.0009463294336880424,-0.0028995516538877636,1.4830462564593758,-0.21732441486511878,-0.016444094401135183,0.0013942488320316513,606.6272745683211,536.123172165058,546.0701318495254,606.1569351765096
0.15600000000000003,-3.7966104733948965e-06,-3.986168112834463,0.035377250236758855,-20.969773367312204,-1.1774635764236466e-05,-0.003541792416644195,-0.00028669721181821914,-0.09326394547191293,0.0482746349174772,0.0,-0.0003633730699377957,0.15754207203814383,0.4918847469915426,-6.543888189289801,0.0019048539784928841,-0.005456838083250988,1.5341094608213517,-0.06818080750632705,-0.01738797673278688,0.0021676971229987042,585.2671127448393,559.5053262363489,571.8073140358985,586.9151675249208
0.16000000000000003,-6.193650826749612e-06,-3.984788420150581,0.03706709925801334,-22.564838956082514,-2.0035750592142667e-05,-0.005912753865339693,-0.00030563629295642623,-0.09767613242802727,0.05055066631211418,0.0,-0.0005199056022134273,0.16038798559520076,0.508809960194107,-6.784648150326667,0.002972201629273026,-0.00788992666717707,1.6010192127291178,0.08241833205919291,-0.018698045455449404,0.002915507894240356,563.3836196462461,582.5481743047606,597.0469935041385,567.1113054595814
0.16400000000000003,-8.99438647377005e-06,-3.9833376643186775,0.03876790027701817,-24.209564991950487,-0.0002116115144740095,-0.008657885404411371,-0.0003250694873640334,-0.10217177110075312,0.05286956550602828,0.0,-0.0006558309448983573,0.1617779798278731,0.5241048035419,-7.01209494915328,0.003709123137947647,-0.009970418150275395,1.6845333797855797,0.23383604301352112,-0.019999817091754538,0.0034503698220988356,541.2919342009521,605.5541820577484,621.4520054870355,546.5507883923051
0.16800000000000004,-1.1880109009043935e-05,-3.9818170023119066,0.04047338573410624,-25.897340343030937,-0.0017682304137293242,-0.01074992097603546,-0.00034499016608680917,-0.10674969822649895,0.0552307346052572,0.0,-0.0007436728920948421,0.16203702459938293,0.5379812646625232,-7.219517685672796,0.0014986046254488307,-0.011028847570683288,1.7805741252690073,0.38207785564701346,-0.022429824097744824,0.0028007788273065465,521.4076196477745,629.1415002117036,643.2639449985423,523.8076463870966
0.172,-1.4733641251095714e-05,-3.9802221345534954,0.042181145792740786,-27.617488395691346,-0.0048609376545012345,-0.01191758300684974,-0.00036539176216853733,-0.11140876153845194,0.057633581368849565,0.0,-0.0007735677195839621,0.16183842275594712,0.5513046534579444,-7.393591911939116,-0.0041601845912856445,-0.011023918710067106,1.8815045002767028,0.5219743444272726,-0.02248596436193715,0.0018076205593195098,502.52849250400806,651.6779492478099,662.6026058972574,501.3913849551029
0.176,-1.755962878970749e-05,-3.978548098449958,0.04388912845652847,-29.358886789328004,-0.00945703305710191,-0.012058383056323067,-0.0003862677701434518,-0.11614781967609845,0.06007751916234956,0.0,-0.0007578466083600075,0.1618151024552638,0.5649920455366144,-7.522677007701536,-0.011669828646310694,-0.010514398918370822,1.9866677406044513,0.6522975044181454,-0.0211571715241822,0.0006568633523134465,484.79562432415304,672.718412943008,679.8847331548238,479.7252297016945
0.18,-2.036741430625824e-05,-3.976789837766905,0.045595234379774946,-31.109883458053474,-0.01556728897601023,-0.011062928274067942,-0.00040761174553254715,-0.12096574209543717,0.0625619669116377,0.0,-0.0007245657786409085,0.16221462539357182,0.5793813035685764,-7.602378338996148,-0.019347912491644886,-0.010028435053443151,2.096218104181881,0.7716830437342526,-0.019657692346863972,-0.0006638384298794499,468.84226176957816,692.0978958555122,695.2321211093835,458.92393393745954
0.184,-2.3171675656823986e-05,-3.974942221765329,0.04729733109979288,-32.85820946267737,-0.0232122260414214,-0.008821920379290351,-0.000429234957786514,-0.125862337701036,0.06508634905712558,0.0,-0.0006745237418237393,0.16312087945491965,0.5945354006764132,-7.630534158403935,-0.027331518514487774,-0.009635503014214114,2.2102825640244315,0.8786205243898009,-0.01583800554364708,-0.0021589456630305695,454.7476550707514,710.0383441772099,708.3222596572256,439.8229510301476
0.188,-2.5993033997346615e-05,-3.9730000610637535,0.04899329090370008,-34.591675814023795,-0.032404260790205315,-0.0052375341144200085,-0.00045113327762733274,-0.130836486137218,0.06765009550830155,0.0,-0.0006069984487744369,0.16461931218652726,0.6105164721713955,-7.605661611394086,-0.035655384918211616,-0.009391666523225354,2.3289123873508437,0.9723624629661728,-0.013814456983364344,-0.0038196311369256787,443.61854549110507,726.0593111158045,719.6940946943654,421.986424606437
0.192,-2.8858748559764258e-05,-3.9709581358348327,0.050681000505697925,-36.29848194086284,-0.04312457341175729,-0.00023633944422959987,-0.0004733026154244469,-0.13588707770067246,0.0702526415986251,0.0,-0.000521328395358069,0.16679506512913747,0.6273867309069436,-7.528180037151735,-0.044238556907506575,-0.009330870331338772,2.452139138801855,1.0,-0.011610522594437279,-0.005621508179631926,445.59209008734,734.303696498076,722.9471241294143,417.132803224031
0.196,-3.180298907203651e-05,-3.968811224401465,0.052358372373718744,-37.96757395632158,-0.05534319261411043,0.006218870581223487,-0.0004957389208662202,-0.14101301325257584,0.07289342804076722,0.0,-0.00041707397690751035,0.16972970207589227,0.6452042128786388,-7.400217647958565,-0.05295083972484762,-0.009506638008164628,2.5799710237503035,1.0,-0.009230312834031154,-0.0075253766850135895,453.1672870031275,739.479911880343,722.8421082711883,417.9333521638759
0.2,-3.486712877536202e-05,-3.9665540737636555,0.05402343092145824,-39.58885351122738,-0.06901745244301216,0.014145008274958392,-0.0005184381826339208,-0.14621320413138686,0.07557190088219415,0.0,-0.00029403804746363767,0.17349977320334395,0.6640290331180712,-7.2251928792003834,-0.06166171425461162,-0.009959297182962314,2.7122405858877405,1.0,-0.006679936981021451,-0.00950915865447281,460.88544804067686,744.8250374073929,722.7055169264008,418.7479285027426
0.20400000000000001,-3.8100135021363845e-05,-3.9641814655112464,0.055674274149336796,-41.153897835606074,-0.08408115460202734,0.023523992179799995,-0.0005413959386078058,-0.15148622087095487,0.07828751146109221,0.0,-0.0001522707617606228,0.17817316745130266,0.6839173380588645,-7.008307312821033,-0.07024054644863402,-0.010719619554980258,2.848854736845353,1.0,-0.0039718471336158846,-0.011532772994982248,468.6607399482979,750.2833969149436,722.5876303700722,419.6579480688888
0.20800000000000002,-4.155865317821652e-05,-3.961688259107899,0.05730905494252831,-42.65581753826354,-0.10046051217703982,0.03428830002818076,-0.0005646082603781859,-0.15683099973234815,0.0810397163626309,0.0,7.81790619055172e-06,0.1838062913589391,0.7049105642247874,-6.756215307577553,-0.07851964962287909,-0.011817575807116136,2.9897560836886448,1.0,-0.001121414390736564,-0.013537823966918562,476.3793640576791,755.7790616638503,722.5629957044441,420.78450257475606
0.21200000000000002,-4.530723345214963e-05,-3.9590693357067646,0.058926073034239315,-44.08898121108572,-0.11806435203256724,0.04632752793602835,-0.0005880712575119194,-0.16224648715806578,0.08382797737556207,0.0,0.00018530709998573012,0.1904445902292881,0.7270448732950688,-6.475286680335659,-0.08631379939501956,-0.013295512395583608,3.134698927257292,1.0,0.0018622753245592302,-0.015471543093606287,483.9385806016394,761.2421254438502,722.6944699651854,422.2297289036085
0.21600000000000003,-4.941773193967977e-05,-3.95631974685568,0.06052363372208481,-45.44876975469746,-0.13679299744207754,0.05949780307866028,-0.0006117810772367492,-0.16773163968778854,0.08665176144915254,0.0,0.0003787432697922238,0.19812648043512474,0.7503358079681942,-6.170754067782784,-0.09345230357256107,-0.015186229415462129,3.2837197076575046,1.0,0.0049646009848826975,-0.017290388827429677,491.26839844636777,766.6204297389195,723.0394873617221,424.08250089050034
0.22000000000000003,-5.396907809453664e-05,-3.953434685160532,0.06210011102663851,-46.73139364572581,-0.1565470712112485,0.07361212501515456,-0.0006357339041280721,-0.1732854238747773,0.08951054065044776,0.0,0.0005861165017297383,0.20688674013083652,0.7747791659736369,-5.846873764218033,-0.09978047000394086,-0.017489424560907747,3.4367265887195115,1.0,0.008184476552717835,-0.018938152373691782,498.2733438665103,771.8473314909753,723.6670073862417,426.4546151671921
0.22400000000000003,-5.904688251105559e-05,-3.950409467708462,0.06365399079787126,-47.93374230731475,-0.17721590466404183,0.08845312145048576,-0.0006599252703432636,-0.17890636730880757,0.09240379212186403,0.0,0.0008048000158699748,0.21675911101246653,0.8003607203232539,-5.507117035922764,-0.10515283809818605,-0.020215555627255247,3.5935381397400876,1.0,0.011513342703574273,-0.020371741671137877,504.885144577406,776.870828910142,724.6280047769823,429.42128987727926
0.22800000000000004,-6.474223372200946e-05,-3.9472396391955877,0.0651837967375084,-49.05325693709321,-0.19869425621354997,0.10378320748226927,-0.0006843514425212536,-0.18459346172495122,0.09533099803910691,0.0,0.001031560654861778,0.2277782183323435,0.8270519840728895,-5.154321228222991,-0.10945450347335643,-0.023351414308374212,3.7541195842604083,1.0,0.014928046528296579,-0.021558669923676596,511.06387270110423,781.6536568761729,725.9641027276356,433.0330923532259
0.23200000000000004,-7.115131528323205e-05,-3.943920900523954,0.0666881837286908,-50.08783288039817,-0.2208798713229614,0.11933708697581595,-0.0007090087236482902,-0.19034570857602393,0.09829164556941347,0.0,0.0012625733200726447,0.23998112128363677,0.8548110313270165,-4.790805043989573,-0.1125977997531687,-0.026876422592989956,3.9182456046285186,1.0,0.01843468543877745,-0.0224568441742673,516.7432266583025,786.1477513117336,727.720851750376,437.3556744387426
0.23600000000000004,-7.83747760746258e-05,-3.940449076038928,0.06816598744019264,-51.03573796152702,-0.2436626573298361,0.13482894147091068,-0.000733893452754864,-0.19616211895191987,0.10128522683011584,0.0,0.0014933429032314804,0.25340816008023126,0.8835981042916234,-4.418470589413023,-0.11449262212428439,-0.03077198898289412,4.085586107113629,1.0,0.022016201859487064,-0.023031412812230995,521.8720450231662,790.3097682949531,729.9342538516466,442.4259675108754
0.24000000000000005,-8.651600229384146e-05,-3.936820222812184,0.06961615082719552,-51.895543854723975,-0.2669383560191748,0.1499689040111597,-0.000759002004614973,-0.20204171349956765,0.10431123884752391,0.0,0.0017187188025563703,0.26810369569701586,0.9133614038192832,-4.038876929339393,-0.1150773304981709,-0.03499936377121299,4.255954479680329,1.0,0.025657660499899895,-0.023265905597951688,526.4350860537996,794.1209173431871,732.6187488240772,448.2432218765645
0.24400000000000005,-9.568052465951854e-05,-3.9330305644888917,0.07103780165821419,-52.66607194345836,-0.29060068702420755,0.16445806049968242,-0.0007843301539820402,-0.20798295493163038,0.10736918351612457,0.0,0.0019329510966749363,0.2841166921365551,0.944034155580727,-3.6533004641012496,-0.11432222304987205,-0.039507979792775406,4.429003423902455,1.0,0.0293545402788513,-0.023137826604014314,530.3993496819966,797.5535942402919,735.7907508949236,454.81195888108715
0.24800000000000005,-0.0001059749406814871,-3.9290764905263083,0.07243027191747674,-53.34634811713924,-0.31453948825652084,0.17799229729697366,-0.000809874353872605,-0.21398488960080356,0.11045856755809544,0.0,0.0021296919207526056,0.3015008823363306,0.9755459012918756,-3.2627878912109933,-0.11220227929882239,-0.04425244044099787,4.604340446860048,1.0,0.03307207864101848,-0.022628782132884558,533.7415412955136,800.5807594873226,739.463009639303,462.11761000617236
0.25200000000000006,-0.00011750473020568512,-3.9249546755792046,0.07379302576491405,-53.93556618653117,-0.3386481522031042,0.1902823130632024,-0.0008356310920891892,-0.22004657311859374,0.11357890248313057,0.0,0.0023020489578966692,0.3203148514221262,1.0078073673459447,-2.8681980435797403,-0.10872873704856563,-0.04917532744335356,4.78171282499707,1.0,0.03679142169943521,-0.021743520742213224,536.4775168989233,803.2057779297869,743.6194928015523,470.1052743082239
0.256,-0.00013037531233427277,-3.920661830014212,0.07512586625283724,-54.43305551897334,-0.362791246112147,0.20102937258859985,-0.0008615968909293047,-0.22616707027821079,0.11672970454857584,0.0,0.002442596753769702,0.34062166580060993,1.0407367720778884,-2.4702319076504335,-0.10388906028602318,-0.05419975896491327,4.960444158216871,0.9369156677459807,0.04048506922317573,-0.020459055673148038,548.5633378473683,798.6138372972773,740.9704322847849,489.9809286741856
0.26,-0.00014469130554457116,-3.916194664260405,0.0764289765429726,-54.83842456729259,-0.38680034792211054,0.20992417519209755,-0.0008877683068967113,-0.2323454549780552,0.11991049471987206,0.0,0.00254319833844313,0.36248755221197604,1.0742712624873811,-2.0697543731672914,-0.09762289053712088,-0.05922609691018497,5.139763662327239,0.8630803272892296,0.044098545439461345,-0.018750670036795668,561.3770184418141,792.3411092252474,737.6026261222186,511.6586652342748
0.264,-0.000160553613911724,-3.911550081075099,0.07770280223300312,-55.15212067023211,-0.41048831061263413,0.21665217238179593,-0.0009141417326328905,-0.23858025881371778,0.1231207986313028,0.0,0.002594853945630195,0.3859763730114861,1.1083460235428846,-1.6688303296398126,-0.08983928852229432,-0.06417166295560832,5.319127323821894,0.7835319550148379,0.04756801944254117,-0.016599403367060128,574.079829057802,784.8612896346713,734.1179930899887,534.1145783437711
0.268,-0.00017805730824691816,-3.9067252636545184,0.0789480061917849,-55.37559297331558,-0.4336299238130959,0.22089541817714684,-0.0009407137945772903,-0.24487058030263062,0.12636014654704567,0.0,0.002587698506486809,0.41114265255398985,1.1428519281154794,-1.2710307161887708,-0.08047228313154302,-0.06894756613617838,5.498074491917769,0.706729428450455,0.050805693299606734,-0.01398821921511784,585.4101570741977,777.039530484191,731.5343072797205,555.9474327121837
0.272,-0.00019729002504264353,-3.9017175430316597,0.08016557663759827,-55.511430747738075,-0.456042166617138,0.2224081325735702,-0.0009674811525011821,-0.25121552678138115,0.1296280733225239,0.0,0.0025116714286231804,0.43802296096081345,1.177672270415497,-0.8808497588284843,-0.06962597308143377,-0.07349574224451003,5.675918307605569,0.6269367733860287,0.05382555380065891,-0.010988189499022803,596.3658539756727,768.2953708296217,729.0791556130631,577.9558393697191
0.276,-0.0002183300571882945,-3.8965245204995282,0.08135673778323045,-55.56284970636118,-0.47752459059581404,0.2209913336402943,-0.0009944404992279269,-0.25761421433201803,0.1329241183660568,0.0,0.00235715582792264,0.4666345211773691,1.2126975116705705,-0.5024021296706984,-0.05751771137301455,-0.0777463091597868,5.852142950224444,0.5450013861138148,0.05656753126503904,-0.00764369862420351,606.9098430699405,758.7298596110239,726.7952325337172,599.9099945231897
0.28,-0.00024124551548724215,-3.8911440223552933,0.08252298290374062,-55.53372783922582,-0.4978707428960031,0.21647553700137967,-0.001021588560355408,-0.2640657677089268,0.13624782560080612,0.0,0.002115217857729103,0.4969762652624742,1.2478116797193772,-0.13873937851888762,-0.04431867634736664,-0.08162514908908086,6.02615802557102,0.4618575917736491,0.05899431421277263,-0.003980829042141625,616.9626090557497,748.435093596263,724.7548714068664,621.628760815721
0.28400000000000003,-0.0002660927312993768,-3.8855741383782725,0.08366603969652595,-55.4283502939132,-0.5168562584480693,0.20872878143914317,-0.0010489220939806161,-0.2705693202662707,0.1395987434270168,0.0,0.0017773189917440345,0.5290307220526491,1.28290037248939,0.2076863312137986,-0.030133753926121193,-0.08505203124310994,6.197434923960955,0.37818979947016607,0.06104443301739719,-3.623781048733843e-05,626.5032636671068,737.4882640267621,722.9919958102801,642.9719267413536
0.28800000000000003,-0.0002929157558749335,-3.879813140625816,0.08478792275753282,-55.251650486698914,-0.5342302962339556,0.19767040227813146,-0.001076437890426368,-0.27712401388599234,0.1429764246845496,0.0,0.001335497770924844,0.5627626374545285,1.3178604180275848,0.5345322818937068,-0.015072212165048096,-0.08792169852914457,6.365331119320873,0.29499480560959057,0.06265630344433788,0.0041357969136496826,635.4913498414094,726.0262636255426,721.5532541059181,663.7494690315665
0.29200000000000004,-0.00032174560363486444,-3.8738594384866984,0.08589095494845865,-55.00931485841808,-0.5497346402796924,0.1832658085107231,-0.001103865012844676,-0.28372808328694255,0.14638042661570336,0.0,0.0007827105288798501,0.5981152516369131,1.3526123750399617,0.8389702539507413,0.0007393430089089952,-0.09011531407134059,6.529151630836045,0.21343950774096399,0.06690524432706565,0.008484997346711416,643.437755454,714.5861019444369,720.1343935621968,684.1712773650497
0.29600000000000004,-0.0003525987735495273,-3.867711635127149,0.0869777059479716,-54.70742423469833,-0.5631005951701596,0.16551493500262487,-0.001131203537947462,-0.2903806982132481,0.1498103108283251,0.0,0.00011295605772789899,0.6350085661043126,1.3870922668774213,1.1183775772171218,0.017183498239110022,-0.09154515237026013,6.688316416373324,0.13432747162902392,0.06768137621970578,0.012972685837014417,651.1245322810782,702.5565785094568,719.5029304595952,703.3596597460718
0.30000000000000004,-0.0003854764863046276,-3.8613685280580423,0.08805096925994409,-54.35234490784326,-0.5740325545755892,0.14443008698301893,-0.001158453544715609,-0.2970810366244674,0.15326564325920558,0.0,-0.0006789494158407661,0.6733419731914319,1.4212423770479043,1.3709828974301885,0.034217722222187955,-0.09215306620208738,6.842284280667245,0.05836629001004279,0.06784651400682219,0.017584648132916058,658.101317884398,690.3598608630276,719.3739140801326,721.6413227672749
0.30400000000000005,-0.00042036331612869265,-3.8548291163861332,0.08911373011647535,-53.95058315568686,-0.5822327382798858,0.12004085524101611,-0.0011856151143688888,-0.30382828462659867,0.15674599413775817,0.0,-0.0015975915557484178,0.7129979305305701,1.4550137429474868,1.595740739064372,0.05183493106206272,-0.09189940483209226,6.990572085967205,-0.013882362027494044,0.06734791969594245,0.02230041943007834,664.3419937033051,678.0687668548153,719.7853647664716,738.9770527277177
0.30800000000000005,-0.0004572257194207812,-3.8480926167914893,0.09016912330396545,-53.50860620160055,-0.587386299082112,0.09242297421664321,-0.0012126883303361722,-0.3106216364036229,0.16025093794997916,0.0,-0.0026468498548295714,0.7538456113072062,1.4883673790657745,1.7922483399818965,0.07000326705039502,-0.09072159043448899,7.132776225235404,-0.08205176541373554,0.06611249051927204,0.027065112244022943,669.8954423382474,665.7825573201148,720.7111469275644,755.3075825014803
0.31200000000000006,-0.0004960113276794796,-3.8411583868266277,0.09122046371001567,-53.03311398576072,-0.5892042615404262,0.061700444688766384,-0.0012396732782259164,-0.3174602941495774,0.1637800534026873,0.0,-0.003829194203093346,0.7957413276166009,1.521284517998261,1.9601213942410898,0.08859880302331505,-0.08857762062401985,7.268426377314099,-0.14545600062841296,0.06412325683043604,0.031819459361060023,674.7632947777006,653.6620511987562,722.1486162032433,770.5390087603346
0.31600000000000006,-0.0005366475864670836,-3.8340259941275163,0.09227115550180978,-52.5305912200076,-0.5874014309705531,0.028024887124733,-0.0012665729404439134,-0.3243423886626007,0.16733292338804046,0.0,-0.005145520046064037,0.8385308350052456,1.5537623139844392,2.099286264131158,0.10749239160195505,-0.08541922669479171,7.397230851255218,-0.2039116370366043,0.061296759880387464,0.03652632149189039,678.9913208781907,641.7763059971604,724.0737159655039,784.6573362369303
0.32,-0.0005790410117441878,-3.8266951556129953,0.09332470647288735,-52.00750367890837,-0.581701930158072,-0.008389770111432044,-0.0012933873720303835,-0.3312671509460854,0.17090913494832735,0.0,-0.0065950152914840314,0.8820514520446127,1.5858128981504742,2.2100483239641546,0.12655020217487079,-0.08120894204824163,7.5188660396852285,-0.25701621921113493,0.05766093499745842,0.041106893296407335,682.6356636518437,630.3042231184243,726.4213326546982,797.5849846135592
0.324,-0.0006230764599775293,-3.8191657079174974,0.09438471594414327,-51.470321263820026,-0.5718805345824579,-0.04728322423147641,-0.001320116630433369,-0.338233819695344,0.1745082792410327,0.0,-0.008174724758676599,0.9261333665996279,1.6174706537313241,2.2926149546242236,0.14558031182920123,-0.07590585619802255,7.633029632617305,-0.3043371400848529,0.05319447846042845,0.04549840875212186,685.7311575807108,619.4114978770305,729.1562887281331,809.254342340399
0.328,-0.0006686164482434427,-3.8114376572588227,0.09545479272983137,-50.925172710233,-0.5577253869058438,-0.08836230791687558,-0.0013467607754777688,-0.3452416412327121,0.17812995150417293,0.0,-0.009879541516562972,0.9706016665527303,1.6487846768729102,2.3475528497806,0.16439858568039512,-0.0694865711217997,7.7395829364561495,-0.34584020296882967,0.04786716470841701,0.049651961073352756,688.3467026593303,609.1998205258249,732.2180127805561,819.6553729300905
0.332,-0.0007155007692964671,-3.8035111055010686,0.09653857912686134,-50.37806601894278,-0.5390799418058609,-0.13127513696405327,-0.0013733242981951535,-0.352288620238184,0.18177375102190133,0.0,-0.011702082187992879,1.0152791939242491,1.6798183215252718,2.3757622139857633,0.18280575764515086,-0.06195769104150504,7.838338312523115,-0.38125285762054384,0.041649385514050404,0.0534870738456955,690.5599801789425,599.8569379400473,735.5340968078236,828.7123555371431
0.336,-0.0007635463255668311,-3.7953862569722574,0.09763970483452213,-49.83473038099397,-0.5158345278781389,-0.17561720083877702,-0.0013998072097666293,-0.3593740331308983,0.1854392810903802,0.0,-0.013632391937386116,1.059989011310069,1.7106521069192648,2.3781978504393346,0.20054474920539977,-0.053282881250836425,7.929200618990294,-0.41049120491040203,0.034658884144246414,0.05692794971497776,692.4477946912269,591.5681637813502,739.0015546894713,836.3879512648969
0.34,-0.0008125474094019216,-3.7870634159667174,0.09876174802201311,-49.30052372883921,-0.48795717397134863,-0.2209703900797843,-0.0014262095241411308,-0.3664971636293438,0.18912614898391802,0.0,-0.0156578375708432,1.104555734510959,1.7413776396100906,2.356134576060336,0.2173636991662052,-0.04353279875972761,8.01215417277209,-0.43359436715777,0.026908567910833216,0.059942192259210984,694.0583875658679,584.4247610721471,742.5720486142764,842.6898190877425
0.34400000000000003,-0.000862276435365044,-3.7785430069471273,0.09990817609534361,-48.78026931566038,-0.45544952860279975,-0.26690740310759,-0.001452531258001704,-0.3736573026895539,0.19283396592137,0.0,-0.017763805140247082,1.1488107510794312,1.772088273455116,2.3113865831458527,0.23307437183734442,-0.03277527019669723,8.08730519077385,-0.45081394530362096,0.01841877340393408,0.06250196530068983,695.4611546047204,578.4813806262763,746.1806881224489,847.6480598945768
0.34800000000000003,-0.0009124846689544144,-3.769825535407291,0.10108234201576127,-48.27832158926432,-0.4183780529707687,-0.3129886917230288,-0.001478772430732097,-0.3808537484437812,0.19656234703279937,0.0,-0.019934093032181445,1.1925953617227958,1.8028782652447777,2.2461090691902994,0.24753067987181493,-0.021102435202141778,8.154770935330717,-0.46235781257767017,0.009248728639778894,0.0645754572317671,696.7199277189618,573.8066516244679,749.7597392343453,851.2810472704496
0.35200000000000004,-0.0009629034402142226,-3.760911582749369,0.10228745224379499,-47.79852172129021,-0.37685569183236545,-0.35876269139470796,-0.001504938553096534,-0.3880843849268103,0.20031091132639842,0.0,-0.022150964550952366,1.235762466294339,1.8338461256826128,2.162447128039364,0.26055585563010764,-0.008579883931219142,8.214737417788278,-0.468514790240521,-0.0006173586245105667,0.06613059188508895,697.918999468886,570.4419139748064,753.2430865876433,853.6021048037176
0.35600000000000004,-0.0010132450447562149,-3.751801745674858,0.10352658983615853,-47.34428148537536,-0.33108786079152497,-0.4037326373907288,-0.0015310295837190012,-0.39534854154698207,0.20407928165566652,0.0,-0.02439455782271351,1.278176494588223,1.8650963691266633,2.0624703603960066,0.27188723206336135,0.0047122694608922894,8.267348486830931,-0.46950816969932574,-0.010953324960093658,0.06709600413337155,699.1546275269031,568.5293027633555,756.4974348721396,854.5933776551404
0.36000000000000004,-0.0010632049095661924,-3.7424966467026515,0.10480267386455366,-46.91851908320418,-0.2813561491075217,-0.44738635196433235,-0.0015570454844232998,-0.40264555455301254,0.2078670846868438,0.0,-0.026642532395226143,1.3197138947153042,1.8967358331148945,1.9482125454875905,0.2812030111888236,0.01868842062205858,8.312834327918516,-0.46566316174960243,-0.02171462488696179,0.06743323424600231,700.5161278050422,568.1087149255528,759.4419294521075,854.2595829177062
0.36400000000000005,-0.0011124637928077096,-3.7329969128733973,0.10611845180853957,-46.52364704411285,-0.22802700965001,-0.4891865863842973,-0.0015829862201960224,-0.40997476697580315,0.21167395086659824,0.0,-0.02887000091389162,1.360263877548674,1.9288677031545227,1.8217958020873826,0.28817677857564844,0.03322919541866696,8.351445835691436,-0.4573508215422707,-0.032779163149005155,0.06709187179191932,702.1041733258749,569.2331583199161,761.9687549807377,852.5992670491034
0.36800000000000005,-0.0011606908316633031,-3.7233031705884088,0.10747647997101181,-46.16157963625468,-0.17154489024639996,-0.5285846658874447,-0.0016088517591498603,-0.4173355285707056,0.21549951438996442,0.0,-0.031049659050194515,1.399729709795254,1.9615875766094746,1.685400432917589,0.2925027343714701,0.04821164834763089,8.383479164967087,-0.4449664447818872,-0.04401539262997928,0.06603637879992387,704.001803114655,571.9181475020647,763.985798365775,849.6249506103783
0.37200000000000005,-0.0012075474871661382,-3.7134160573035935,0.10887909097703903,-45.83375511623569,-0.11240298328425276,-0.5650532089932179,-0.0016348781898368504,-0.42472550479596893,0.21934341316853218,0.0,-0.03315237253864596,1.438028962269605,1.9949799489523996,1.5411620685995682,0.2939453797872714,0.06349947367254055,8.409302569865552,-0.4289120814230578,-0.05805900442716293,0.06426893113778144,706.5818592506632,575.6932867342069,765.7580910782372,845.1037851899476
0.37600000000000006,-0.0012526907588771095,-3.703336176534122,0.11032842087210623,-45.54116031463636,-0.05115736356692995,-0.5980614109096601,-0.0016610626446046902,-0.4321440790368847,0.22320528879888304,0.0,-0.035147665414643335,1.475093312080855,2.0291195250450187,1.3911156794935247,0.29233642581653724,0.07895655860886022,8.42923648232306,-0.40959261881641984,-0.06944311897477928,0.06176366933554061,709.2621190829502,581.336836329227,766.6029561825633,839.5909848048445
0.38000000000000006,-0.0012957770829654326,-3.693064100650905,0.11182639276124086,-45.28433566250894,0.011544870056416218,-0.6270790103349346,-0.0016874022845240377,-0.4395906410485923,0.22708478653127295,0.0,-0.03700375095565232,1.5108680777782628,2.0640741402756566,1.237233014912568,0.2874259129327788,0.0944071935076559,8.443640849526629,-0.3874372553535735,-0.08057594391896657,0.058499190145348025,712.4195638271663,588.42189764661,766.7272350687516,832.844984760868
0.38400000000000006,-0.0013364662148865503,-3.6826003487310066,0.11337472892043017,-45.063327532201626,0.07496244574514747,-0.65152320545698,-0.001713894299146038,-0.44706458690160994,0.23098155523855904,0.0,-0.038686265494059555,1.5453132736184823,2.0999009782068865,1.0815236110902302,0.27885846596552694,0.10969885977776425,8.45285787085537,-0.3629609911563499,-0.0912655436943875,0.054392065111013146,716.2002132120991,596.9866249655742,765.9587602539945,824.8229999505354
0.388,-0.0013744278080481496,-3.671945404173452,0.1149749279202043,-44.87783263817367,0.1383284965319798,-0.6708523411842577,-0.0017405359062617322,-0.45456531892779106,0.23489524738536907,0.0,-0.040158579658663804,1.5784032534673804,2.136642954739332,0.9258756100678933,0.2663507279970074,0.12466886360043997,8.457282620489952,-0.3365439573688803,-0.10135846553583784,0.04946610910694173,720.5991745838487,606.9098614906828,764.2707211330106,815.5775220201663
0.392,-0.001409346609448809,-3.6610997105638026,0.11662826574452398,-44.7271619347188,0.20084253807431793,-0.6845563172170486,-0.0017673265979348382,-0.4620908464451896,0.23882551899751156,0.0,-0.04138297670360168,1.6101260605907026,2.174326428957181,0.7719413281689772,0.2498336787210833,0.13915915537854556,8.457315078228007,-0.3086325651023145,-0.11072632469487326,0.04373558392013617,725.6330631645188,618.0702246856672,761.6167707283498,805.1513686216772
0.396,-0.0014409271059092979,-3.6500636399140514,0.11833583091440977,-44.61031665631807,0.26164949309433944,-0.6921295489399663,-0.0017942636206857664,-0.46964060098892024,0.24277202963162442,0.0,-0.04232140163719052,1.6404820973735634,2.2129677689652048,0.6212490776125564,0.2292176596202177,0.152981776962453,8.453291081049478,-0.27961129092424114,-0.11913833151661463,0.03718442551394177,731.3336653612592,630.4120865446858,757.9039288112014,793.5524944612285
0.4,-0.0014688996014771596,-3.6388375115586094,0.12009850826322022,-44.52594876894747,0.3198350734757235,-0.693102973267508,-0.0018213442488087637,-0.47721402004350344,0.2467344423450612,0.0,-0.04293521239793374,1.6694842245340102,2.2525722055332444,0.475261617373347,0.20437173374983014,0.16589708546714071,8.445585416027846,-0.24993267033691524,-0.12640853349396347,0.02983410787245123,737.6974862302436,643.8098617327371,753.0768217257039,780.8312493577295
0.404,-0.001493026267768386,-3.6274215911470953,0.12191698740774153,-44.47242423920793,0.37449934053879685,-0.6870055220552685,-0.001848565784136753,-0.484810546991723,0.2507124236660123,0.0,-0.043184969935132114,1.6971581885855365,2.293130070661523,0.3353496483651295,0.1752307317449996,0.17775285997125195,8.434562217340687,-0.22000018234397234,-0.13240246541616923,0.021662566776611554,744.772873745608,658.2025844209403,747.0319433076083,766.9728688539262
0.40800000000000003,-0.0015131074107815382,-3.61581608584373,0.12379177858881305,-44.44796647176112,0.4247497489490557,-0.6734414716870324,-0.0018759255558080028,-0.49242963106388515,0.25470564356386005,0.0,-0.04303156775371042,1.7235409338859173,2.334619119012458,0.20258708503264106,0.1418706855912599,0.1883892858342676,8.420559739947677,-0.1900705074946344,-0.13696985579983884,0.012737979335442007,752.4757112802415,673.4276844756462,739.7829572913506,752.0505479072584
0.41200000000000003,-0.0015289868986381827,-3.6040211531493807,0.12572321480133983,-44.45060135381066,0.46970000192325123,-0.6520658720083548,-0.0019034209200346134,-0.5000707272874759,0.2587137754197653,0.0,-0.04243714838998024,1.7486786563956347,2.3770073311746467,0.07775099398048572,0.10447859975718798,0.19763904321876055,8.403917680785638,-0.16047548869886322,-0.13996295273660697,0.0031028860290279424,760.7632139706209,689.3578184539458,731.2975079648397,736.1152865218107
0.41600000000000004,-0.0015405575981914843,-3.5920369040246762,0.12771146224832883,-44.47819377559415,0.5084823063626787,-0.6225930457130917,-0.0019310492598728086,-0.5077332964372142,0.26273649599748455,0.0,-0.041365963633653746,1.7726264071050188,2.420251971965601,-0.0383764290156354,0.06325183605878644,0.2052968130841209,8.384960217377222,-0.13151920760798488,-0.1412428147612154,-0.007188183195408045,769.5763849354204,705.8612166024282,721.5547095403995,719.2287161254774
0.42000000000000004,-0.0015477665903098547,-3.5798634176222883,0.12975651971390453,-44.52843478911854,0.5402207687471676,-0.5848328276637849,-0.001958805941124426,-0.5154136943877488,0.26677348541441526,0.0,-0.039784920522771716,1.7954487974790196,2.4642987851723617,-0.14503606541843705,0.018427034590755825,0.21109652736955759,8.364018163899123,-0.10353324097630989,-0.1406135444506656,-0.018035951144064373,778.8021043669227,722.7636114502759,710.5733809131897,701.523170683275
0.42400000000000004,-0.0015506196820718107,-3.5675007304936064,0.13185824742653218,-44.59892906459255,0.5641598506553775,-0.5385967055527011,-0.0019866884244519795,-0.5231114306991439,0.2708244271128679,0.0,-0.037663713243833025,1.8172201069908724,2.5090849884338318,-0.24162776295573515,-0.029683510893212604,0.21496768045155462,8.341369140529599,-0.07676053926912887,-0.1381010603205193,-0.029446874412038786,788.46790556419,740.0198189744783,698.2656760714297,682.9596407585185
0.42800000000000005,-0.0015491851190061064,-3.5549488040505355,0.13401642125860536,-44.687395564064644,0.5795988756505035,-0.4838201886746088,-0.002014694196461158,-0.530826020192562,0.27488900783156306,0.0,-0.03497549661717868,1.8380204103437339,2.5545483613017326,-0.3280111899220135,-0.08064774331974336,0.21683820077104227,8.317185232875005,-0.05121729909141691,-0.13359851896458574,-0.04128440880780572,798.394888405849,757.4545573916363,684.730523559935,663.6739444693429
0.43200000000000005,-0.001543597445036417,-3.5422075734702787,0.1362306970681263,-44.79151384545424,0.5859036724093742,-0.4205199682661252,-0.00204282076947999,-0.538556982904597,0.2789669175773519,0.0,-0.031697915996348594,1.8579329967448726,2.6006256697682977,-0.40430972131909265,-0.13395677392646857,0.21663941703673628,8.291713632162102,-0.027092969728019112,-0.1270324738562323,-0.05345696541391537,808.4867358757458,774.9395362223063,669.9900563937475,643.7720146180707
0.43600000000000005,-0.001534059814487902,-3.5292769316524857,0.13850064636612774,-44.90901508220392,0.5825021021674232,-0.34881698286671203,-0.0020710656813397307,-0.5463038440419679,0.2830578495971585,0.0,-0.02781435420983147,1.8770439334925704,2.6472478577466245,-0.47057513473024326,-0.1891033395915372,0.21417676289839757,8.265133015249667,-0.004475028389055058,-0.11834206995262408,-0.06584267656691253,818.6072951434372,792.3312721132895,654.1175244655631,623.3982071067883
0.44000000000000006,-0.0015208468690256472,-3.516156787010707,0.14082571080178807,-45.03756018483755,0.5688713480329016,-0.2689687134057008,-0.0020994264951574625,-0.5540661339365697,0.28716150035014193,0.0,-0.023314912827511056,1.8954442193340477,2.6943358101981802,-0.5267214928840669,-0.2455383903967024,0.20926288320004277,8.237717168331223,0.016408671962452936,-0.10744577443603157,-0.07827765966205757,828.5948136941141,809.4401273282366,637.2278405535224,602.8040632266855
0.44400000000000006,-0.001504305370664471,-3.502847042614761,0.1432052429224846,-45.17482375212621,0.544591747191869,-0.18133878397141795,-0.0021279007991203917,-0.5618433880008795,0.29127756948007694,0.0,-0.01819752638736154,1.9132301874579145,2.741804774304173,-0.5726782242965655,-0.30264361982792365,0.20166753753467348,8.209661341565972,0.035421873122091274,-0.09435045092345427,-0.09062791835782208,838.3260883722788,826.1239774261725,619.4221279895994,582.200641485115
0.44800000000000006,-0.0014848544058304704,-3.489347601253389,0.14563851888334223,-45.318526138306694,0.5093222550204682,-0.08645060369234901,-0.0021564862062718334,-0.5696351466837145,0.29540575978795147,0.0,-0.012468947860648666,1.9305035234585541,2.78956637188427,-0.6084387983776068,-0.35971926210857896,0.19126300344151376,8.18113787859907,0.05246507541387649,-0.07904428866882286,-0.1026924101476723,847.6050775558642,842.1839526283477,600.9129993044495,561.9355604716302
0.452,-0.0014629849708195496,-3.4756583912566428,0.14812472787319925,-45.466417456477984,0.4628603875415972,0.015023871602230017,-0.002185168633003037,-0.5774379008870216,0.2995457772047791,0.0,-0.006146378034885624,1.9473697539789108,2.8375312015517893,-0.6341483420646984,-0.41595322650031463,0.17791408801045172,8.152343065694824,0.06742163678393412,-0.06145979181270734,-0.11427662285379354,856.2471838042184,857.4462063166168,581.9165368165537,542.4091797695255
0.456,-0.0014392571074387233,-3.4617793253027958,0.15066303464357464,-45.61636821534255,0.40514479877905357,0.1222808723732013,-0.002213945882511684,-0.5852512377654041,0.30369733076462546,0.0,0.0007414912708214263,1.9639367935345107,2.885612195947007,-0.6500801023369082,-0.47046630494685654,0.16156610924357315,8.12334910500857,0.08028121890174368,-0.041970917009959724,-0.12519944436085934,864.1195115911199,871.7260013247276,562.7351655231812,523.9623293671754
0.46,-0.0014142965992789463,-3.447710290833015,0.1532526070912985,-45.76639937928342,0.3362727933364265,0.23441274370063084,-0.0022428157809434622,-0.5930747490466334,0.30786013257784617,0.0,0.00815472373458165,1.9803123875325934,2.9337329506031633,-0.6567373802283593,-0.5223910775957836,0.14234513613799415,8.094173045102854,0.09107533183421634,-0.020594617089067534,-0.1353069184493599,871.0802573000616,884.9135984663973,543.6163438038078,506.98278930454325
0.464,-0.0013887906387954792,-3.4334511405699,0.15589264303898007,-45.914709909312315,0.25643198958785,0.35036911288416916,-0.0022717761771949506,-0.6009080309914692,0.3120338978045354,0.0,0.0160426813885007,1.9966010473960458,2.9818280941070077,-0.6548006343321441,-0.5709189949550417,0.1202942855606024,8.06477752923142,0.09987655299440255,0.0025790840846350166,-0.14439539728218276,876.9399989267434,896.8473776458721,524.9472516157032,491.9714714244086
0.468,-0.0013634839589273633,-3.419001760638861,0.15858231036683898,-46.059621728233736,0.16599742589258934,0.46891977981752814,-0.0023008249427180476,-0.6087506843537981,0.3162183446281834,0.0,0.02434204170823415,2.012903923902025,3.029831011118238,-0.6449390817088084,-0.6151328420910251,0.09546483839923278,8.03524579591774,0.10670410830389337,0.027343411455253513,-0.1522119493302942,881.4781876071361,907.3055892078344,507.2743240031066,479.5575891543065
0.47200000000000003,-0.0013391717659079073,-3.4043620286799747,0.1613208066609887,-46.19962043745475,0.06551116260910593,0.5887119895190228,-0.002329959971325935,-0.6166023143410893,0.320413194229541,0.0,0.032975339320542404,2.029318318532402,3.07767606569921,-0.6278066119791452,-0.6540347462742413,0.06792576605854267,8.005541026573846,0.1116320069222673,0.05346292093170888,-0.158563076260695,884.5303640194641,916.1299732833484,491.1186624440583,470.265346361872
0.47600000000000003,-0.0013166923377396452,-3.3895318119672853,0.16410737463963732,-46.33335980606209,-0.044324157023153045,0.7082777329967161,-0.002359179179000565,-0.6244625305751637,0.32461817076069005,0.0,0.04185132981482828,2.045936404224613,3.1253079481382455,-0.6041188825729494,-0.6866926171385143,0.037907657482806334,7.975594192923764,0.11474963553134572,0.08068909462246732,-0.16325868136768507,885.9301322206823,923.1632519625401,477.0578638431695,464.591432932695
0.48000000000000004,-0.0012969187246220037,-3.37451096952064,0.16694131246993274,-46.45965925805829,-0.16264424956380935,0.8260477068893041,-0.0023887559507570657,-0.6323262776539348,0.3288330013193179,0.0,0.050866188174879964,2.0628436088569244,3.1726817831609715,-0.5746398826550725,-0.7122602199792009,0.005650926604311509,7.945313934181026,0.11615400643551382,0.10553518318945351,-0.16612013982664858,885.8292493018075,927.9541484187769,466.2924428450893,462.3514379817451
0.48400000000000004,-0.001280749369059148,-3.3592993506899873,0.16982198716967148,-46.57749606798014,-0.28843513782826885,0.9403951058185139,-0.0024186849310626705,-0.6401932301123716,0.33305741592319477,0.0,0.05990431014534554,2.0801179346713,3.219760435457432,-0.5401268059068512,-0.7299889008606174,-0.028535174439224063,7.9145799667625685,0.11594352218864412,0.13393294446141432,-0.1670157141746388,883.501145661274,930.964282642948,458.217086142926,464.93330037478273
0.48800000000000004,-0.001269097493609416,-3.3438967899096417,0.1727488513549967,-46.68599019634051,-0.4206169000643228,1.049707962911685,-0.0024489608159714996,-0.6480630662756296,0.33729114748485184,0.0,0.06884143808673528,2.0978294418323613,3.2665154707639354,-0.5013025201618059,-0.7394077890949996,-0.06431324463434356,7.883235865654173,0.1142089573955223,0.16263652249161847,-0.16589569732798215,879.1830943310609,931.8680362532523,453.7050186375267,471.7402482259032
0.49200000000000005,-0.0012628814002299744,-3.3283031396114158,0.17572141842294142,-46.784396335138304,-0.55797787585884,1.1523365722693293,-0.0024795783526964576,-0.6559354682251489,0.3415339317864596,0.0,0.07754684960349707,2.116040315530388,3.3129224691204326,-0.45884738587479357,-0.7401576228168327,-0.10132599765388824,7.851172886950117,0.11104094076739547,0.19133785161758243,-0.16264946011131176,872.7493615394986,930.541056695241,453.15827542040745,482.7285451757549
0.49600000000000005,-0.0012630139738708164,-3.312518284668118,0.17873925776475952,-46.872096676955074,-0.6991313998718067,1.24658547397833,-0.0025105323391844286,-0.6638101217650243,0.3457855074549037,0.0,0.08588299935002207,2.1348048719763417,3.358957063832322,-0.41340822649823733,-0.7317430678725518,-0.13917862121354294,7.818290105552393,0.10653035019077309,0.21965139351485485,-0.1571553457201847,864.0516939024287,926.8248245070337,456.92117039678106,497.7592369469551
0.5,-0.0012703909735276295,-3.2965421603726193,0.18180198574906703,-46.9485917007623,-0.8425200540629396,1.330695225191702,-0.002541817623694743,-0.6716867163886441,0.3500456159370582,0.0,0.0937028513445121,2.1541691361655797,3.404595380893631,-0.36560233254023744,-0.7135127011551112,-0.17744190930127055,7.784503152394213,0.10076559132216835,0.24716085242320368,-0.14926840591631685,852.8972071638682,920.5144802140904,465.2647618080545,516.6493968716728
0.504,-0.0012858770857294554,-3.2803747528352027,0.18490927049944234,-47.013471291483306,-0.9865015698631994,1.402999758588078,-0.00257342910438089,-0.6795649452455969,0.35431400147525305,0.0,0.10085245042648949,2.174171132329741,3.4498161789796398,-0.31597462830250095,-0.6850708979477427,-0.2156214585010381,7.749716505233978,0.0938090851674127,0.2735015439861243,-0.13902476184773074,839.2566451170526,911.5622640309211,477.9542161931871,538.8612550987374
