Time_s,X,Y,Z,Roll_deg,Pitch_deg,Yaw_deg,Ref_X,Ref_Y,Ref_Z,Ref_Yaw,vx,vy,vz,p,q,r,T_pert,tau_x,tau_y,tau_z,RPM_0,RPM_1,RPM_2,RPM_3
0.0040000000000000036,3.907672823421635e-23,-2.0,0.010006999594037988,3.1588276933026285e-18,-1.2404722931936249e-18,-1.2671305083394822e-20,-1.7036304823775595e-23,-2.0,0.010074639714689831,2.7486720655859e-22,-7.173352330779748e-20,-400.0,2.0013999188075973,0.0,0.0,0.0,0.13727673356390743,-3.688665432071574e-18,7.946578054346201e-19,3.319909604055624e-20,539.3555031529193,539.3555031529194,539.3555031529193,539.3555031529194
0.008000000000000007,-1.3158618786476324e-22,-2.0,0.01001099936604295,4.858799007145088e-18,-2.7745038640706565e-18,-2.2341523121970027e-20,-1.703508554769708e-23,-2.0,0.01021705724096241,2.748475345103852e-22,-5.879378143765087e-20,-222.22222222222223,1.112333262893661,0.0,0.0,0.0,0.2830776344539661,-2.2011197069145372e-18,4.471717973128489e-18,1.2462045289071618e-20,543.2938902409245,543.2938902409246,543.2938902409245,543.2938902409246
0.01200000000000001,-1.9328950580115577e-22,-2.0,0.010014999147004025,7.31934847123681e-18,-3.835480876048244e-18,-1.8858807707214634e-20,-1.703326763985179e-23,-2.0,0.010429397942859043,2.7481820401551646e-22,-1.878990611038486e-20,8.924166188668634e-23,0.000999943864330756,0.0,0.0,0.0,0.42940121619331495,-3.205519523935167e-18,3.0156392064068297e-19,-2.5062633130532894e-21,547.2178991675321,547.2178991675322,547.2178991675321,547.2178991675321
0.016000000000000014,-2.549500943907136e-22,-2.0,0.010018998946059194,8.659458180930413e-18,-3.90843905433399e-18,-1.613340932010608e-19,-1.7030858349265608e-23,-2.0,0.010710815098006973,2.747793320312416e-22,-3.388309906851563e-21,1.2064157240154645e-22,0.0009999466343935809,0.0,0.0,0.0,0.5762362185818668,-2.065403933619628e-18,3.998857757420455e-19,1.6785204293802727e-19,551.1275382973164,551.1275382973165,551.1275382973164,551.1275382973165
0.01999999999999999,5.657623566084066e-23,-2.0,0.010022998767494386,9.947782746953457e-18,-3.1200139168342968e-18,-9.336244344147624e-20,-1.7027864859265888e-23,-2.0,0.011060469657949597,2.747310344548249e-22,3.394560479127238e-20,1.4942664643159625e-22,0.0009999512801435115,0.0,0.0,0.0,0.7235715096159999,-2.096572624565353e-18,-4.948630050795554e-18,-7.213348399289128e-20,555.0228180200033,555.0228180200035,555.0228180200033,555.0228180200033
0.023999999999999994,1.2177727892044236e-22,-2.0,0.010026998612583504,1.0499280440642061e-17,-3.483032122484549e-18,1.3719528797076996e-19,-1.702429428801123e-23,-2.0,0.011477530186265227,2.7467342613208483e-22,4.557547129844039e-20,1.6964261455094128e-22,0.000999956867503253,0.0,0.0,0.0,0.8713960693997944,-1.3242547051085876e-18,3.2487679480681644e-18,-2.648516085499421e-19,558.9037502613861,558.9037502613862,558.9037502613861,558.9037502613862
0.027999999999999997,1.9596357537064855e-22,-2.0,0.010030998480809199,1.1057389063577904e-17,-2.7135785968135028e-18,1.2607331127287643e-19,-1.7020153689017258e-23,-2.0,0.011961172797154362,2.746066208658769e-22,2.603932403239553e-20,1.8355618819031726e-22,0.0009999626967511013,0.0,0.0,0.0,1.0196989903518603,-1.3696872218786527e-18,-8.204367410966441e-19,8.000313825604913e-21,562.7703484385811,562.7703484385812,562.7703484385811,562.7703484385811
0.032,2.468270188067587e-22,-2.0,0.01003499837077965,1.070030521407746e-17,-2.9991262847640697e-18,9.72786694826747e-21,-1.701545005167841e-23,-2.0,0.012510581094492131,2.745307314245123e-22,1.9779143254806616e-20,1.9014733419635256e-22,0.0009999683703985907,0.0,0.0,0.0,1.1684694767998467,-3.391521144277074e-19,7.271973031770188e-19,1.313739019530052e-19,566.6226274018866,566.6226274018867,566.6226274018866,566.6226274018866
0.036000000000000004,3.9537060529e-22,-2.0,0.01003899828071536,1.1884939665922401e-17,-2.786269988933557e-18,2.1380370571639317e-19,-1.701019030178577e-23,-2.0,0.013124946111342446,2.7444586955011277e-22,2.6449442735118167e-20,1.9656309973790245e-22,0.0009999736825807085,0.0,0.0,0.0,1.317696844848017,-2.115048280332681e-18,-1.2265049665729296e-18,-2.381520856068173e-19,570.4606033865472,570.4606033865473,570.4606033865472,570.4606033865472
0.04000000000000001,1.8093856609171762e-14,-2.000000000000018,0.010042998208630558,2.4731606042932507e-11,2.473159163397951e-11,3.845704424949383e-12,-1.7004381302040974e-23,-2.0,0.013803466249930549,2.743521459669022e-22,1.8092993097596457e-12,-1.8206794320986976e-12,0.0009999785459976693,0.0,0.0,0.0,1.4673705220133513,-2.410526490657942e-10,-2.397265258514648e-10,-4.492390647374177e-12,574.2842940403666,574.2842938960991,574.2842939537351,574.284293954133
0.04400000000000001,7.58704097901584e-14,-2.000000000000076,0.01004699815259838,6.886963259876427e-11,6.886961814768389e-11,5.1328406193143605e-12,-1.6998029852566243e-23,-2.0,0.014545347222070596,2.742496703894354e-22,7.586547858589281e-12,-7.593432400005912e-12,0.0009999829232250693,0.0,0.0,0.0,1.6174800460891583,-5.290754172419461e-10,-5.308299485041113e-10,-1.6614956080501559e-12,578.093718119235,578.0937178032848,578.0937179562678,578.0937179557449
0.048000000000000015,1.2509023624918562e-13,-2.000000000000125,0.01005099811076923,1.0647080248653158e-10,1.0647078796168003e-10,6.255498916655336e-12,-1.699114269141052e-23,-2.0,0.01534980199004497,2.7413855153076414e-22,1.2507850107803924e-11,-1.2477733336964275e-11,0.00099998682233024,0.0,0.0,0.0,1.7680150646844564,6.273649798629202e-12,2.4492046540946086e-12,-1.5222133695592572e-12,581.8888954295459,581.8888954321294,581.8888954266222,581.8888954254896
0.05200000000000002,1.6672246919801928e-13,-2.0000000000001665,0.010054998081468798,1.3827547839981847e-10,1.382754641977937e-10,7.2225904639698395e-12,-1.698372649505177e-23,-2.0,0.016216050707932007,2.7401889711054185e-22,1.1859681866988358e-11,-1.1855348939716822e-11,0.000999990275595171,0.0,0.0,0.0,1.9189653341161774,-3.3570972832546493e-12,1.9518828724694792e-12,-1.3865867681442495e-12,585.6698475759299,585.6698475755167,585.6698475706146,585.6698475721768
0.05600000000000002,2.017548462444786e-13,-2.000000000000201,0.010058998063361068,1.650382364636259e-10,1.650382220868837e-10,8.048389088384941e-12,-1.6975787878895505e-23,-2.0,0.017143320663378918,2.7389081386306625e-22,1.0023865856090486e-11,-9.989615870577372e-12,0.0009999933330137253,0.0,0.0,0.0,2.070320718335968,5.823163098268665e-12,2.283971862514578e-14,-1.261246182567674e-12,589.4365966932453,589.4365966949546,589.4365966910366,589.436596689341
0.060000000000000026,2.311071556581808e-13,-2.0000000000002305,0.010062998055167945,1.8746174315626232e-10,1.874617289341369e-10,8.74857212167718e-12,-1.6967333397769475e-23,-2.0,0.01813084621981658,2.7375440754526127e-22,8.428497474070875e-12,-8.390424545473946e-12,0.0009999960513309633,0.0,0.0,0.0,2.2220711888940676,-6.103433638763462e-12,-2.3451824159112857e-12,-1.1484172574705683e-12,593.1891661500597,593.1891661476054,593.1891661447479,593.1891661458397
0.06400000000000003,-1.559566814173682e-11,-1.9999999999844038,0.01006728922760817,1.5433220861162423e-06,1.5433298580686942e-06,6.28584455831907e-08,-1.6958369546414636e-23,-2.0,0.01917786875911308,2.7360978294459834e-22,-1.5823397150241065e-09,1.582365830191185e-09,0.0010291156529912446,0.0,0.0,0.0,2.373615885233117,-1.6172388883823132e-06,-1.6172463225402627e-06,-7.34187437663829e-08,596.9136838310033,596.9127500527421,596.9129921179236,596.9129921157775
0.06800000000000003,-1.013857199193658e-10,-1.9999999998986162,0.010075448267542085,1.0182174787195177e-05,1.0182437149061467e-05,4.146967578629991e-07,-1.6948902759972386e-23,-2.0,0.02028363662466269,2.7345704388695737e-22,-1.026425384617699e-08,1.0264021506502571e-08,0.001445020941385446,0.0,0.0,0.0,2.5182676981947125,-9.364880485866634e-06,-9.365150840274615e-06,-4.1358395493285334e-07,600.449436468732,600.4440610315531,600.4454897570597,600.445489679469
0.07199999999999998,-2.298337145732363e-10,-1.9999999997701772,0.010092679739618592,2.5151635003128876e-05,2.5152828181995865e-05,1.0222736816228793e-06,-1.6938939414468084e-23,-2.0,0.021447405064907204,2.7329629324442815e-22,-2.3710640508095e-08,2.3709469616198382e-08,0.0027681685219961335,0.0,0.0,0.0,2.6525990756236317,-1.7607475204614417e-05,-1.7608502237146618e-05,-7.267747063537009e-07,603.7146757238471,603.7046235170604,603.7074492866037,603.707448993442
0.07599999999999998,-3.4832676838193195e-10,-1.999999999651701,0.01012370330740508,4.5261073909138005e-05,4.526424556951738e-05,1.8344415069465974e-06,-1.6928485827290913e-23,-2.0,0.022668436177286463,2.731276329430525e-22,-3.251299226144741e-08,3.2510074333956486e-08,0.005315397451356026,0.0,0.0,0.0,2.777418573049506,-2.520971871803952e-05,-2.5212010141249218e-05,-9.907182949575455e-07,606.7328997500082,606.7185786922003,606.7227548385476,606.7227541877218
0.07999999999999999,-3.865181469615347e-10,-1.999999999613532,0.01017275258418165,6.940132468769758e-05,6.94078259444688e-05,2.8041344906319212e-06,-1.6917548257670085e-23,-2.0,0.023945998852614787,2.7295116397050736e-22,-3.002553093142217e-08,3.002045857467407e-08,0.009012958641741158,0.0,0.0,0.0,2.893552619849358,-3.211854280678186e-05,-3.212257030689131e-05,-1.2080828137865543e-06,609.5275931539953,609.5094306408449,609.5148896017802,609.514888463102
0.08399999999999999,-2.585230814077056e-10,-1.9999999997415485,0.010243740134181683,9.649898499407567e-05,9.651039372857386e-05,3.889745906487339e-06,-1.690613290714743e-23,-2.0,0.025279368719880478,2.7276698638372987e-22,-1.3699292624835036e-08,1.3692251234073818e-08,0.013754425932406361,0.0,0.0,0.0,3.001508351884812,-3.828967458503627e-05,-3.82958416344216e-05,-1.3833125870710707e-06,612.1139265413617,612.0923653965209,612.0990160161755,612.0990142799524
0.088,1.3369020178721206e-10,-2.0000000001337686,0.010340214721887625,0.0001255479842132799,0.0001255660281621802,5.055755311734698e-06,-1.6894245920046392e-23,-2.0,0.026667828091465066,2.7257519931648386e-22,1.8327233648994034e-08,-1.8335305264539222e-08,0.01944929114850624,0.0,0.0,0.0,3.101889987897592,-4.370251492746909e-05,-4.37111957121244e-05,-1.5218088501946421e-06,614.5089106807502,614.4843969270433,614.4921283429492,614.4921259085463
0.092,8.968742226232826e-10,-2.000000000896925,0.010465355171202237,0.00015562610757007987,0.00015565259229742583,6.271094160487931e-06,-1.6881893383937445e-23,-2.0,0.028110665908779347,2.723759009868694e-22,6.730824135076665e-08,-6.731563295187583e-08,0.02600816694407504,0.0,0.0,0.0,3.1953258925751693,-4.835732693720178e-05,-4.836880864404615e-05,-1.627313539021065e-06,616.7296788225314,616.7026511723215,616.7113435330348,616.7113403247397
0.096,2.1436427815330732e-09,-2.0000000021436044,0.010622066349136056,0.00018587520862945822,0.0001859119415185677,7.508752509406318e-06,-1.6869081330099983e-23,-2.0,0.02960717768831314,2.721691887047748e-22,1.3403289809664666e-07,-1.3403697494820527e-07,0.03334791704401643,0.0,0.0,0.0,3.282261509544296,-5.2240808698815664e-05,-5.2255331346826204e-05,-1.7032919686379985e-06,618.7886343024624,618.7595326320733,618.7690540397359,618.7690499952157
0.1,3.989463856354121e-09,-2.00000000398924,0.010813022563118736,0.00021549880942515776,0.0002155475231550762,8.74536060250093e-06,-1.6855815733980685e-23,-2.0,0.03115666546809575,2.71955158879272e-22,2.1896180602652424e-07,-2.1895917148028558e-07,0.0414007193400636,0.0,0.0,0.0,3.3630630267069668,-5.5337264558217634e-05,-5.535496085231329e-05,-1.7528873383040374e-06,620.6960143699147,620.6652818127242,620.6754885150871,620.6754836018523
0.10400000000000001,6.549833729231827e-09,-2.000000006549287,0.01104072060333366,0.0002437568246555269,0.00024381909780534425,9.961245027279204e-06,-1.6842102515648395e-23,-2.0,0.032758437754564114,2.7173390702595555e-22,3.2230397906533774e-07,-3.222904580513264e-07,0.05011268762051113,0.0,0.0,0.0,3.437996418137357,-5.7628671038992233e-05,-5.7649595341385785e-05,-1.7794579243412636e-06,622.4594604499946,622.4275452710937,622.4382803302345,622.4382745372219
0.10800000000000001,9.937053724052932e-09,-2.0000000099359974,0.011307448663774386,0.0002699822449729902,0.0002700594373302266,1.1140075935007526e-05,-1.6827947540245532e-23,-2.0,0.03441180946983569,2.7150552777422596e-22,4.4404966793405205e-07,-4.4402029827084746e-07,0.05943458489562682,0.0,0.0,0.0,3.5073964785502696,-5.911338921023281e-05,-5.913751564612152e-05,-1.7861016843120905e-06,624.0880409991703,624.0553882495526,624.066486711942,624.0664800498275
0.11200000000000002,1.425745450442326e-08,-2.000000014255645,0.011615302398621559,0.00029358325621526806,0.00029367645228699755,1.2268430895634598e-05,-1.6813356618436053e-23,-2.0,0.0361161018993831,2.712701148745173e-22,5.840024707203932e-07,-5.839511981448123e-07,0.06931712837141582,0.0,0.0,0.0,3.5715721521391814,-5.979976023450287e-05,-5.9826997271627684e-05,-1.7755443868493007e-06,625.5900367657022,625.5570834035689,625.568376003619,625.5683685006205
0.11600000000000002,1.960881913449644e-08,-2.000000019605954,0.011966194044857196,0.000314044422871016,0.0003141543863408094,1.3335425921321953e-05,-1.6798335506850022e-23,-2.0,0.03787064264010756,2.710277612054696e-22,7.418180423784818e-07,-7.417381822625365e-07,0.07971234211537434,0.0,0.0,0.0,3.630820092845412,-5.970269005673127e-05,-5.973281029601582e-05,-1.7502001656901585e-06,626.9732837291317,626.9404556438852,626.951771329694,626.9517630507668
0.12000000000000002,2.6078023011360602e-08,-2.0000000260737347,0.012361854288673703,0.00033092788763401236,0.0003310550290371222,1.4332545501521456e-05,-1.6782889908524778e-23,-2.0,0.039674765548808284,2.707785587810471e-22,9.170337226311917e-07,-9.169177726008811e-07,0.09057434203844064,0.0,0.0,0.0,3.685439100037963,-5.884390400008748e-05,-5.88766722997847e-05,-1.7123888452718137e-06,628.2455301460874,628.2132389658972,628.2244068986082,628.2243979100738
0.12400000000000003,3.373938923197471e-08,-2.0000000337332433,0.012803905363840094,0.00034386985061371527,0.0003440141884792577,1.5253307659649657e-05,-1.676702547334273e-23,-2.0,0.041527810691044845,2.7052259875760155e-22,1.10908550219661e-06,-1.1089253106687118e-06,0.10186472408442597,0.0,0.0,0.0,3.7355854924966962,-5.725270305289819e-05,-5.7287761694112665e-05,-1.6641362405617318e-06,629.4110916405205,629.3797309834679,629.3905833141471,629.3905737151773
0.12800000000000003,4.265278006479991e-08,-2.000000042644273,0.013293838875826839,0.00035258218936390167,0.0003527433313051257,1.6092998684172385e-05,-1.6750747798465828e-23,-2.0,0.043429124290389684,2.702599714408821e-22,1.3173140497846707e-06,-1.3171005080214433e-06,0.11355152417912881,0.0,0.0,0.0,3.781464138403817,-5.496071300190603e-05,-5.49976745356483e-05,-1.6072417939356732e-06,630.4753225793203,630.4452673250582,630.4556403079878,630.4556302051068
0.13200000000000003,5.28621568877221e-08,-2.0000000528507162,0.013833023678721457,0.00035685179449491126,0.0003570289298150062,1.6848463094142506e-05,-1.6734062428766703e-23,-2.0,0.045378058678067934,2.699907662929914e-22,1.5409621703903555e-06,-1.5406853641944286e-06,0.12560389193484472,0.0,0.0,0.0,3.823268169360606,-5.200774668468498e-05,-5.2046155052106445e-05,-1.5433322049579134e-06,631.4432208811198,631.4148231518141,631.4245597010347,631.4245492187931
0.13600000000000004,6.439445973053536e-08,-2.0000000643794484,0.014422715522211462,0.0003565392958601381,0.00035673119872168564,1.7517899908031813e-05,-1.6716974857256532e-23,-2.0,0.047373972242981635,2.697150719392888e-22,1.779169576802615e-06,-1.778818879442093e-06,0.1379917007340261,0.0,0.0,0.0,3.861175136593011,-4.843964888833853e-05,-4.847897679607082e-05,-1.4738601689346478e-06,632.3193493702476,632.2929356465228,632.3018873196869,632.301876601381
0.13999999999999999,7.725879120126212e-08,-2.0000000772395095,0.015064065565475775,0.0003515773415375738,0.00035178238452913745,1.810067796404283e-05,-1.6699490525509623e-23,-2.0,0.049416229382115595,2.6943297617524084e-22,2.0309651532793695e-06,-2.030529244663174e-06,0.15068717188575378,0.0,0.0,0.0,3.895349002706631,-4.4307676957471106e-05,-4.434740944497594e-05,-1.4001182661977448e-06,633.107891761499,633.0837602796395,633.0917890822534,633.0917782671952
0.144,9.144590409396185e-08,-2.000000091421596,0.01575812791069218,0.000341968402467241,0.00034218458048822253,1.859716911156622e-05,-1.6681614824084758e-23,-2.0,0.051504200451322216,2.6914456597321917e-22,2.295255669862468e-06,-2.294722484658533e-06,0.1636645985201589,0.0,0.0,0.0,3.92594185961254,-3.9668217264761466e-05,-3.9707782960835385e-05,-1.3232522548864707e-06,633.8127007670256,633.7911190769297,633.7980991184919,633.7980883608357
0.148,1.069280035582441e-07,-2.0000001068978652,0.016505862010171235,0.00032777821396106407,0.0003280031773056519,1.9008318436072515e-05,-1.6663353092943324e-23,-2.0,0.053637261716482115,2.688499274892467e-22,2.570818807002415e-06,-2.570175771216233e-06,0.17689968040072376,0.0,0.0,0.0,3.953104092036157,-3.457779184174564e-05,-3.4616614406446166e-05,-1.2439470347204504e-06,634.4375378181662,634.4187429911229,634.4245617316617,634.4245511864812
0.152,1.236588417924709e-07,-2.000000123622028,0.017308131904282282,0.0003091265337912996,0.0003093576291122759,1.9336134244773774e-05,-1.664471062186424e-23,-2.0,0.0558147953050383,2.6854914606969233e-22,2.8563106302816506e-06,-2.8555445755590405e-06,0.190368647059633,0.0,0.0,0.0,3.976990732343862,-2.90894982930213e-05,-2.912702606783339e-05,-1.1634834250715432e-06,634.9862253127749,634.9704260378302,634.9749815356053,634.9749713509581
0.156,1.4157393713885094e-07,-2.000000141529574,0.018165740036801582,0.0002862094729294377,0.00028644379329091337,1.9583262675326076e-05,-1.662569265085572e-23,-2.0,0.05803618915790083,2.6824230625791405e-22,3.150213782995927e-06,-3.149311144381091e-06,0.20405093008288433,0.0,0.0,0.0,3.9976913090040553,-2.3287603651659108e-05,-2.3323267195819263e-05,-1.082688980315173e-06,635.4610446477549,635.4484044930699,635.4516150738633,635.4516054024087
0.16,1.6059125064802072e-07,-2.0000001605384448,0.019079415384249253,0.00025928046207660075,0.00025951490371008785,1.975276134409197e-05,-1.660630437056387e-23,-2.0,0.06030083698171933,2.679294918008518e-22,3.450811005151902e-06,-3.449757939377134e-06,0.2179287260285636,0.0,0.0,0.0,4.015321488597471,-1.7244644863882304e-05,-1.7277922138585855e-05,-1.0021530315748977e-06,635.8648416819622,635.855485659662,635.8572873345272,635.857278315953
0.164,1.806120866999106e-07,-2.000000180549939,0.02004981631784973,0.00022864451587258078,0.00022887584050298922,1.9848076117039802e-05,-1.6586550922678183e-23,-2.0,0.06260813820152066,2.676107856555695e-22,3.756193438641028e-06,-3.754976113089011e-06,0.2319844879492074,0.0,0.0,0.0,4.029993553671238,-1.1033397045560161e-05,-1.1063801107546825e-05,-9.22454671351273e-07,636.2003528854428,636.1943674585303,636.1947139467376,636.1947057112117
0.168,2.0152227097372345e-07,-2.000000201449889,0.021077532454426416,0.00019464813705170997,0.00019487303601281662,1.9872671102770214e-05,-1.656643740033391e-23,-2.0,0.06495749791370911,2.67286269995747e-22,4.064282703530289e-06,-4.062887491405373e-06,0.24620058885834428,0.0,0.0,0.0,4.041818363009824,-4.722180462820031e-06,-4.74926736466526e-06,-8.437567082688674e-07,636.4702518679521,636.4676874493358,636.4665501227895,636.4665427889139
0.17200000000000001,2.2319360673767422e-07,-2.0000002231101193,0.022163083305177203,0.0001576605856798407,0.00015787573935421284,1.9830307523191934e-05,-1.654596884851135e-23,-2.0,0.06734832683942642,2.669560262181225e-22,4.372865902216725e-06,-4.371279621086813e-06,0.2605596639503551,0.0,0.0,0.0,4.050911790914268,1.635667347978582e-06,1.6122917632753379e-06,-7.665484651005074e-07,636.6772984622703,636.6781775671146,636.6755404325962,636.6755341056505
0.17600000000000002,2.4548511251076025e-07,-2.000000245389681,0.02330693261516403,0.00011809488271887033,0.00011829703254979027,1.972529925182099e-05,-1.6525150264432117e-23,-2.0,0.0697800412782689,2.6662013494888564e-22,4.6795763135515235e-06,-4.677786417017251e-06,0.27504563179109337,0.0,0.0,0.0,4.057362925256833,7.962225524468464e-06,7.942873342505745e-06,-6.916299741892895e-07,636.8236217964262,636.8279257296615,636.8237911907746,636.8237859540413
0.18000000000000002,2.682445028541896e-07,-2.000000268136337,0.024509494360007877,7.641731839227916e-05,7.660334940080832e-05,1.9562031385501877e-05,-1.6503986597952316e-23,-2.0,0.07225206306235925,2.662786760500215e-22,4.98180969247301e-06,-4.9798047596030444e-06,0.2896445869616677,0.0,0.0,0.0,4.061250541688156,1.4161718984816286e-05,1.4146636176466026e-05,-6.192615771738339e-07,636.911098565128,636.9187577577574,636.9131529881394,636.9131489072786
0.18400000000000002,2.913102459968806e-07,-2.000000291188616,0.02577112830180788,3.3119281017522836e-05,3.3286292141397885e-05,1.9344860786157745e-05,-1.6482482751952746e-23,-2.0,0.07476381951077027,2.659317286256059e-22,5.276723141929443e-06,-5.274493200209043e-06,0.3043434788282457,0.0,0.0,0.0,4.06266410166887,2.0159851377011426e-05,2.0149171717737167e-05,-5.495903573887541e-07,636.9418271168762,636.9527326919131,636.9457041776977,636.9457012883171
0.18800000000000003,3.1451357712927584e-07,-2.000000314377825,0.027092141952148513,-1.1290587377891114e-05,-1.1145216747613829e-05,1.9078146157765415e-05,-1.64606435827261e-23,-2.0,0.07731474338429797,2.6557937102805276e-22,5.561305151644191e-06,-5.558841991697861e-06,0.3191291243476297,0.0,0.0,0.0,4.061690890345009,2.5888642682601504e-05,2.588242566207645e-05,-4.827973734147973e-07,636.9178382169114,636.9318453328667,636.9234570912154,636.9234554091423
0.19200000000000003,3.3768058258860445e-07,-2.0000003375301354,0.02847279291310478,-5.629264409477434e-05,-5.617119207726081e-05,1.8766211765349942e-05,-1.6438473900361196e-23,-2.0,0.0799042728405815,2.6522168086431326e-22,5.832425941242461e-06,-5.8297235909124515e-06,0.33398860083409343,0.0,0.0,0.0,4.058415186309852,3.128383825242789e-05,3.128205164493968e-05,-4.1902137752191234e-07,636.8410783780826,636.8580081290198,636.8483408747917,636.8483403913514
0.19600000000000004,3.6063434209259573e-07,-2.00000036046872,0.02991329104766906,-0.00010136256081430597,-0.00010126690680255674,1.841331592893347e-05,-1.641597846912426e-23,-2.0,0.08253185138956738,2.648587350020275e-22,6.086856005191213e-06,-6.08391113386653e-06,0.3489095613381023,0.0,0.0,0.0,4.052918532657336,3.6285475914448904e-05,3.628798358884481e-05,-3.583629037560805e-07,636.7134175657856,636.7330591679399,636.7222093248046,636.7222100034938
0.20000000000000004,3.8319710010966134e-07,-2.0000003830159256,0.03141380050212919,-0.00014597761112961535,-0.00014590918650465284,1.8023624390917703e-05,-1.6393162007837275e-23,-2.0,0.0851969278493154,2.6449060957562913e-22,6.321297534700762e-06,-6.318109659015024e-06,0.3638801929410409,0.0,0.0,0.0,4.045279967745453,4.0838533180621986e-05,4.084510486851843e-05,-3.0088866714056043e-07,636.5366558048783,636.5587691220511,636.5468476488946,636.5468494279781
0.20400000000000004,4.0519243776746314e-07,-2.0000004049954416,0.03297444159877345,-0.0001896228635888976,-0.00018958261060095466,1.7601188073870283e-05,-1.6370029190253454e-23,-2.0,0.08789895630214387,2.641173799924028e-22,6.532420351771231e-06,-6.528992299718683e-06,0.37888918077742445,0.0,0.0,0.0,4.035576223383758,4.489353194674568e-05,4.4903857458621996e-05,-2.466355987409496e-07,636.3125289206872,636.3368473052697,636.3239783529649,636.3239811492606
0.208,4.2644744732581267e-07,-2.000000426234474,0.03459529398334875,-0.00023180065410663135,-0.00023178899711661974,1.7149731433200277e-05,-1.6346584645429788e-23,-2.0,0.09063739605111147,2.6373912093849547e-22,6.7169087995681984e-06,-6.713247067056589e-06,0.39392581338766736,0.0,0.0,0.0,4.023879117436065,4.841077390749066e-05,4.842445467158381e-05,-1.9538867720816668e-07,636.0426483605258,636.0688837775951,636.0552028461694,636.0552065526807
0.212,4.467948565889457e-07,-2.0000004465658647,0.0362764004447073,-0.0002720417680600254,-0.0002720586001234889,1.6673066038839752e-05,-1.6322832958096772e-23,-2.0,0.09341171157683367,2.6335590638488124e-22,6.871538803758023e-06,-6.867653582814682e-06,0.4089801691413955,0.0,0.0,0.0,4.010254088741944,5.136357297313511e-05,5.1380119080795625e-05,-1.4740260420475082e-07,635.7284686186765,635.7563185276335,635.7419676711056,635.7419721561293
0.216,4.6607479713965427e-07,-2.00000046582986,0.0380177593757041,-0.0003098879855324178,-0.00030993264401681954,1.6174876608021027e-05,-1.629877866902526e-23,-2.0,0.09622137249463043,2.629678095932805e-22,6.993177459699781e-06,-6.9890828214769735e-06,0.42404217893275414,0.0,0.0,0.0,3.994783127584169,5.3709114946095336e-05,5.372796466235159e-05,-1.0268571104509056e-07,635.3718225230444,635.4009609478218,635.3860939389149,635.3860990512215
0.22,4.841368266997811e-07,-2.0000004838761316,0.039819333796247185,-0.0003449125376733489,-0.0003449838045816144,1.565846667037764e-05,-1.6274426275390523e-23,-2.0,0.09906585351200382,2.6257490312203366e-22,7.078803743738042e-06,-7.074517933647217e-06,0.4391019140944289,0.0,0.0,0.0,3.977531402364415,5.5424729386325985e-05,5.544527963428775e-05,-6.094401668351421e-08,634.9741449649681,635.0042332570343,634.9890110666337,634.9890166436336
0.224,5.008417249579099e-07,-2.000000500565567,0.04168105909521542,-0.00037673055024307217,-0.0003768266695724072,1.5127006385771282e-05,-1.624978023113349e-23,-2.0,0.1019446343864423,2.6217725883192933e-22,7.125591662165082e-06,-7.1211371342912715e-06,0.45415091317263984,0.0,0.0,0.0,3.958549571511136,5.650303133320826e-05,5.652459571294305e-05,-2.2157377694153925e-08,634.5365281643602,634.5672231378313,634.5518090821608,634.5518149384117
0.228,5.160630346390702e-07,-2.000000515771812,0.04360283630786516,-0.00040499321019609835,-0.0004051119064153668,1.4583553823404752e-05,-1.6224844947319216e-23,-2.0,0.1048571998835496,2.6177494789198833e-22,7.1309855349748284e-06,-7.126388905356011e-06,0.46918136034141494,0.0,0.0,0.0,3.9379028920858925,5.693399882267271e-05,5.69558760324002e-05,1.3674968572082358e-08,634.0603970698236,634.0913494229775,634.0759098840357,634.0759158297011
0.232,5.296885218304511e-07,-2.000000529382725,0.045584529863116306,-0.00042939095892485703,-0.0004295294654353685,1.403113333220044e-05,-1.6199624792492613e-23,-2.0,0.10780303973549582,2.613680407852025e-22,7.092713936580569e-06,-7.08800576009691e-06,0.4841847107194578,0.0,0.0,0.0,3.915662361872374,5.671339020180562e-05,5.673483487512147e-05,4.6466838572666995e-08,633.5473047664407,633.5781620624331,633.5628647469316,633.5628705797642
0.23600000000000002,5.416215091990372e-07,-2.0000005413017115,0.04762596114743983,-0.00044965689315872617,-0.00044981199140656523,1.3472564703053889e-05,-1.6174124093031397e-23,-2.0,0.1107816485997882,2.6095660731422985e-22,7.008812714723863e-06,-7.004027246744159e-06,0.4991512650501761,0.0,0.0,0.0,3.8919132809559525,5.584375139310993e-05,5.5863992013245844e-05,7.633299893070219e-08,632.9991309586716,633.0295411755651,633.0145539130903,633.0145594231957
0.24000000000000002,5.517819265188391e-07,-2.00000055144877,0.049726920919900434,-0.00046557350551337036,-0.0004657415775871534,1.2910441400973552e-05,-1.6148347133496368e-23,-2.0,0.11379252601835949,2.6054071660704558e-22,6.877686813668677e-06,-6.8728617410718105e-06,0.5140716963422324,0.0,0.0,0.0,3.8667171976906927,5.4340429757721676e-05,5.435871349221166e-05,1.0342204438302466e-07,632.417203101935,632.4468215337699,632.4323089156877,632.4323138976523
0.24400000000000002,5.60107139612398e-07,-2.000000559761322,0.05188717485428153,-0.0004769738195412154,-0.0004771509085700008,1.234707167308121e-05,-1.6122298156978953e-23,-2.0,0.11683517637697124,2.6012043712254963e-22,6.698167744914562e-06,-6.693343671206898e-06,0.5289384154153272,0.0,0.0,0.0,3.8401254611032156,5.222505829759573e-05,5.2240632154299964e-05,1.2796065850381117e-07,631.8026101118204,631.83110272324,631.817224652482,631.8172289001885
0.24800000000000003,5.665525399632872e-07,-2.000000566194798,0.05410647014350205,-0.0004837408950180747,-0.00048392277080220854,1.1784698855882966e-05,-1.6095981365446094e-23,-2.0,0.1199091088649301,2.596958366561312e-22,6.469547244931042e-06,-6.464767288257297e-06,0.5437455944797643,0.0,0.0,0.0,3.812176887739998,4.9524057053841275e-05,4.95362010099545e-05,1.4992988310180343e-07,631.1561486569565,631.183194661536,631.1701043475808,631.1701076631917
0.252,5.71092215439231e-07,-2.0000005707233077,0.056384516689582664,-0.00048581488697067415,-0.00048599712693545314,1.122532406682222e-05,-1.6069400920082475e-23,-2.0,0.1230138374351143,2.5926698234519023e-22,6.191624826710762e-06,-6.186933692705264e-06,0.5584865933499678,0.0,0.0,0.0,3.78294912961189,4.6273914943917134e-05,4.628194986518073e-05,1.6952054972839161e-07,630.4795113890456,630.5048086812385,630.4926505279047,630.4926527240011
0.256,5.737189034707966e-07,-2.0000005733395936,0.05872100816766523,-0.00048318477031690244,-0.00048336283492748456,1.0670844454929058e-05,-1.6042560941630098e-23,-2.0,0.12614888076430864,2.588339406746161e-22,5.864721893077655e-06,-5.860165480730453e-06,0.5731548119453416,0.0,0.0,0.0,3.752478348303825,4.251295018534496e-05,4.2516270141782056e-05,1.867719376090871e-07,629.7734301055108,629.7966963145259,629.7856049493106,629.7856058577363
0.26,5.744443524350162e-07,-2.00000057405539,0.061115597769583314,-0.00047590286302398127,-0.00047607219473453814,1.0123000229869634e-05,-1.6015465510725248e-23,-2.0,0.12931376221384513,2.5839677748222453e-22,5.489738548844445e-06,-5.485362878601046e-06,0.5877430278874904,0.0,0.0,0.0,3.720850521520505,3.829492306180438e-05,3.829298111113225e-05,2.017894736936255e-07,629.0397893600241,629.0607702839927,629.0508665324659,629.0508660004774
0.264,5.732988433736871e-07,-2.0000005729009462,0.06356791451346289,-0.0004640749348757624,-0.0004642310487214828,9.583345942111853e-06,-1.5988118668232872e-23,-2.0,0.1325080097905475,2.579555579641523e-22,5.068181328950534e-06,-5.064031634438035e-06,0.6022436638361452,0.0,0.0,0.0,3.6881198864628093,3.367561305230688e-05,3.3667976412395505e-05,2.1471857867500536e-07,628.279739377012,628.2982102153269,628.2896005935246,628.2895984989674
0.268,5.703306850054212e-07,-2.0000005699245205,0.06607756542422208,-0.00044785785510572144,-0.00044799642949681554,9.05327741961132e-06,-1.5960524415578347e-23,-2.0,0.13573115610797695,2.5751034668021026e-22,4.602168165904327e-06,-4.5982878339444535e-06,0.6166502042513529,0.0,0.0,0.0,3.6543370946273206,2.871227977218689e-05,2.8698586877969696e-05,2.2568083070166239e-07,627.4943485979111,627.5101148553163,627.5028910542384,627.5028872938794
0.272,5.656054374997997e-07,-2.0000005651916055,0.0686441411354477,-0.0004274531523686039,-0.0004275701140223832,8.533998237362902e-06,-1.5932686715076717e-23,-2.0,0.13898273834797734,2.5706120755919507e-22,4.094383843460229e-06,-4.090813477250531e-06,0.630957681463272,0.0,0.0,0.0,3.619542198032975,2.346149626159734e-05,2.3441515068781085e-05,2.348434944450927e-07,626.6844404565084,626.6973377068706,626.6915768360338,626.6915713416711
0.276,5.592049079978878e-07,-2.0000005587839245,0.07126722418430467,-0.0004030976261183273,-0.00040318922403173146,8.026616934134222e-06,-1.590460949025936e-23,-2.0,0.14226229822251724,2.566082039041599e-22,3.5480111391388546e-06,-3.544787570487294e-06,0.6451625571435982,0.0,0.0,0.0,3.5837590045484085,1.7975094248404616e-05,1.7948676124614953e-05,2.4226816458441326e-07,625.8504616414951,625.8603530397351,625.8561185701959,625.8561112961296
0.28,5.512266547471545e-07,-2.000000550798938,0.07394635787277293,-0.0003750883300369792,-0.0003751512405200529,7.532110536778787e-06,-1.5876296626198167e-23,-2.0,0.14556938193582664,2.5615139839764463e-22,2.966786291516697e-06,-2.9639417523673492e-06,0.6592595282278159,0.0,0.0,0.0,3.5470748441797237,1.2331187571388495e-05,1.2298353077961023e-05,2.480629476622584e-07,624.9943372434631,625.0011281484611,624.998462723341,624.998453670161
0.28400000000000003,5.417823448106446e-07,-2.0000005413481996,0.07668107093053624,-0.0003437575832511175,-0.00034378898449451936,7.05129192830706e-06,-1.5847751969827163e-23,-2.0,0.14890354014682664,2.556908531068652e-22,2.3550221023907497e-06,-2.3525828642750018e-06,0.6732423663903245,0.0,0.0,0.0,3.509528310921511,6.596506636933255e-06,6.5573500386680595e-06,2.5237946977669493e-07,624.1168616830597,624.1204935983485,624.1194222045001,624.119411392973
0.28800000000000003,5.309961230067278e-07,-2.000000530555732,0.07947089332730041,-0.00030945501691663984,-0.00030945263980314703,6.584860214126711e-06,-1.5818979330261696e-23,-2.0,0.15226432793184935,2.552266294888633e-22,1.7174823089623987e-06,-1.715467960208699e-06,0.6871079248665692,0.0,0.0,0.0,3.471126438387575,8.201984446260464e-07,7.749802634224393e-07,2.553172615671804e-07,623.2180960428311,623.2185371244095,623.2190716749888,623.2190591717609
0.29200000000000004,5.190035634665699e-07,-2.0000005185569756,0.08231533058350546,-0.00027256761970999977,-0.00027252981826885646,6.133421372706227e-06,-1.5789982479115126e-23,-2.0,0.15565130474764624,2.547587883956158e-22,1.0592819460558562e-06,-1.0577045211790325e-06,0.7008535069580658,0.0,0.0,0.0,3.4319284233379417,-4.929458040080758e-06,-4.9803920433261134e-06,2.5695640250710154e-07,622.2993200014436,622.2965757841284,622.2987097084715,622.2986956039389
0.29600000000000004,5.05950210244139e-07,-2.000000505497336,0.08521385477916019,-0.00023352402570325564,-0.0002334498487895673,5.697459849395402e-06,-1.5760765150813067e-23,-2.0,0.15906403439468267,2.5428739007910503e-22,3.859926723907698e-07,-3.8485589682047074e-07,0.7144731686585871,0.0,0.0,0.0,3.3920125550176063,-1.057116708494287e-05,-1.0627296938812899e-05,2.574139790711666e-07,621.3622644085195,621.3563853015966,621.3600898935508,621.3600743267151
0.30000000000000004,4.919893773545983e-07,-2.0000004915299843,0.08816593640456788,-0.00019276120072873271,-0.00019265042232143834,5.277361038998049e-06,-1.5731331042905204e-23,-2.0,0.16250208498071644,2.5381249419634956e-22,-2.9641727207494363e-07,2.971187688640247e-07,0.7279618396387733,0.0,0.0,0.0,3.3513936120509205,-1.6049924143299332e-05,-1.6110628030736167e-05,2.567858050749423e-07,620.4071793188346,620.3982462723665,620.403477807305,620.4034609459655
0.30400000000000005,4.772808352140294e-07,-2.0000004768145465,0.09117100959293549,-0.00015075051957483333,-0.00015060368856226097,4.873413659450168e-06,-1.570168381637469e-23,-2.0,0.1659650288846585,2.5333415981439606e-22,-9.816390204980458e-07,9.819203386202494e-07,0.74131458385229,0.0,0.0,0.0,3.310157049084112,-2.1288295814116322e-05,-2.1352823486040522e-05,2.551689888367024e-07,619.4359768647915,619.4241140946963,619.430807465815,619.4307895142223
0.30800000000000005,4.619885519205617e-07,-2.0000004615148494,0.09422850217681152,-0.00010796726808165856,-0.00010778572245613219,4.48582153460069e-06,-1.5671827095945153e-23,-2.0,0.16945244272071341,2.528524454152727e-22,-1.663109362327436e-06,1.66299566025739e-06,0.7545266292287091,0.0,0.0,0.0,3.2683285436716143,-2.6230107619780415e-05,-2.6297589311353753e-05,2.5265084438689375e-07,618.4491724246593,618.4345358561222,618.4426103277362,618.4425915243379
0.31200000000000006,4.462785114370299e-07,-2.0000004457967395,0.09733786516597259,-6.48628089903135e-05,-6.464865854020567e-05,4.114699564706325e-06,-1.5641764470385317e-23,-2.0,0.1729639073027977,2.5236740890090384e-22,-2.334233685828254e-06,2.333760595028074e-06,0.7675980126715295,0.0,0.0,0.0,3.2258742117652326,-3.085045568674406e-05,-3.091997642585046e-05,2.493268788795737e-07,617.4458816556642,617.4286416426662,617.4380095278111,617.437990124725
0.31600000000000006,4.303177016677303e-07,-2.000000429827076,0.10049849308976486,-2.1920700732564225e-05,-2.167684124023483e-05,3.7600787673338872e-06,-1.5611499492811263e-23,-2.0,0.1764990076092341,2.51879107597987e-22,-2.988418179877264e-06,2.9876315335638177e-06,0.7805255837670347,0.0,0.0,0.0,3.182921159732353,-3.50724434609078e-05,-3.514295683929118e-05,2.452903623866092e-07,616.4290175024229,616.4093881486949,616.4199401264026,616.4199204137698
0.32000000000000006,4.142718435985895e-07,-2.0000004137714633,0.10370976296453167,2.037804365935436e-05,2.0647949908102535e-05,3.4219224901717832e-06,-1.5581035680986357e-23,-2.0,0.18005733274771932,2.5138759826283165e-22,-3.61898343053004e-06,3.6179392253969345e-06,0.7933025974467495,0.0,0.0,0.0,3.139519271834346,-3.884202290810669e-05,-3.891241678490983e-05,2.406190703455024e-07,615.3996827057532,615.3779093486393,615.3895206887751,615.3895009765987
0.32400000000000007,3.9830344670711186e-07,-2.0000003977923067,0.10697104287390412,6.15663110074493e-05,6.185787314067986e-05,3.1001297180487414e-06,-1.5550376517618836e-23,-2.0,0.1836384759205638,2.508929370861607e-22,-4.219196533355961e-06,4.2179606880374175e-06,0.8059233122174057,0.0,0.0,0.0,3.0957016387197225,-4.212048785887617e-05,-4.218961383815718e-05,2.3538969381590556e-07,614.3585911961715,614.3349420306521,614.3474767845239,614.3474573945597
0.32800000000000007,3.8257001777330347e-07,-2.0000003820470265,0.11028169227617438,0.00010119588864374203,0.00010150403881473041,2.7945410766026047e-06,-1.551952545065709e-23,-2.0,0.18724203439020098,2.5039517969787468e-22,-4.782546794210594e-06,4.78119455833969e-06,0.8183855187852453,0.0,0.0,0.0,3.0515010734099297,-4.48761044858191e-05,-4.494276613285259e-05,2.2967455356909872e-07,613.306456392301,613.2812187504085,613.2945315977067,613.2945128668889
0.3320000000000001,3.672223495020721e-07,-2.0000003666863484,0.11364106864901465,0.00013884466834954303,0.00013916372423828654,2.504964480045582e-06,-1.5488485893582662e-23,-2.0,0.1908676094449645,2.4989438117177896e-22,-5.3028388776612335e-06,5.301453972524761e-06,0.8306877131916888,0.0,0.0,0.0,3.006937239248626,-4.7086226562355305e-05,-4.7149216445421474e-05,2.235184061470468e-07,612.2436845411085,612.2171599220777,612.231098580403,612.2310808505471
0.3360000000000001,3.5240292773940887e-07,-2.0000003518527123,0.11704853768836306,0.00017412486296514384,0.00017444859963376504,2.231137439496016e-06,-1.545726122570096e-23,-2.0,0.19451480636513083,2.493905960302742e-22,-5.774317166676916e-06,5.7729908867943575e-06,0.8428300922365374,0.0,0.0,0.0,2.962009224310429,-4.87394886828387e-05,-4.879760708924205e-05,2.170113811567859e-07,611.1701949957035,611.1426928100508,611.1571013026223,611.1570849152008
0.3400000000000001,3.382445689254654e-07,-2.0000003376789124,0.12050343819674866,0.00020667269050254582,0.0002069944332077128,1.972774785566176e-06,-1.542585479242971e-23,-2.0,0.19818323438922603,2.4888387824901046e-22,-6.191697607692971e-06,6.190527475015762e-06,0.8548110082844961,0.0,0.0,0.0,2.9167871742384595,-4.981612848427629e-05,-4.986819805417253e-05,2.1019075165403604e-07,610.0876067679266,610.0594492426247,610.07416528935,610.0741505814339
0.3440000000000001,3.248690700468869e-07,-2.000000324286749,0.12400511697285807,0.00023616355669478932,0.00023647626881730468,1.7295330209783924e-06,-1.539426990558519e-23,-2.0,0.20187250668059406,2.483742812615049e-22,-6.55022034300803e-06,6.5493088812519276e-06,0.8666283931646495,0.0,0.0,0.0,2.871271342463397,-5.031467279612377e-05,-5.0359547761554577e-05,2.0313636381035117e-07,608.9958768874477,608.9673887624524,608.9822490635223,608.9822363651143
0.3480000000000001,3.1238594846414915e-07,-2.000000311785769,0.12755287594230796,0.0002623056128403693,0.0002626020316927486,1.5009979293273548e-06,-1.53625098436662e-23,-2.0,0.20558224029422517,2.47861857963724e-22,-6.845680880539211e-06,6.8451337820032685e-06,0.8782777207491259,0.0,0.0,0.0,2.8255690853347404,-5.022862009991741e-05,-5.026525878579902e-05,1.9594493385320156e-07,607.8975364728369,607.8690479987972,607.8838867960156,607.88387640952
0.3520000000000001,3.008914719918749e-07,-2.0000003002722977,0.13114600534756607,0.00028484865614264383,0.0002851214117907401,1.2867923068411932e-06,-1.5330577852135868e-23,-2.0,0.20931205614384213,2.473466607186297e-22,-7.074504444555174e-06,7.074428793476872e-06,0.8897532447369514,0.0,0.0,0.0,2.77972188871889,-4.956632588577534e-05,-4.95937771763496e-05,1.8859023423246374e-07,606.7935517662632,606.7653902603208,606.7800431910919,606.7800353949225
0.3560000000000001,2.9046792748881163e-07,-2.000000289828706,0.13478381411912102,0.00030358879099825104,0.0003038305022951132,1.0864979323330966e-06,-1.5298477143701222e-23,-2.0,0.2130615789692425,2.4682874136069073e-22,-7.233809564489706e-06,7.23431173497336e-06,0.9010531928970711,0.0,0.0,0.0,2.7337100301896693,-4.8346281029299374e-05,-4.836367041902925e-05,1.8113566897556528e-07,605.683420944736,605.6559049556326,605.6702122400442,605.6702072924062
0.3600000000000001,2.811828805676097e-07,-2.00000028052267,0.13846560613754455,0.0003183685053693681,0.0003185719022255104,8.996778526705386e-07,-1.526621089859062e-23,-2.0,0.21683043730389517,2.4630815120035804e-22,-7.32149313772989e-06,7.322677329149444e-06,0.9121793714353543,0.0,0.0,0.0,2.687561425578772,-4.6589362801392116e-05,-4.659595484994492e-05,1.73620293464933e-07,604.5677912461733,604.5412291827673,604.5550362450972,604.5550343660644
0.3640000000000001,2.730887027502697e-07,-2.0000002724067008,0.14219068070585542,0.0003290778438384508,0.0003292358908465847,7.258802411943687e-07,-1.5233782264828995e-23,-2.0,0.22061826344278906,2.4578494102850613e-22,-7.336259541962782e-06,7.338225411685062e-06,0.9231312482055891,0.0,0.0,0.0,2.641303250014407,-4.4323405055979645e-05,-4.431855883385297e-05,1.6607942503333273e-07,603.4472985697051,603.421984678121,603.4351441418038,603.4351455257605
0.3680000000000001,2.6622234415287885e-07,-2.0000002655179117,0.14595833955690957,0.00033565307866387277,0.00033575908820878433,5.646689874747691e-07,-1.5201194358510977e-23,-2.0,0.2244246934105323,2.452591611208394e-22,-7.277631320997533e-06,7.280472265941659e-06,0.9339083627284911,0.0,0.0,0.0,2.594948659437285,-4.158017336363853e-05,-4.156342839181861e-05,1.585132580962845e-07,602.322244270476,602.2984562506151,602.3108290370226,602.3108338278832
0.3720000000000001,2.6060519623284803e-07,-2.0000002598778814,0.14976788456779583,0.00033807835130759744,0.0003381260989757118,4.1552810708364014e-07,-1.5168450264071867e-23,-2.0,0.22824936692969985,2.4473086124226434e-22,-7.145942572524987e-06,7.149743873480532e-06,0.9445107488303266,0.0,0.0,0.0,2.5485154269925676,-3.839727555437253e-05,-3.8368308131197345e-05,1.510330062118805e-07,601.193045650829,601.1710412098026,601.1824985930444,601.182506896394
0.376,2.5624284961967547e-07,-2.0000002554924117,0.1536185823864174,0.00033639517130872976,0.00033637906051746846,2.779945983774101e-07,-1.5135553034556522e-23,-2.0,0.2320919273894278,2.442000906512275e-22,-6.942421352005513e-06,6.947257829227823e-06,0.9549353539510937,0.0,0.0,0.0,2.502093167658783,-3.505825672965446e-05,-3.501721720255183e-05,1.4356895575626024e-07,600.0619446593084,600.041820070023,600.0523138976324,600.0523256835395
0.38,2.531596419102969e-07,-2.0000002523860703,0.15750970920785515,0.0003273754758823216,0.000327290609006564,-8.236563178088892e-07,-1.5102505691886116e-23,-2.0,0.2359520218142531,2.4366689810401957e-22,-6.656313232425655e-06,6.662247224876467e-06,0.9651785742160619,0.0,0.0,0.0,2.4556818002542595,-2.791165311854163e-05,-2.7858537716857535e-05,1.2754387041914797e-06,598.9261393412644,598.9100926881143,598.922001028106,598.9220163108024
0.384,2.5136981734369937e-07,-2.0000002505733447,0.16144054156091547,0.00030658722853535225,0.00030642916672163746,-2.242029224709831e-06,-1.5069311227122847e-23,-2.0,0.23982930083319517,2.4313133185904644e-22,-6.238714589626435e-06,6.245795800016102e-06,0.9752407609061067,0.0,0.0,0.0,2.4092996927250923,-1.5005679063500158e-05,-1.4940302343468796e-05,1.690714906294685e-06,597.7883269886021,597.7796943404431,597.7891710525631,597.7891898988096
0.388,2.507873671453241e-07,-2.0000002499684846,0.16541038845382713,0.00027565917558358585,0.0002754239362823958,-3.8913274572696295e-06,-1.503597260073256e-23,-2.0,0.24372341864907995,2.4259343968106605e-22,-5.650393674557514e-06,5.658661051297253e-06,0.9851249553796275,0.0,0.0,0.0,2.36290001630443,-2.047886771148932e-06,-1.9700505557253637e-06,2.0188716818465547e-06,596.6480327101184,596.6468722368201,596.6536262068215,596.6536486874891
0.392,2.512906204657313e-07,-2.0000002504500918,0.16941853597070314,0.00023612484703084568,0.00023580916860768754,-5.703044841167678e-06,-1.500249274284533e-23,-2.0,0.24763403300810274,2.420532688453929e-22,-4.897579461604084e-06,4.907061071110844e-06,0.9948331646547697,0.0,0.0,0.0,2.3165474027558752,1.0300292121428416e-05,1.0390460924931588e-05,2.2766000926397973e-06,595.5069950779114,595.5129824607933,595.5169635926213,595.5169896848962
0.396,2.527284134753484e-07,-2.000000251867287,0.17346429269632094,0.00018941605237597658,0.0001890175589154152,-7.62004163760239e-06,-1.4968874553514003e-23,-2.0,0.251560805169629,2.415108661420694e-22,-4.011601981838961e-06,4.022312095307505e-06,1.0043659628914763,0.0,0.0,0.0,2.2702150774464,2.201835657242266e-05,2.2120474376877662e-05,2.4743761877612515e-06,594.3645409849944,594.3773381286018,594.3785342602774,594.3785638668495
0.4,2.549252977960363e-07,-2.0000002540449153,0.17754698542232883,0.0001368798530828001,0.0001363971984994554,-9.593229228315906e-06,-1.4935120902970728e-23,-2.0,0.2555033998762308,2.4096627788000465e-22,-3.021112997343532e-06,3.0330488544114107e-06,1.0137268033530091,0.0,0.0,0.0,2.2238843153748613,3.3078540777589494e-05,3.319197855635526e-05,2.6192659574692322e-06,593.220197909662,593.23944863876,593.2378774207963,593.2379103725561
0.404,2.576855474867215e-07,-2.000000256787548,0.18166590526039955,7.986437901813612e-05,7.929744989441084e-05,-1.1579665966561557e-05,-1.4901234631881465e-23,-2.0,0.2594614853239578,2.40419549891081e-22,-1.9533469513380167e-06,1.966486116771541e-06,1.0229150007482233,0.0,0.0,0.0,2.17764522742642,4.336786442967619e-05,4.3491642697937114e-05,2.716438222734941e-06,592.0762052977608,592.1014854838211,592.0972135940726,592.0972496188377
0.40800000000000003,2.6079823699927623e-07,-2.0000002598845597,0.18582030949634262,1.9711296297538915e-05,1.9061382919863782e-05,-1.3544024971279226e-05,-1.4867218551598523e-23,-2.0,0.26343473313284044,2.3987072753422836e-22,-8.348605627621914e-07,8.491577727783455e-07,1.0319244647038457,0.0,0.0,0.0,2.131585350693129,5.2765660847019455e-05,5.289850639331118e-05,2.7730258367669495e-06,590.9347554387931,590.9655679194109,590.9587197805946,590.9587585188114
0.41200000000000003,2.6404287918271055e-07,-2.0000002631157554,0.19000946317670278,-4.2308631195994955e-05,-4.3038759163991386e-05,-1.54575741584939e-05,-1.483307544441112e-23,-2.0,0.2674228183176237,2.3931985569946673e-22,3.08408806607362e-07,-2.930240640343787e-07,1.0407499849736561,0.0,0.0,0.0,2.085708951312727,6.121566034122777e-05,6.1356009938593e-05,2.795280388661432e-06,589.7959756584453,589.8317873552744,589.822524037575,589.8225650428367
0.41600000000000004,2.6719425640708057e-07,-2.000000266256201,0.19423265802055556,-0.00010502176048130051,-0.00010582783701351727,-1.7296779915018677e-05,-1.4798808063793968e-23,-2.0,0.27142541925873015,2.3876697881191707e-22,1.4519821533961016e-06,-1.4356066851129856e-06,1.0493939754319939,0.0,0.0,0.0,2.0399817171504306,6.870101251760122e-05,6.884715482514314e-05,2.7880911353110713e-06,588.6590265022254,588.6992913380125,588.6877950110351,588.6878377910269
0.42000000000000004,2.7002626286034633e-07,-2.0000002690800596,0.1984891875291237,-0.00016732087446069127,-0.000168197121002593,-1.904264000067015e-05,-1.4764419134653926e-23,-2.0,0.27544221767345,2.382121408357808e-22,2.5731964307383893e-06,-2.555953760959792e-06,1.05786011065832,0.0,0.0,0.0,1.9944190516030842,7.518251524635558e-05,7.533254962208308e-05,2.7557798808909404e-06,587.5243067609268,587.5684523788523,587.5549312892693,587.5549752932606
0.42400000000000004,2.723159570619479e-07,-2.0000002713646348,0.2027783655895765,-0.00022818716481250506,-0.00022912632297670838,-2.0680209773447763e-05,-1.4729911353574716e-23,-2.0,0.27947289858735697,2.37655385278288e-22,3.651214977827082e-06,-3.6332547122324297e-06,1.0661516461156684,0.0,0.0,0.0,1.948998594454495,8.064486154333287e-05,8.079671016754297e-05,2.702299731818372e-06,586.3912701636654,586.438711847791,586.4233923237316,586.4234369457637
0.42800000000000005,2.738467945146958e-07,-2.0000002728936037,0.20709947515408644,-0.00028664485972114965,-0.00028763822155257083,-2.2198286565744106e-05,-1.4695287389059728e-23,-2.0,0.28351715030594793,2.3709675519361512e-22,4.666803244557733e-06,-4.6483003507175045e-06,1.0742676231094777,0.0,0.0,0.0,1.9038015417015908,8.503118333590317e-05,8.518267606214969e-05,2.631400670720512e-06,585.2619660097846,585.3120819413809,585.2952201736638,585.2952647769207
0.43200000000000005,2.7441211156993556e-07,-2.000000273460492,0.211451769829633,-0.00034177190774073814,-0.0003428093885672406,-2.358877669176235e-05,-1.4660549881772912e-23,-2.0,0.28757466438650475,2.365362931867714e-22,5.602134432525303e-06,-5.583288007400506e-06,1.0822030920048207,0.0,0.0,0.0,1.8589068980419166,8.829375956150156e-05,8.844259235906626e-05,2.5462461202094512e-06,584.1384027657912,584.1905391047377,584.1724168696954,584.1724607740267
0.43600000000000005,2.7381844840465457e-07,-2.0000002728719926,0.21583450802887028,-0.00039273387777429827,-0.000393804138991686,-2.48462241922282e-05,-1.4625701444777797e-23,-2.0,0.291645135610177,2.35974041417455e-22,6.440798745911855e-06,-6.4218301044665695e-06,1.0899532401632441,0.0,0.0,0.0,1.8143253426619625,9.042629577320247e-05,9.057013362648094e-05,2.4495761019531546e-06,583.0208790288859,583.0743743452416,583.0552855491279,583.0553280612932
0.44000000000000006,2.7188833281748915e-07,-2.0000002709507467,0.22024695478287915,-0.0004387886330483843,-0.0004398792343963376,-2.5967458287486547e-05,-1.459074466377461e-23,-2.0,0.29572826195428326,2.3541004160387943e-22,7.168232619066554e-06,-7.149382361601973e-06,1.0975183908310533,0.0,0.0,0.0,1.770063770842682,9.143668271953966e-05,9.157321879506961e-05,2.3438267397296194e-06,581.9095966932467,581.963790371647,581.9440359538986,581.9440763850365
0.44400000000000006,2.684626972785139e-07,-2.0000002675377555,0.22468838142098818,-0.00047928881489472816,-0.00048038639228279383,-2.695125752007824e-05,-1.4555682097335565e-23,-2.0,0.29982374456482985,2.34844335026569e-22,7.771946507177855e-06,-7.753471219705957e-06,1.1049001833006649,0.0,0.0,0.0,1.726129564536131,9.134327358956503e-05,9.147022380261745e-05,2.231135438204032e-06,580.8047686203347,580.8590071103689,580.8388910389964,580.8389287030898
0.44800000000000006,2.6340293663664743e-07,-2.000000262494437,0.2291580653323152,-0.0005136837952568128,-0.0005147742605117127,-2.779805211240618e-05,-1.4520516277138284e-23,-2.0,0.30393128772924555,2.3427696253212535e-22,8.241570629217748e-06,-8.223738975440761e-06,1.1121001796745131,0.0,0.0,0.0,1.6825304362674802,9.01745669891131e-05,9.028976946323842e-05,2.1133718688978244e-06,579.7066148131242,579.7602577842893,579.7400831721488,579.7401174156569
0.45200000000000007,2.565926049173493e-07,-2.0000002557043195,0.23365528979175593,-0.0005415209964227686,-0.0005425897554064429,-2.8509660769908358e-05,-1.4485249708197396e-23,-2.0,0.30805059884933,2.3370796453696388e-22,8.5688849526119e-06,-8.55197348439771e-06,1.119119885991806,0.0,0.0,0.0,1.639274305494014,8.796904374076407e-05,8.80704598359765e-05,1.992166101144649e-06,578.6153593535828,578.6677857838471,578.6478511334133,578.6478813358731
0.45600000000000007,2.4793875219438316e-07,-2.000000247074376,0.23817934383968414,-0.0005624465180782426,-0.0005634787029889439,-2.9089058328416233e-05,-1.4449884869094302e-23,-2.0,0.3121813884144149,2.33137381031021e-22,8.747833585832203e-06,-8.732121981344325e-06,1.1259607678171069,0.0,0.0,0.0,1.596369194701895,8.477475044884556e-05,8.486048469080507e-05,1.8689339222019403e-06,577.5312278657899,577.5818419458357,577.5624375561681,577.5624631364394
0.4600000000000001,2.373729050032483e-07,-2.0000002365360072,0.2427295222062147,-0.0005762050266819751,-0.0005771857383373992,-2.954017101968958e-05,-1.4414424212205158e-23,-2.0,0.3163233699747358,2.325652515814323e-22,8.774522267315723e-06,-8.760288559133354e-06,1.132624263145092,0.0,0.0,0.0,1.5538231423615732,8.064868853949281e-05,8.071709828702615e-05,1.7448996392142778e-06,576.4544454281981,576.5026821829372,576.4840867503025,576.4841071996965
0.4640000000000001,2.248515977569932e-07,-2.0000002240455697,0.24730513133023366,-0.0005826353599659816,-0.0005835499011078335,-2.9867225591517482e-05,-1.4378870163927044e-23,-2.0,0.3204762601150138,2.3199161533618174e-22,8.647184920882787e-06,-8.634700550847417e-06,1.1391123988953649,0.0,0.0,0.0,1.5116318354783373,7.565338844654231e-05,7.570300965492259e-05,1.6205665701617228e-06,575.3849241397373,575.4302530192184,575.4127295951721,575.4127444558168
0.4680000000000001,2.103565147212588e-07,-2.000000209584521,0.25190549880380525,-0.0005816633782798465,-0.0005824974643944671,-3.0075651190824844e-05,-1.4343225124902365e-23,-2.0,0.3246397784282443,2.314165110277221e-22,8.36606070165206e-06,-8.355585726365158e-06,1.1454287450496565,0.0,0.0,0.0,1.4697714654011043,6.985297677778201e-05,6.988258228454345e-05,1.4975042103452336e-06,574.3220766209741,574.3640028072042,574.3478015456683,574.3478104284159
0.4720000000000001,1.938951412349264e-07,-2.00000019316007,0.2565299329856407,-0.0005733229985435278,-0.0005740630656998791,-3.0171415684147026e-05,-1.4307491470241487e-23,-2.0,0.32881364748969266,2.30839976976567e-22,7.933426809285551e-06,-7.92520499398475e-06,1.1515743816439354,0.0,0.0,0.0,1.4282995589650516,6.333560422491625e-05,6.334429843906118e-05,1.376556525836379e-06,573.267379435025,573.3054584628464,573.2908070020007,573.2908096153964
0.4760000000000001,1.7549991169219448e-07,-2.000000174804333,0.26117775255284875,-0.0005577337719367693,-0.0005583672023405847,-3.0160246067172188e-05,-1.427167154974361e-23,-2.0,0.332997592831094,2.3026205109485457e-22,7.353594568637927e-06,-7.34784837610071e-06,1.1575489018294518,0.0,0.0,0.0,1.3872143247387771,5.6187124044857606e-05,5.617433980681597e-05,1.2576793359721092e-06,572.2208060377627,572.254642947131,572.241744030497,572.2417401806356
0.4800000000000001,1.552272221128182e-07,-2.000000154573344,0.2658483035887216,-0.0005350809933103296,-0.0005355962775141509,-3.0048236701445395e-05,-1.423576768811592e-23,-2.0,0.33719134291505654,2.2968277088988327e-22,6.632665598573881e-06,-6.629591598578188e-06,1.163355291822334,0.0,0.0,0.0,1.3464790063407293,4.847801174101069e-05,4.844340450381256e-05,1.1415294856277898e-06,571.1814377707453,571.210678239773,571.1997164129832,571.1997059723045
0.4840000000000001,1.3315702339090137e-07,-2.000000132546655,0.2705409350900843,-0.0005056321512031465,-0.0005060191072902306,-2.9841822418219797e-05,-1.4199782185190985e-23,-2.0,0.3413946291096666,2.291021734676196e-22,5.778292383822171e-06,-5.778057465987291e-06,1.1689974998051784,0.0,0.0,0.0,1.306105725379512,4.02962014997615e-05,4.0239746002931594e-05,1.028747911414816e-06,570.1495972611226,570.1739384319773,570.1650745696732,570.1650575066723
0.4880000000000001,1.0939184982174225e-07,-2.0000001088263697,0.2752549920054277,-0.00046974056025215593,-0.00046999055932578837,-2.954800610215527e-05,-1.4163717316142485e-23,-2.0,0.34560718566329346,2.2852029553617825e-22,4.79969739142714e-06,-4.802435161571396e-06,1.1744765157693018,0.0,0.0,0.0,1.2661206828265512,3.174613689971222e-05,3.166820218274623e-05,9.202558337101887e-07,569.1259654602808,569.1451663577757,569.1385333561963,569.1385097588717
0.4920000000000001,8.405572592080325e-08,-2.000000083536052,0.27998980128250484,-0.00042785805669914775,-0.00042796427620657755,-2.917372019531513e-05,-1.4127575331699185e-23,-2.0,0.3498287496795929,2.279371734092749e-22,3.7078853111890144e-06,-3.7136917017243233e-06,1.1797901874768097,0.0,0.0,0.0,1.2265785679845804,2.2955099540441048e-05,2.2856431332576467e-05,8.162524235882233e-07,568.1119553727066,568.1258512301266,568.1215445420723,568.1215146135155
0.4960000000000001,5.729196161580725e-08,-2.0000000568185308,0.2847446962985998,-0.0003805009666946289,-0.00038045854088678384,-2.8725710683362217e-05,-1.4091358458357263e-23,-2.0,0.35405906109270824,2.273528430096517e-22,2.515524506461963e-06,-2.524453931620925e-06,1.1849368776402671,0.0,0.0,0.0,1.1874851046944648,1.4031061329948812e-05,1.3912785246160208e-05,7.167989210310622e-07,567.1077332283958,567.1162243908906,567.1143071402525,567.1142712004133
0.5000000000000001,2.9261099986636194e-08,-2.000000028833854,0.28951902416325215,-0.00032823336385769434,-0.00032803948377572116,-2.8210223248597132e-05,-1.4055068898590944e-23,-2.0,0.3582978626426669,2.267673398724756e-22,1.2365892019827186e-06,-1.2486517638822497e-06,1.1899179696824493,0.0,0.0,0.0,1.1488310327584543,5.066972059054386e-06,4.93049475169596e-06,6.215827575997886e-07,566.1130840988441,566.1161273331841,566.1166334696202,566.1165919260008
0.5040000000000001,1.3871137626718264e-10,-1.9999999997570892,0.29431215419134266,-0.0002716476994841575,-0.00027130165572225595,-2.763384497028934e-05,-1.4018708831061472e-23,-2.0,0.3625448998509709,2.261806991487102e-22,-1.1420452882957788e-07,9.904410531513521e-08,1.194737476683224,0.0,0.0,0.0,1.1105894994406444,-3.860035597297571e-06,-4.013047821258831e-06,5.312544959050219e-07,565.1273391217762,565.1249383590349,565.1278803974914,565.1278337391608
0.5080000000000001,-2.988606939174938e-08,-1.9999999697768682,0.2991234460689515,-0.00021140050226662528,-0.00021090379547161433,-2.700267480669822e-05,-1.3982280410824433e-23,-2.0,0.3667999209963806,2.255929556084606e-22,-1.5214144847618032e-06,1.5032375352667863e-06,1.199397618131422,0.0,0.0,0.0,1.0727975930715092,-1.2635886383339215e-05,-1.2803432371864961e-05,4.455101691094405e-07,564.1514718657564,564.1437011230912,564.1490555862434,564.1490044074583
0.512,-6.061340901855569e-08,-1.9999999390925278,0.30395227990932927,-0.00014816264824775427,-0.00014751897934903792,-2.632294506798794e-05,-1.3945785769535452e-23,-2.0,0.3710626770908894,2.2500414364429213e-22,-2.969045753659969e-06,2.947979904360149e-06,1.203900055429129,0.0,0.0,0.0,1.035431750539295,-2.1182435673043935e-05,-2.1362301350561993e-05,3.6475217098187436e-07,563.1848972984301,563.1718791371512,563.1795996343968,563.1795445978485
0.516,-9.183445154690151e-08,-1.9999999079124406,0.30879802166598136,-8.26599444049023e-05,-8.187526198092611e-05,-2.560069610578364e-05,-1.3909227015654234e-23,-2.0,0.37533292185588896,2.2441429727452247e-22,-4.440520160669749e-06,4.416739210669957e-06,1.2082453650549057,0.0,0.0,0.0,0.9985379924989453,-2.9384402751791263e-05,-2.957409065367858e-05,2.890087922072401e-07,562.2288248192333,562.2107534926743,562.2207579222536,562.2206997812448
0.52,-1.2333415145248495e-07,-1.999999876451191,0.3136600441776276,-1.563511260549018e-05,-1.4717572723432053e-05,-2.484162065300036e-05,-1.3872606234647026e-23,-2.0,0.3796104116985217,2.2382345014648817e-22,-5.9188864054152155e-06,5.892609229549772e-06,1.2124334206428913,0.0,0.0,0.0,0.9621201198359479,-3.715197395757077e-05,-3.734876930026582e-05,2.1811902703675283e-07,561.2833797681404,561.2605060346308,561.2726835732393,561.2726231518485
0.524,-1.5489384426139093e-07,-1.9999998449270093,0.31853773399162605,5.216966219256104e-05,5.320978004850785e-05,-2.4050865902099363e-05,-1.383592548918746e-23,-2.0,0.3838949056882217,2.23231635539785e-22,-7.387025827396092e-06,7.358514801793403e-06,1.2164657284684774,0.0,0.0,0.0,0.9261679052359197,-4.441484503381189e-05,-4.461590728511504e-05,1.516767889126411e-07,560.3483280783884,560.3209475163844,560.3351636716657,560.3351018369352
0.528,-1.8629378208792828e-07,-1.9999998135592447,0.3234304992543155,0.00012003135380767319,0.00012118177368154226,-2.3233665057257816e-05,-1.3799186819355797e-23,-2.0,0.38818616553344054,2.226388863694828e-22,-8.828246573751613e-06,8.797804494090419e-06,1.2203462556186628,0.0,0.0,0.0,0.8906547099197719,-5.112239142603225e-05,-5.132476275175237e-05,8.999170177380086e-08,559.4230094583828,559.3914505764664,559.4075554617607,559.4074931212353
