Time_s,X,Y,Z,Roll_deg,Pitch_deg,Yaw_deg,Ref_X,Ref_Y,Ref_Z,Ref_Yaw,vx,vy,vz,p,q,r,T_pert,tau_x,tau_y,tau_z,RPM_0,RPM_1,RPM_2,RPM_3
0.0040000000000000036,-4.903789747516863e-22,2.651163644740157e-22,0.010006999594037988,-8.680907141263378e-19,-3.744612224569047e-18,2.8365274483488005e-20,6.141595363607424e-23,-7.98609221018375e-24,0.010074639714689831,4.927211540672294e-22,-7.64036616901526e-20,5.827214431454023e-20,2.0013999188075973,0.0,0.0,0.0,0.13727673356390743,4.196144535599412e-18,1.0802738894620657e-17,-1.5703769192112926e-22,539.3555031529193,539.3555031529194,539.3555031529193,539.3555031529194
0.007999999999999993,-7.999025186487501e-22,2.6685488244684666e-22,0.01001099936604295,-9.93090377771794e-19,-6.121069460323194e-18,9.124180428926322e-20,6.141155814046165e-23,-7.985520651310307e-24,0.01021705724096241,4.926858903687486e-22,-7.679529134366634e-20,3.2557984302311744e-20,1.112333262893661,0.0,0.0,0.0,0.28307763445396705,-2.7277869403360728e-18,6.707540625700243e-19,-7.345760989272714e-20,543.2938902409246,543.2938902409246,543.2938902409246,543.2938902409246
0.011999999999999997,-9.194157816984083e-22,1.2503403963959284e-22,0.01001499914698505,-2.777770007393059e-19,-7.690160015147577e-18,1.7083442770781386e-19,6.140500457470336e-23,-7.984668472399899e-24,0.010429397942859043,4.926333131425963e-22,-6.382637060561523e-20,-1.127750198950516e-20,0.000999943862433142,0.0,0.0,0.0,0.42940121623182737,-2.436086453499719e-18,3.017943324010525e-19,-9.556780496414494e-20,547.2178991685612,547.2178991685613,547.2178991685612,547.2178991685613
0.016,-1.013362168825132e-21,-1.4828022968585282e-24,0.010018998945947417,6.710696541753262e-19,-7.576768731890266e-18,2.0612935768503687e-19,6.139631907156946e-23,-7.983539071571409e-24,0.010710815098006973,4.925636320438847e-22,-3.2663186484355616e-20,-2.7981691260244875e-20,0.0009999466232158902,0.0,0.0,0.0,0.5762362187708127,-1.0268677040307911e-18,2.0439458398322887e-19,-4.70906919531638e-20,551.1275383023295,551.1275383023296,551.1275383023295,551.1275383023295
0.020000000000000004,-1.0883799176097922e-21,1.8624699006758576e-23,0.010022998767071863,9.089110901310372e-19,-7.959757785534093e-18,3.2165072461976256e-20,6.13855275269866e-23,-7.982135816146284e-24,0.0110604696579496,4.92477054827604e-22,-2.6655426463555668e-20,-1.157721683143183e-20,0.0009999512378911987,0.0,0.0,0.0,0.723571510250227,1.2802114562337525e-18,8.334263408265854e-19,1.9590654331742376e-19,555.0228180367124,555.0228180367125,555.0228180367124,555.0228180367124
0.024000000000000007,-1.0832411709347403e-21,-6.43687490399773e-23,0.010026998611622725,8.416625588399446e-19,-7.923049661067828e-18,-1.8966006636185345e-19,6.137265560194777e-23,-7.98046204289688e-24,0.011477530186265229,4.923737873639449e-22,-1.1883019157212073e-20,-1.354853092738127e-21,0.0009999567755623884,0.0,0.0,0.0,0.8713960705056639,-1.1680937947531293e-18,-3.5885295341183727e-19,2.5895780113280923e-19,558.9037502903185,558.9037502903185,558.9037502903185,558.9037502903185
0.027999999999999997,-1.2083020142082996e-21,3.104016593321765e-23,0.01003099847929828,3.883203997613549e-19,-9.172225013175424e-18,-2.4685352102931808e-21,6.135772872440773e-23,-7.978521058292925e-24,0.011961172797154362,4.922540336535046e-22,-2.1302940270268256e-20,2.6338735203909543e-21,0.0009999625692999267,0.0,0.0,0.0,1.0196989914990158,2.4814202133534484e-18,3.5250384534514024e-18,-2.097308395121664e-19,562.7703484683873,562.7703484683874,562.7703484683873,562.7703484683874
0.032,-1.181911657275839e-21,1.6205090719597098e-22,0.010034998368712683,-3.3683107358066423e-19,-9.0983357243567e-18,-1.8597618993280687e-20,6.134077209116409e-23,-7.976316138746119e-24,0.012510581094492131,4.921179958423782e-22,-1.2011600503923121e-20,2.1570152006690182e-20,0.000999968230796719,0.0,0.0,0.0,1.16846947797653,1.3145904787197808e-18,-1.1073695549852189e-18,2.009173149060197e-20,566.6226274322521,566.6226274322522,566.6226274322521,566.6226274322521
0.036000000000000004,-1.0590840681237643e-21,1.9364242225338355e-22,0.010038998278102484,-4.40443952095748e-19,-8.792155314998483e-18,-3.472670277626819e-20,6.132181066972409e-23,-7.97385053085288e-24,0.013124946111342446,4.919658742371349e-22,7.466873876339108e-21,2.6540598347440116e-20,0.0009999735454511646,0.0,0.0,0.0,1.31769684602186,-9.041905036322293e-19,-8.683330474630063e-19,2.0752647013811248e-20,570.4606034166356,570.4606034166358,570.4606034166356,570.4606034166358
0.04000000000000001,-1.1516821859390583e-21,2.331360151421745e-22,0.010042998205558538,-7.381789395752672e-19,-9.603960525348293e-18,5.674312117375397e-20,6.130086920015726e-23,-7.971127451635248e-24,0.013803466249930549,4.917978673196819e-22,5.7935909060163535e-22,6.359459328017799e-21,0.0009999784155265146,0.0,0.0,0.0,1.4673705230285186,4.981056175509637e-19,3.969263498899666e-18,-1.0427900085051366e-19,574.2842939869314,574.2842939869315,574.2842939869314,574.2842939869315
0.044,-1.1825207929523813e-21,2.3568578265940815e-22,0.010046998149044197,-6.950851933224412e-19,-9.662104606760705e-18,-1.555802572248985e-19,6.127797219693403e-23,-7.968150088779968e-24,0.014545347222070593,4.916141717620148e-22,-5.7594771198790626e-21,8.70398133631487e-21,0.0009999828026919719,0.0,0.0,0.0,1.6174800471656883,-3.9516537695943263e-19,9.421017421796317e-20,2.4684200762014055e-19,578.0937179858629,578.093717985863,578.0937179858629,578.0937179858629
0.048,-1.1972113602156504e-21,2.1347743597728746e-22,0.010050998106715732,-4.42768660994841e-19,-9.931579095666414e-18,-2.8405912895348415e-19,6.12531439507504e-23,-7.964921600875756e-24,0.015349801990044966,4.914149824408564e-22,-9.607593921607469e-21,2.2027552223263274e-21,0.0009999867028967838,0.0,0.0,0.0,1.7680150658111853,-5.310127715439198e-19,8.25647678096784e-19,1.5761557748094085e-19,581.8888954567603,581.8888954567605,581.8888954567603,581.8888954567603
0.052000000000000005,-1.2297177543506314e-21,1.7576397405438643e-22,0.010054998077128787,-3.0039312265079826e-19,-1.0210156265854936e-17,-2.0684194564122752e-19,6.122640853033873e-23,-7.961445117648763e-24,0.016216050707932004,4.912004924521839e-22,-6.833122441525698e-21,-8.548951836598363e-21,0.000999990168530987,0.0,0.0,0.0,1.9189653348269513,-3.327904149654895e-19,1.2373054813543754e-18,-7.73956783032345e-20,585.6698475913051,585.6698475913053,585.6698475913051,585.6698475913053
0.05600000000000001,-1.2369525051246204e-21,1.6131495447458648e-22,0.010058998058845723,-2.2657338903432576e-19,-1.0273155232207918e-17,-9.874404094714511e-20,6.119778978426491e-23,-7.957723740196258e-24,0.01714332066337891,4.909708931256473e-22,-5.288827421254079e-21,-6.242394704157955e-21,0.000999993266522295,0.0,0.0,0.0,2.0703207188302475,1.760917268717478e-19,5.176728872683976e-19,-1.1664154598687665e-19,589.436596704406,589.4365967044062,589.436596704406,589.436596704406
0.06,-1.2255144771002918e-21,1.5550582779319438e-22,0.010062998050544116,-1.9818056553388247e-19,-1.0233412241592444e-17,-3.6165576452774385e-19,6.116731134271175e-23,-7.953760541218538e-24,0.01813084621981657,4.907263740388766e-22,-1.573528903879501e-21,-3.307049287899003e-21,0.0009999960129751864,0.0,0.0,0.0,2.2220711892582896,7.28189556553035e-20,4.580900559618423e-19,3.123159809346229e-19,593.1891661560413,593.1891661560414,593.1891661560413,593.1891661560413
0.064,-1.2852808965369567e-21,1.3753946666219508e-22,0.01006731073130676,1.46750445130033e-18,-8.969849406459106e-18,-1.7991921653853833e-19,6.113499661924888e-23,-7.949558565249065e-24,0.019177868759113068,4.904671230316817e-22,-4.086359381193898e-21,-2.9234949394275163e-21,0.0010312664660002552,0.0,0.0,0.0,2.3735722338877503,-2.0762779440039176e-18,5.808428129284243e-20,-1.9630907231873613e-19,596.9120352211537,596.9120352211538,596.9120352211537,596.9120352211537
0.068,-1.5003005069670868e-21,2.125225895426101e-22,0.010075590204635141,1.431993308633894e-17,4.054707242351386e-18,8.174752312951528e-19,6.110086881258928e-23,-7.945120828882877e-24,0.02028363662466268,4.90193326220144e-22,-2.64716974551874e-20,6.588044209455265e-21,0.0014592151099022954,0.0,0.0,0.0,2.5180225910559466,-1.4038749432630886e-17,-1.272292465202924e-17,-1.156590750188309e-18,600.4401502577381,600.4401502577382,600.4401502577381,600.4401502577382
0.07200000000000001,-1.7445720656259893e-21,2.6403482207453353e-22,0.010093030632756761,2.791126497811596e-17,2.0035302011530782e-17,2.121038321583813e-18,6.106495090833234e-23,-7.940450321003244e-24,0.02144740506490721,4.899051680106009e-22,-5.086413787968193e-20,1.2511302814881605e-20,0.002803258297433796,0.0,0.0,0.0,2.65217047051568,-1.705931549122777e-17,-1.840283406709267e-17,-1.5552019699734759e-18,603.6981681385154,603.6981681385155,603.6981681385154,603.6981681385155
0.07600000000000001,-1.9491359680094826e-21,2.5077745712125014e-22,0.010124354024567328,4.2241363457096536e-17,3.6754759665572963e-17,1.255291073518453e-18,6.102726568069378e-23,-7.93555000300661e-24,0.02266843617728647,4.896028311135239e-22,-5.878559972916216e-20,1.0670376254286724e-20,0.00537350947023927,0.0,0.0,0.0,2.776798887288626,-1.9351586320083e-17,-2.1135248190628952e-17,9.25365415678784e-19,606.7093120167432,606.7093120167433,606.7093120167432,606.7093120167432
0.08000000000000002,-1.9694265544932394e-21,3.486119129375073e-23,0.010173844667387756,4.807770489644567e-17,4.498477200132213e-17,2.128458532875074e-18,6.098783569422238e-23,-7.930422809025827e-24,0.023945998852614794,4.892864965572917e-22,-4.0090432235946556e-20,-1.4477476344728354e-20,0.009098529778812058,0.0,0.0,0.0,2.8926361117087227,-1.2073696020202475e-17,-1.4080566250372822e-17,-1.070413217151266e-18,609.4947130657049,609.494713065705,609.4947130657049,609.4947130657049
0.08399999999999999,-1.9831817961540673e-21,-2.215433459546651e-22,0.010245394436269166,6.425119561950133e-17,6.576420531195431e-17,5.087091823915648e-18,6.094668330550365e-23,-7.92507164615169e-24,0.025279368719880475,4.889563437018582e-22,-2.4924868281654967e-20,-3.62452848406637e-20,0.013871493361391693,0.0,0.0,0.0,3.000332496492072,-2.2824168697660717e-17,-2.7378983861717624e-17,-3.542423817773103e-18,612.0729902842481,612.0729902842482,612.0729902842481,612.0729902842481
0.088,-1.889955691382501e-21,-6.829359379434489e-22,0.010342543487035474,7.895635051515769e-17,9.466964360428489e-17,4.8289309805476385e-18,6.090383066485054e-23,-7.91949939465278e-24,0.026667828091465062,4.886125502523168e-22,-1.439767999006497e-20,-6.285006907766978e-20,0.019596697194439183,0.0,0.0,0.0,3.1004684018153066,-2.4168542840293046e-17,-3.946460224440053e-17,9.380770893758087e-20,614.4605619922359,614.460561992236,614.4605619922359,614.4605619922359
0.092,-1.386338860155039e-21,-1.4859746248829895e-21,0.01046850298598445,8.444217566405334e-17,1.114032347957924e-16,3.920425810568982e-18,6.085929971798134e-23,-7.91370890819365e-24,0.028110665908779343,4.882552922723606e-22,1.6215407832767143e-20,-1.0477666978813978e-19,0.02618698666777535,0.0,0.0,0.0,3.1935893555132906,-1.6175382720402256e-17,-3.085287591583967e-17,8.641119262000215e-19,616.6725787935582,616.6725787935583,616.6725787935582,616.6725787935583
0.096,-4.435770692597272e-22,-2.585229767003016e-21,0.01062616591348812,8.735173971614608e-17,1.1964532539789359e-16,4.863185135957905e-18,6.081311220768471e-23,-7.907703014051334e-24,0.029607177688313134,4.8788474419764225e-22,9.149799011897857e-20,-1.7180261552444982e-19,0.03356053910691832,0.0,0.0,0.0,3.280229533157207,-1.3303945472135745e-17,-2.2761500173687333e-17,-1.2611533287959013e-18,618.7235479396187,618.7235479396188,618.7235479396187,618.7235479396188
0.1,8.873058027022182e-22,-3.9690885067683384e-21,0.010818226585904362,9.023998164909926e-17,1.2787231587651518e-16,4.851806932387506e-18,6.076528967547217e-23,-7.90148451333022e-24,0.031156665468095743,4.875010788490293e-22,1.7294017566135523e-19,-2.2840029283188756e-19,0.04164896750992829,0.0,0.0,0.0,3.360690768470502,-1.3599222027828399e-17,-2.308620324643285e-17,-1.8528429876813644e-19,620.6221775561745,620.6221775561746,620.6221775561745,620.6221775561745
0.10400000000000001,2.7109732543529288e-21,-5.723002757014942e-21,0.011047153226278998,8.6096996898333e-17,1.290810094160171e-16,4.209087923056817e-18,6.071585346321787e-23,-7.89505618117528e-24,0.03275843775456411,4.871044674457612e-22,2.548810703928065e-19,-2.928022880048559e-19,0.0503955485912035,0.0,0.0,0.0,3.4353369829844147,-6.831700637951045e-18,-1.700784961166505e-17,5.526870526831185e-19,622.3784119670643,622.3784119670644,622.3784119670643,622.3784119670643
0.10800000000000001,5.08485093924072e-21,-7.884816559617177e-21,0.011315205781396526,7.086244007270937e-17,1.1921372752702942e-16,3.1312224025814997e-18,6.066482471478594e-23,-7.888420766983677e-24,0.034411809469835686,4.866950796185043e-22,3.597513250832928e-19,-3.7739897685816235e-19,0.05974686333780864,0.0,0.0,0.0,3.5045032322934224,5.6382217614343566e-18,-5.252548009750895e-18,1.0873973098599577e-18,624.0013049455849,624.0013049455852,624.0013049455849,624.001304945585
0.11200000000000002,7.793954272096306e-21,-1.0265027108209172e-20,0.011624446209772137,5.931262606942916e-17,1.174664832211817e-16,2.259052937147024e-18,6.061222437764546e-23,-7.881580994614762e-24,0.03611610189938309,4.862730834223082e-22,4.566404731255211e-19,-4.564839028666205e-19,0.06965104213123244,0.0,0.0,0.0,3.568510418416381,4.225575089744337e-18,-1.2034436132385813e-17,8.913706106167846e-19,625.4993961680544,625.4993961680545,625.4993961680544,625.4993961680544
0.11600000000000002,1.0865109355320025e-20,-1.2951388001320965e-20,0.01197673205925131,3.8899675618078674e-17,1.2014820660025803e-16,7.365391451019025e-19,6.055807320447308e-23,-7.874539562598468e-24,0.03787064264010755,4.858386453494632e-22,5.354166664145814e-19,-5.364551269431097e-19,0.08005769535950283,0.0,0.0,0.0,3.6276988758054074,1.413745705864555e-17,-1.77044810982534e-17,1.6868878822134406e-18,626.881518896388,626.8815188963881,626.881518896388,626.881518896388
0.12,1.4348709188259354e-20,-1.5874886993666607e-20,0.012373781568847737,9.974747965134964e-18,1.2318803611058217e-16,-2.448171168014016e-18,6.05023917547434e-23,-7.867299144342116e-24,0.03967476554880826,4.853919303422598e-22,6.050763215623841e-19,-6.2406709129622355e-19,0.09092230674463772,0.0,0.0,0.0,3.682283416459023,2.599624404970735e-17,-1.9224309753054142e-17,3.691113733573094e-18,628.1534390986401,628.1534390986402,628.1534390986401,628.1534390986401
0.124,1.8251057386893582e-20,-1.8875817400821757e-20,0.01281720918407061,-2.0806955976023337e-17,1.2732477711265368e-16,-5.424809985982799e-18,6.04452003963073e-23,-7.859862388335643e-24,0.041527810691044824,4.849331018056505e-22,6.774384017058665e-19,-7.084312074433249e-19,0.10221100694984553,0.0,0.0,0.0,3.7324113006214708,3.177717008638865e-17,-2.1163609175499738e-17,3.578825916889948e-18,629.3192465909159,629.319246590916,629.3192465909159,629.3192465909159
0.128,2.2654881362162653e-20,-2.1879554716574523e-20,0.013308499977210446,-5.71148354993542e-17,1.2591568189974412e-16,-7.526404901449739e-18,6.038651930695817e-23,-7.852231918355269e-24,0.04342912429038966,4.844623216198155e-22,7.60423631854751e-19,-7.894127387126168e-19,0.11389425607655576,0.0,0.0,0.0,3.7782850975983697,4.1109942502739556e-17,-1.632109475672704e-17,2.6788647573498174e-18,630.384228888827,630.3842288888271,630.384228888827,630.384228888827
0.132,2.7536467173095666e-20,-2.461516074922507e-20,0.013849017363552636,-8.455556861592252e-17,1.2153773328120495e-16,-1.1245062975967886e-17,6.032636847598618e-23,-7.844410333665597e-24,0.04537805867806791,4.839797501526322e-22,8.550133730506019e-19,-8.39408664233756e-19,0.1259415027207998,0.0,0.0,0.0,3.820095926278043,3.636236710078392e-17,-1.2941968960841971e-17,4.654146586329266e-18,631.3533225994072,631.3533225994072,631.3533225994072,631.3533225994072
0.136,3.254269318501051e-20,-2.666054452120084e-20,0.014440012596394138,-7.280818947842891e-17,1.4746023315046772e-16,-2.115193488540512e-17,6.026476770572072e-23,-7.83640020922019e-24,0.047373972242981614,4.834855462720496e-22,9.071481413750599e-19,-8.073108337295215e-19,0.13832288494694725,0.0,0.0,0.0,3.8580195987261323,-2.4098770865047776e-18,-4.43562186466923e-17,1.2035657039927156e-17,632.2310348788656,632.2310348788657,632.2310348788656,632.2310348788656
0.14,3.746177182047117e-20,-2.779947759495201e-20,0.015082627861427483,-4.690085566284239e-19,2.310212423817561e-16,-3.5283406346448267e-17,6.020173661306104e-23,-7.828204095860596e-24,0.0494162293821156,4.829798673583683e-22,8.237884462007057e-19,-6.09896146891e-19,0.15101032327722638,0.0,0.0,0.0,3.892229307342367,-7.089799745725342e-17,-1.1112178029132704e-16,1.7377463461258887e-17,633.0217464655404,633.0217464655404,633.0217464655404,633.0217464655404
0.14400000000000002,4.250714855819152e-20,-2.8230771051149614e-20,0.015777895398640926,1.339631896047951e-16,3.766590770569887e-16,-5.285470018063467e-17,6.01372946309952e-23,-7.819824520513866e-24,0.05150420045132223,4.824628693164261e-22,5.640673795563403e-19,-2.253299318693404e-19,0.16397641961631518,0.0,0.0,0.0,3.9229035880856618,-1.4993083418956767e-16,-1.917906219419652e-16,2.1976001677081252e-17,633.7299024639607,633.7299024639607,633.7299024639607,633.7299024639607
0.14800000000000002,4.835405380904967e-20,-2.8585597685329574e-20,0.016526779363944928,3.1198913356254345e-16,5.658862293500904e-16,-7.077562468213911e-17,6.007146101010744e-23,-7.811263986388557e-24,0.05363726171648213,4.819347065876919e-22,1.7812280619031437e-19,2.8405687455036556e-19,0.17719775166074556,0.0,0.0,0.0,3.950139607149387,-2.1680362121403433e-16,-2.6067553016553905e-16,2.3105957488527345e-17,634.3580190939479,634.3580190939479,634.3580190939479,634.3580190939479
0.152,5.596287557211742e-20,-2.9780291408391085e-20,0.01733016113961006,5.048145778944615e-16,7.699156253651589e-16,-9.093545138802986e-17,6.000425482007397e-23,-7.802524973169243e-24,0.0558147953050383,4.813955321622654e-22,-2.3401026474929284e-19,8.244682393343868e-19,0.19065432265342114,0.0,0.0,0.0,3.974066597538041,-2.5687885102766947e-16,-3.0281639877419334e-16,2.645723814975772e-17,634.9093102201595,634.9093102201593,634.9093102201595,634.9093102201595
0.156,6.594191199343435e-20,-3.237922770740087e-20,0.018188842831026644,7.268399000088981e-16,1.0031628136594433e-15,-1.0992594274949529e-16,5.993569495114737e-23,-7.793609937209527e-24,0.05803618915790083,4.80845497590786e-22,-6.340410487809935e-19,1.3575131814668037e-18,0.2043264495212617,0.0,0.0,0.0,3.994809417471468,-3.1144842321556187e-16,-3.5951394793525783e-16,2.591909492334739e-17,635.3868492146203,635.3868492146203,635.3868492146203,635.3868492146204
0.16,7.907670956569428e-20,-3.706330567203694e-20,0.019103552030531972,9.901938861732148e-16,1.2718495193151287e-15,-1.310287338867637e-16,5.986580011562965e-23,-7.784521311723588e-24,0.06030083698171933,4.802847529962512e-22,-1.05020626032931e-18,1.9210221337328237e-18,0.21819459240187689,0.0,0.0,0.0,4.012485866932842,-3.8401759315033803e-16,-4.280684153731942e-16,2.916640375419813e-17,635.7935114931867,635.7935114931865,635.7935114931867,635.7935114931867
0.164,9.622127892529529e-20,-4.465690106087944e-20,0.02007494609178803,1.3081765736911464e-15,1.5892831390724448e-15,-1.526600178022719e-16,5.979458884933398e-23,-7.775261506976257e-24,0.06260813820152066,4.797134470857429e-22,-1.5389889301487606e-18,2.585382978015776e-18,0.2322403752074383,0.0,0.0,0.0,4.027207528691669,-4.772009753009121e-16,-5.160666201817616e-16,3.0650313375589434e-17,636.1319978637595,636.1319978637594,636.1319978637595,636.1319978637594
0.168,1.1870659523724468e-19,-5.654925864497657e-20,0.02110361598283409,1.6572381160904322e-15,1.9377977252614597e-15,-1.757169214624283e-16,5.972207951303529e-23,-7.765832910471643e-24,0.06495749791370911,4.791317271620657e-22,-2.0667498881302647e-18,3.3102649698254088e-18,0.24644646615933455,0.0,0.0,0.0,4.039080486659199,-5.539149461231968e-16,-5.930756123377075e-16,3.32039107554505e-17,636.4048545436984,636.4048545436982,636.4048545436984,636.4048545436984
0.17200000000000001,1.477649461444416e-19,-7.397363270247437e-20,0.022190089773563605,2.043944069258301e-15,2.323974532568132e-15,-2.0036167889741055e-16,5.964829029390971e-23,-7.756237887140307e-24,0.06734832683942642,4.785397391352948e-22,-2.635563422227432e-18,4.0715422950341386e-18,0.2607964756035283,0.0,0.0,0.0,4.04820594452113,-6.397978749577671e-16,-6.799023377454089e-16,3.6005563656172134e-17,636.6144904590402,636.61449045904,636.6144904590402,636.6144904590402
0.17600000000000002,1.8484620837252551e-19,-9.832020028189847e-20,0.02333483452407592,2.472762284154284e-15,2.7463588760567546e-15,-2.261591435960741e-16,5.957323920696306e-23,-7.746478779525011e-24,0.0697800412782689,4.779376275342363e-22,-3.2110992278482155e-18,4.849478646752996e-18,0.2752747392221078,0.0,0.0,0.0,4.054683359525133,-7.363787308611537e-16,-7.71229300256921e-16,3.836409899338965e-17,636.7632519412309,636.7632519412307,636.7632519412308,636.7632519412309
0.18000000000000002,2.316104845699214e-19,-1.3144219059764335e-19,0.024538257171721246,2.917851399706351e-15,3.1968243682223482e-15,-2.5502304559949997e-16,5.949694409644831e-23,-7.736557907965036e-24,0.07225206306235925,4.773255355177992e-22,-3.788891400941381e-18,5.6160797831604145e-18,0.28986604035883234,0.0,0.0,0.0,4.058612413962193,-8.122814750903127e-16,-8.59275568439209e-16,4.3005507491806265e-17,636.8534703829903,636.8534703829899,636.8534703829902,636.8534703829902
0.184,2.898508239203325e-19,-1.7500789038000785e-19,0.0258007157364429,3.3814318893903204e-15,3.6657441054747976e-15,-2.877904217684892e-16,5.941942263727227e-23,-7.726477570779094e-24,0.07476381951077025,4.767036048862807e-22,-4.314212189702226e-18,6.316456344566904e-18,0.3045563982326145,0.0,0.0,0.0,4.060072045248204,-8.913592775882135e-16,-9.410238782289668e-16,4.87506251735729e-17,636.8869829927903,636.8869829927899,636.8869829927902,636.8869829927902
0.188,3.6144160316451282e-19,-2.3085641189358247e-19,0.027122516575769296,3.854684649735517e-15,4.142866308120864e-15,-3.2266059595285625e-16,5.93406923363914e-23,-7.716240044446835e-24,0.07731474338429796,4.760719760925646e-22,-4.722366885122471e-18,6.878225337628524e-18,0.3193329044003039,0.0,0.0,0.0,4.059148400653532,-9.648822069153127e-16,-1.0146132421379716e-15,5.255255756800427e-17,636.8657766496991,636.8657766496987,636.865776649699,636.865776649699
0.192,4.479575572534769e-19,-3.0069327362322413e-19,0.028503915909161043,4.34635507722477e-15,4.651740939958512e-15,-3.6341211122673756e-16,5.926077053419699e-23,-7.705847583788963e-24,0.07990427284058149,4.754307882532337e-22,-5.043173304103586e-18,7.332264021307313e-18,0.33418292794695803,0.0,0.0,0.0,4.055926259573522,-1.0493708633451562e-15,-1.1144612349295614e-15,6.085477341319403e-17,636.7917926341524,636.791792634152,636.7917926341523,636.7917926341523
0.196,5.513959880468288e-19,-3.8633046400293944e-19,0.0299451239223297,4.860940276082546e-15,5.1835207049343164e-15,-4.032743299574793e-16,5.917967440588968e-23,-7.695302422145969e-24,0.08253185138956737,4.747801791595976e-22,-5.298354578016578e-18,7.695100532826822e-18,0.34909426556904566,0.0,0.0,0.0,4.050483748330575,-1.1431667177930117e-15,-1.2125307668041117e-15,6.148932064135963e-17,636.6668068749062,636.6668068749057,636.6668068749061,636.6668068749061
0.2,6.736444962837085e-19,-4.895902311767621e-19,0.031446308055853696,5.410139925794263e-15,5.749897050277145e-15,-4.4203372566677184e-16,5.909742096284345e-23,-7.684606771555493e-24,0.08519692784931539,4.741202852886355e-22,-5.5455791760903365e-18,8.0338434409643e-18,0.3640555794400243,0.0,0.0,0.0,4.042893864296036,-1.253973821981734e-15,-1.3263689751856047e-15,6.183791778713461e-17,636.4924663171206,636.4924663171199,636.4924663171204,636.4924663171204
0.20400000000000001,8.171608174638128e-19,-6.128653054272828e-19,0.03300758858939501,5.961611580965871e-15,6.318524676007877e-15,-4.81096914578413e-16,5.901402705395911e-23,-7.673762822928327e-24,0.08789895630214385,4.734512418138545e-22,-5.683450955099883e-18,8.27511255679738e-18,0.3790556273879413,0.0,0.0,0.0,4.033240006730788,-1.3377184798970111e-15,-1.4132030062780478e-15,6.378437963541124e-17,636.2706470148158,636.2706470148153,636.2706470148157,636.2706470148157
0.20800000000000002,9.840542485471195e-19,-7.582004637028224e-19,0.03462904337182099,6.519726811873598e-15,6.8937885833010474e-15,-5.182297453682294e-16,5.892950936700745e-23,-7.662772746223061e-24,0.0906373960511115,4.727731826160656e-22,-5.64798019702983e-18,8.350204258815834e-18,0.39408329397347497,0.0,0.0,0.0,4.02159755528435,-1.4248562478149467e-15,-1.5035060502666813e-15,6.313347416496525e-17,636.0030323420889,636.0030323420883,636.0030323420888,636.0030323420888
0.21200000000000002,1.176560939811239e-18,-9.2781340260114e-19,0.03631071010399412,7.074111451558404e-15,7.469786550722924e-15,-5.555492686922361e-16,5.884388442996199e-23,-7.651638690619395e-24,0.0934117115768337,4.720862402940759e-22,-5.39365380408462e-18,8.205583775539931e-18,0.4091279641399937,0.0,0.0,0.0,4.008038685588018,-1.5042696405551375e-15,-1.5908370404634406e-15,6.487635190100069e-17,635.6912246638484,635.6912246638477,635.6912246638482,635.6912246638482
0.21600000000000003,1.3966309339400346e-18,-1.1236694309008361e-18,0.03805258980818434,7.638093906463236e-15,8.06868910424523e-15,-5.934115374351206e-16,5.87571686123216e-23,-7.640362784690111e-24,0.09622137249463046,4.713905461752995e-22,-4.9729581510095925e-18,7.844955290349371e-18,0.4241798871952633,0.0,0.0,0.0,3.992629887691276,-1.5981379247095445e-15,-1.7028901801697612e-15,6.704282189305212e-17,635.3366891876793,635.3366891876785,635.3366891876791,635.3366891876791
0.22000000000000003,1.6470533674085576e-18,-1.3482989694307749e-18,0.039854651304563345,8.171027659995314e-15,8.636512891890093e-15,-6.251504333289056e-16,5.866937812642285e-23,-7.628947136571729e-24,0.09906585351200385,4.7068623032628615e-22,-4.30601602481013e-18,7.194617064766129e-18,0.43923018758541676,0.0,0.0,0.0,3.975429811042542,-1.6536821187016644e-15,-1.7651496420529844e-15,6.144449849739739e-17,634.9407050027274,634.9407050027268,634.9407050027272,634.9407050027272
0.22400000000000003,1.9301013374506228e-18,-1.6038440916766375e-18,0.04171681508069783,8.662541601620662e-15,9.162924545429395e-15,-6.53968497867362e-16,5.858052902874233e-23,-7.617393834133851e-24,0.10194463438644233,4.699734215631692e-22,-3.208459168642603e-18,6.1068988622447314e-18,0.45426909258554493,0.0,0.0,0.0,3.9565309434891054,-1.6928605690888865e-15,-1.809828747053041e-15,5.933580457822867e-17,634.5053259122838,634.505325912283,634.5053259122835,634.5053259122835
0.22800000000000004,2.247677112007715e-18,-1.8920763243932178e-18,0.04363896774436855,9.122204905980489e-15,9.657509244387662e-15,-6.826592558742853e-16,5.849063722118894e-23,-7.6057049451472e-24,0.10485719988354963,4.692522474620334e-22,-1.549073012643018e-18,4.476457797649223e-18,0.4692866080812327,0.0,0.0,0.0,3.9359980556586898,-1.7381572927172189e-15,-1.8607689484689656e-15,6.037045064688509e-17,634.0319645298928,634.0319645298919,634.0319645298925,634.0319645298924
0.23200000000000004,2.6016806899552493e-18,-2.2148243755533357e-18,0.045620978613152015,9.540413533030662e-15,1.0116591221958628e-14,-7.106728356104788e-16,5.839971845238623e-23,-7.593882517450362e-24,0.10780303973549585,4.685228343692026e-22,6.188699851418916e-19,2.3331508865495615e-18,0.48427511613770574,0.0,0.0,0.0,3.9138634031057973,-1.7725337996832042e-15,-1.9071484723510987e-15,6.075753194594852e-17,633.5212802066237,633.5212802066228,633.5212802066234,633.5212802066234
0.236,2.9937270735240916e-18,-2.573495863493462e-18,0.04766267412426288,9.933474325973429e-15,1.0550484648304901e-14,-7.415685355573506e-16,5.830778831894487e-23,-7.581928579115258e-24,0.11078164859978819,4.6778530741144845e-22,3.2615290151520763e-18,-2.899565271843619e-19,0.4992274308956164,0.0,0.0,0.0,3.8902118013471543,-1.8200842797076913e-15,-1.9617766026852962e-15,6.52746295726792e-17,632.9751419257193,632.9751419257185,632.9751419257191,632.975141925719
0.24,3.4256176694709598e-18,-2.9697406664405086e-18,0.04976384948194517,1.0281411033184636e-14,1.0939256007177279e-14,-7.757031127025372e-16,5.821486226672532e-23,-7.569845138611327e-24,0.11379252601835947,4.670397905061206e-22,6.402458940977144e-18,-3.408400643640092e-18,0.5141348496604699,0.0,0.0,0.0,3.865105866942182,-1.8469515666646277e-15,-1.9953123190656267e-15,7.032682489450549e-17,632.3949056618416,632.3949056618407,632.3949056618413,632.3949056618413
0.244,3.898778455096498e-18,-3.4048336169767412e-18,0.0519242707169355,1.0585686877511362e-14,1.1284370939471541e-14,-8.111177036429381e-16,5.81209555920908e-23,-7.557634184968453e-24,0.11683517637697123,4.662864063711984e-22,1.0082540458010454e-17,-7.046945017353298e-18,0.5289892809259983,0.0,0.0,0.0,3.838605104528294,-1.8698307840805524e-15,-2.025008312302455e-15,7.322375671650626e-17,631.7818546767763,631.7818546767753,631.781854676776,631.781854676776
0.248,4.414407279287702e-18,-3.879822400015561e-18,0.054143675791028835,1.0852198265709418e-14,1.1591749487316904e-14,-8.45195270225574e-16,5.802608344315059e-23,-7.545297687938636e-24,0.11990910886493009,4.655252765352659e-22,1.4321463589132008e-17,-1.1227171870922327e-17,0.5437834999869489,0.0,0.0,0.0,3.810767778625922,-1.8954259079438006e-15,-2.0575878430858822e-15,7.311613561907856e-17,631.1372432325295,631.1372432325286,631.1372432325292,631.1372432325292
0.252,4.97401400558219e-18,-4.395962556280542e-18,0.05642177567389126,1.1051420679403972e-14,1.1821477739463823e-14,-8.700521459329662e-16,5.79302608209937e-23,-7.53283759815641e-24,0.12301383743511429,4.647565213474093e-22,1.9195977215697e-17,-1.5991705024593663e-17,0.558510556026373,0.0,0.0,0.0,3.7816509342286633,-1.8876711418553338e-15,-2.046053088421873e-15,6.374424285346775e-17,630.4622975685188,630.4622975685178,630.4622975685185,630.4622975685185
0.256,5.578570544271908e-18,-4.954195657377368e-18,0.058758255391959946,1.1161090775609311e-14,1.196016163444251e-14,-8.868291608282647e-16,5.783350258091314e-23,-7.520255847298038e-24,0.12614888076430864,4.639802599870386e-22,2.4926211673270354e-17,-2.154717954533101e-17,0.5731637657026099,0.0,0.0,0.0,3.751310418604171,-1.847132602032143e-15,-2.009013851850134e-15,5.5326388751758026e-17,629.7582168672158,629.7582168672149,629.7582168672154,629.7582168672154
0.26,6.228612561172704e-18,-5.55496900099623e-18,0.061152775050950715,1.1174562689903925e-14,1.200258343065698e-14,-8.988103254718041e-16,5.773582343362064e-23,-7.507554348239463e-24,0.12931376221384513,4.631966104736328e-22,3.168316764235248e-17,-2.807826615526239e-17,0.5877367062960318,0.0,0.0,0.0,3.7198009008995356,-1.788175003716154e-15,-1.955853149871309e-15,5.0412993189208125e-17,629.0261741318537,629.0261741318527,629.0261741318533,629.0261741318533
0.264,6.923956541656808e-18,-6.1979977313521675e-18,0.06360497529826739,1.1121369511014269e-14,1.1978323091057088e-14,-9.105637109963965e-16,5.763723794645203e-23,-7.494734995213054e-24,0.1325080097905475,4.624056896764107e-22,3.937405633908333e-17,-3.5532154934499543e-17,0.6022236556848399,0.0,0.0,0.0,3.6871668281719083,-1.7494160874030262e-15,-1.923197531970478e-15,5.0638894004404016e-17,628.267106083356,628.2671060833551,628.2671060833557,628.2671060833555
0.268,7.664686365795979e-18,-6.883265104647428e-18,0.06611448527271468,1.0976378427512775e-14,1.1862291740112284e-14,-9.281098422236206e-16,5.753776054456338e-23,-7.481799663963135e-24,0.13573115610797695,4.61607613323927e-22,4.794162092312364e-17,-4.385043499751858e-17,0.6166202837635658,0.0,0.0,0.0,3.6534372026953195,-1.6800887159802444e-15,-1.860132010333396e-15,5.788836648289878e-17,627.481590488949,627.481590488948,627.4815904889487,627.4815904889485
0.272,8.450360742616205e-18,-7.610213936556405e-18,0.0686808985564512,1.0735919439407874e-14,1.1649284447272987e-14,-9.433094723387253e-16,5.743740551211778e-23,-7.468750211900311e-24,0.13898273834797736,4.6080249601359335e-22,5.743235947492498e-17,-5.3076565676752474e-17,0.6309211466569292,0.0,0.0,0.0,3.618690267950404,-1.5943392050509874e-15,-1.779149062660825e-15,5.586778039414013e-17,626.6713535758719,626.6713535758711,626.6713535758716,626.6713535758716
0.276,9.28041292933145e-18,-8.377882474046742e-18,0.07130379896459882,1.039998579498504e-14,1.1309755128553377e-14,-9.492931624587989e-16,5.733618699346309e-23,-7.455588478254613e-24,0.14226229822251726,4.599904512211273e-22,6.803206332197925e-17,-6.328173666116436e-17,0.6451207264356884,0.0,0.0,0.0,3.5829531284358733,-1.4973261941666806e-15,-1.655689283483172e-15,4.572624853123842e-17,625.8369326089879,625.8369326089872,625.8369326089877,625.8369326089877
0.28,1.0153551560160557e-17,-9.185196157602833e-18,0.0739827360812849,9.944848901721115e-15,1.0842117597685881e-14,-9.469865448315256e-16,5.72341189943005e-23,-7.442316284227447e-24,0.14556938193582666,4.591715913099268e-22,7.988254890799161e-17,-7.453369800187146e-17,0.659213225074047,0.0,0.0,0.0,3.5463029174129783,-1.3644055120975824e-15,-1.5132924176726104e-15,3.628756534219187e-17,624.9800353692332,624.9800353692325,624.9800353692328,624.980035369233
0.28400000000000003,1.1068204328913925e-17,-1.003072942330444e-17,0.07671725261545329,9.338750473637252e-15,1.0223506497472817e-14,-9.3730812538427e-16,5.713121538284407e-23,-7.428935433142375e-24,0.14890354014682666,4.583460275403736e-22,9.317873012501368e-17,-8.707759871776996e-17,0.6731936799388994,0.0,0.0,0.0,3.5087624072505226,-1.181700122097929e-15,-1.331560567908471e-15,2.7581415596913255e-17,624.1011028191352,624.1011028191347,624.101102819135,624.101102819135
0.28800000000000003,1.2022100219032075e-17,-1.0912270041860313e-17,0.07950686008544913,8.574669890992403e-15,9.446874070932324e-15,-9.174327944689054e-16,5.702748989097132e-23,-7.41544771059473e-24,0.15226432793184938,4.575138700790635e-22,1.0798051245866816e-16,-1.0112681987393099e-16,0.6870569744347493,0.0,0.0,0.0,3.470404004401177,-9.705454023455379e-16,-1.1222862466919138e-15,1.5272381135157857e-17,623.2017406158641,623.2017406158637,623.2017406158639,623.2017406158639
0.29200000000000004,1.301235407210671e-17,-1.1826991650465928e-17,0.0823510839396257,7.649259820227056e-15,8.508883006040711e-15,-8.891296434112856e-16,5.692295611536498e-23,-7.401854884600075e-24,0.15565130474764627,4.566752280079664e-22,1.2442290459006723e-16,-1.1682311958750283e-16,0.7008006520200033,0.0,0.0,0.0,3.4312096025340573,-7.360890280485228e-16,-8.897061127705954e-16,4.6112070817648815e-18,622.2814347198956,622.2814347198953,622.2814347198954,622.2814347198954
0.29600000000000004,1.403511850877027e-17,-1.277110632110578e-17,0.08524939861281941,6.594236005829949e-15,7.441261629457528e-15,-8.520259912459794e-16,5.681762751864576e-23,-7.38815870574151e-24,0.1590640343946827,4.558302093335141e-22,1.4236087605333459e-16,-1.340214951117572e-16,0.7144199565172717,0.0,0.0,0.0,3.3912925204822546,-5.144624133137127e-16,-6.699472795059255e-16,-6.831390694715078e-18,621.3427588520282,621.3427588520278,621.3427588520279,621.3427588520279
0.30000000000000004,1.5086351257015226e-17,-1.3740631000689012e-17,0.08820127182722544,5.412176194354076e-15,6.246590193247564e-15,-8.08370241937798e-16,5.67115174304965e-23,-7.374360907315842e-24,0.16250208498071647,4.549789209956193e-22,1.6157082601471492e-16,-1.5249851715478176e-16,0.7279094442682654,0.0,0.0,0.0,3.350677858868328,-2.8190719385895194e-16,-4.392498481603413e-16,-1.6008874003532967e-17,620.3862212422857,620.3862212422856,620.3862212422856,620.3862212422855
0.304,1.6161283529226244e-17,-1.4730856070541812e-17,0.09120613545513896,4.131928772122753e-15,4.953686145394493e-15,-7.62682957817428e-16,5.660463904877754e-23,-7.360463205478618e-24,0.16596502888465847,4.541214688766234e-22,1.8180468610784232e-16,-1.7200602320885097e-16,0.7412623404352129,0.0,0.0,0.0,3.3094501312137243,-6.28839465281088e-17,-2.2203314481530933e-16,-2.017467587503801e-17,619.413734228932,619.413734228932,619.4137342289318,619.4137342289318
0.308,1.725464354412801e-17,-1.573656947823604e-17,0.09426341548720302,2.7951885028079116e-15,3.6042778812445526e-15,-7.170336807387585e-16,5.649700544063344e-23,-7.346467299388045e-24,0.1694524427207134,4.5325795781017585e-22,2.0266933060115823e-16,-1.92150938038308e-16,0.7544739961372199,0.0,0.0,0.0,3.2676342367719675,1.2366952386389395e-16,-3.7300756143671703e-17,-2.2006346969140587e-17,618.42581129799,618.4258112979901,618.42581129799,618.42581129799
0.312,1.8361181833651995e-17,-1.6752580246353488e-17,0.09737258828178834,1.4211829802376588e-15,2.2175976649422534e-15,-6.65593329294614e-16,5.63886295435912e-23,-7.33237487134778e-24,0.17296390730279768,4.523884915900445e-22,2.2371339494807153e-16,-2.1248196065587054e-16,0.7675472332239239,0.0,0.0,0.0,3.225141166659097,2.955045623611492e-16,1.3271013912001848e-16,-3.064574621444288e-17,617.4202703673254,617.4202703673257,617.4202703673254,617.4202703673254
0.316,1.947580569662417e-17,-1.777370420447099e-17,0.1005331308226875,1.5448481946568585e-17,7.843800688453978e-16,-1.713082821948516e-06,5.627952416664991e-23,-7.318187586948629e-24,0.17649900760923407,4.515131729788575e-22,2.447102708778886e-16,-2.327126848382592e-16,0.7804873509358545,0.0,0.0,0.0,3.181981321815712,4.674938442712412e-16,3.184281463696612e-16,2.0011516248090866e-06,616.3943047986132,616.3943047986137,616.400239084293,616.400239084293
0.32,2.059323296542332e-17,-1.8794865185820795e-17,0.1037445169587656,-1.4356347212090457e-15,-6.982610922177059e-16,-4.027858770168257e-06,5.616970199136191e-23,-7.303907095209137e-24,0.1800573327477193,4.506321037167775e-22,2.656281612480257e-16,-2.527678138676307e-16,0.7932968681685777,0.0,0.0,0.0,3.1381727770237915,6.604940980180966e-16,5.169923601486746e-16,2.774369035991511e-06,615.3530379013533,615.3530379013539,615.3612790193688,615.3612790193688
0.324,2.1708117079179656e-17,-1.981078966787475e-17,0.1070062089899085,-2.938388043726868e-15,-2.2418526992470865e-15,-6.805193969514105e-06,5.605917557290568e-23,-7.289535028715093e-24,0.18363847592056376,4.497453845301086e-22,2.86597474961581e-16,-2.7276162353908416e-16,0.8059737329141198,0.0,0.0,0.0,3.093750845010442,8.704332962085593e-16,7.374419219957395e-16,3.4097635350266908e-06,614.2956105713208,614.2956105713214,614.3057565144858,614.3057565144858
0.328,2.281462552474361e-17,-2.0815861169522322e-17,0.11031760442394227,-4.480604801421057e-15,-3.827894698254367e-15,-9.91520814721815e-06,5.594795734115029e-23,-7.275073003757944e-24,0.18724203439020096,4.488531151398367e-22,3.075831375918426e-16,-2.927078592079612e-16,0.8185104607599968,0.0,0.0,0.0,3.04885932542532,1.0780206316126987e-15,9.505205089785654e-16,3.912431508871032e-06,613.2253605139027,613.2253605139034,613.237022477269,613.2370224772691
0.332,2.3906636776130335e-17,-2.1804160268185092e-17,0.11367806099456094,-6.031256312302638e-15,-5.422413103063665e-15,-1.3246822661859699e-05,5.58360596017117e-23,-7.260522620472145e-24,0.19086760944496448,4.479553942701031e-22,3.2837177926327415e-16,-3.1241558126111344e-16,0.8308948565191876,0.0,0.0,0.0,3.0035933698682395,1.2603164464152362e-15,1.1350596831266455e-15,4.299002934087445e-06,612.1444685366635,612.1444685366642,612.1573053852961,612.1573053852961
0.336,2.4978072458951062e-17,-2.2769662551508966e-17,0.11708688409903072,-7.551534131038043e-15,-6.998384526269638e-15,-1.6704383177220434e-05,5.572349453700069e-23,-7.245885462971438e-24,0.1945148063651308,4.470523196566124e-22,3.4851755115896726e-16,-3.314425683907085e-16,0.8431151381768685,0.0,0.0,0.0,2.958074953659093,1.4041180888168329e-15,1.293282878287617e-15,4.58293459173164e-06,611.0557768648188,611.0557768648197,611.0694859064358,611.0694859064358
0.34,2.6023138463152546e-17,-2.3706896363817608e-17,0.120543347064542,-9.043627812041061e-15,-8.54619532494122e-15,-2.0208314724811825e-05,5.561027420726289e-23,-7.231163099484073e-24,0.198183234389226,4.46143988054976e-22,3.6763136493788003e-16,-3.4939116101159266e-16,0.8551605014369509,0.0,0.0,0.0,2.9123866497041737,1.5471295879211242e-15,1.4408878898963616e-15,4.779081851082762e-06,609.9612009599477,609.9612009599487,609.9755223878578,609.9755223878578
0.34400000000000003,2.7036019877206124e-17,-2.461016938457372e-17,0.12404672384533044,-1.0473528154876551e-14,-1.0040715003639646e-14,-2.3692463546139203e-05,5.549641055161048e-23,-7.216357082486976e-24,0.20187250668059403,4.4523049524898935e-22,3.8547063645668206e-16,-3.6600423117756335e-16,0.8670251740585847,0.0,0.0,0.0,2.8665457535877263,1.6558403019464494e-15,1.562475790814602e-15,4.899855203432085e-06,608.8611058261265,608.8611058261276,608.8758156993493,608.8758156993495
0.34800000000000003,2.801142715834697e-17,-2.547447860852709e-17,0.1275962902140278,-1.1851915663026497e-14,-1.1487444204406097e-14,-2.710203777337527e-05,5.538191538904605e-23,-7.201468948838873e-24,0.20558224029422514,4.443119360588456e-22,4.018541701214249e-16,-3.8111435466392174e-16,0.8787084168347308,0.0,0.0,0.0,2.8205671821901817,1.769747242395036e-15,1.6858090214764483e-15,4.9558106475290104e-06,607.7558045113055,607.7558045113066,607.7707094236201,607.7707094236201
0.35200000000000004,2.894382914471516e-17,-2.6294592455434943e-17,0.131191322979906,-1.3142565348795865e-14,-1.2845700922738891e-14,-3.0392210634861546e-05,5.526680041947839e-23,-7.18650021991239e-24,0.2093120561438421,4.433884043492854e-22,4.165346573288035e-16,-3.9448300091434935e-16,0.8902106439894044,0.0,0.0,0.0,2.7744674396367115,1.844983982636413e-15,1.765891227619793e-15,4.956339061066659e-06,606.6456522188856,606.6456522188868,606.6605859984172,606.6605859984172
0.35600000000000004,2.9827966631203386e-17,-2.706542882310871e-17,0.1348310993950485,-1.4292970745925516e-14,-1.4070396559335052e-14,-3.352687914800432e-05,5.515107722473043e-23,-7.171452401725108e-24,0.21306157896924247,4.424599930376833e-22,4.2909285354649426e-16,-4.057384076548922e-16,0.9015320832616942,0.0,0.0,0.0,2.728264260298292,1.855899002837274e-15,1.7890672756566906e-15,4.9097904776689376e-06,605.5310379134795,605.5310379134808,605.5458586708461,605.5458586708461
0.36000000000000004,3.065949720665217e-17,-2.778293891520152e-17,0.1385148967151739,-1.5303425386192464e-14,-1.515886617364498e-14,-3.647755777696363e-05,5.503475726953935e-23,-7.15632698506961e-24,0.21683043730389515,4.4152679410207115e-22,4.389785981900312e-16,-4.1429460329848193e-16,0.9126728226320603,0.0,0.0,0.0,2.681976313341659,1.8501877543815593e-15,1.7941082121138055e-15,4.823580775046569e-06,604.4123773517912,604.4123773517923,604.4269648268709,604.4269648268709
0.36400000000000005,3.1435263671381156e-17,-2.844428699231649e-17,0.14224199189063694,-1.623854725425299e-14,-1.6172018497151052e-14,-3.922239276753037e-05,5.491785190254888e-23,-7.141125445642516e-24,0.22061826344278904,4.405888985890986e-22,4.463223071120456e-16,-4.202808365421838e-16,0.9236328476736834,0.0,0.0,0.0,2.635622952025633,1.9000757263882152e-15,1.851226726724137e-15,4.704287215059992e-06,603.2901071381452,603.2901071381464,603.3043603144456,603.3043603144456
0.36800000000000005,3.2151525436404575e-17,-2.904601468515071e-17,0.14601166136671612,-1.7066955386020472e-14,-1.7078448890194437e-14,-4.1745284468380297e-05,5.480037235729379e-23,-7.125849244172505e-24,0.22442469341053228,4.396463966219326e-22,4.515178206751194e-16,-4.241511517537964e-16,0.9344120729009557,0.0,0.0,0.0,2.5892240012532395,1.9182971539457688e-15,1.8764516698409803e-15,4.557734114301758e-06,602.164679656933,602.1646796569343,602.1785146160679,602.178514616068
0.372,3.2804392631152824e-17,-2.958449656283023e-17,0.14982318097536443,-1.7705828097751268e-14,-1.7796820962720786e-14,-4.4035106321279235e-05,5.468232975317691e-23,-7.110499826547344e-24,0.22824936692969977,4.386993774080941e-22,4.542596293365922e-16,-4.256047850326039e-16,0.9450103680710669,0.0,0.0,0.0,2.5427995778155337,1.8378817070304943e-15,1.804793509567942e-15,4.389069728404114e-06,601.0365587552362,601.0365587552374,601.0499067470155,601.0499067470155
0.376,3.339122668344058e-17,-3.00574036317303e-17,0.15367582590322051,-1.8137734605734236e-14,-1.8306766529702274e-14,-4.608501041739127e-05,5.456373509643831e-23,-7.095078623939929e-24,0.23209192738942783,4.37747929247235e-22,4.536499210023714e-16,-4.2374229597097856e-16,0.9554275801798404,0.0,0.0,0.0,2.4963699385808864,1.7182936919473105e-15,1.6903244549256674e-15,4.205909534527412e-06,599.90621138392,599.906211383921,599.9190264571332,599.9190264571332
0.38,3.391074971874775e-17,-3.0463732104588167e-17,0.15756887072291656,-1.8401014177386317e-14,-1.8647009554744397e-14,-4.789178826763042e-05,5.44445992811171e-23,-7.079587052933341e-24,0.23595202181425312,4.367921395388534e-22,4.49387883243748e-16,-4.182757010278949e-16,0.9656635517851676,0.0,0.0,0.0,2.4499553525645705,1.6171301696474473e-15,1.5945165735270304e-15,4.009292633203665e-06,598.7741183256896,598.7741183256907,598.786357425016,598.786357425016
0.384,3.436207958128768e-17,-3.0802858559149623e-17,0.1615015894766305,-1.8507812249207002e-14,-1.883080115328235e-14,-4.945529391569418e-05,5.432493309000563e-23,-7.064026515644926e-24,0.2398293008331952,4.358320947899489e-22,4.4191035334996834e-16,-4.0964944314127234e-16,0.9757181361989081,0.0,0.0,0.0,2.4035759934181025,1.5162456433603567e-15,1.5003017301586403e-15,3.8026478227011805e-06,597.6407579999993,597.6407580000003,597.6523882977609,597.6523882977609
0.388,3.474459796885717e-17,-3.107429891234493e-17,0.16547325580246613,-1.8428950142209145e-14,-1.8842263638215443e-14,-5.0777987838982955e-05,5.420474719559626e-23,-7.048398399849409e-24,0.24372341864907998,4.348678806226188e-22,4.3145751305202777e-16,-3.9802227039388613e-16,0.9855912100095623,0.0,0.0,0.0,2.357251849365901,1.3706191247031062e-15,1.3756950851950673e-15,3.5889968527008095e-06,596.5066085300341,596.506608530035,596.5176062580836,596.5176062580836
0.392,3.50584761842562e-17,-3.127863150138235e-17,0.16948313011595628,-1.8176585711569532e-14,-1.8682828293164988e-14,-5.186560965069018e-05,5.408405216102076e-23,-7.032704079101042e-24,0.24763403300810277,4.338995817815943e-22,4.180035207655545e-16,-3.833420382253653e-16,0.9952813853622345,0.0,0.0,0.0,2.311028990540218,1.2155412013654464e-15,1.2333775340019933e-15,3.372254495627951e-06,595.372790876582,595.3727908765829,595.383144127628,595.383144127628
0.396,3.5304910845119586e-17,-3.141733241331362e-17,0.17353046789959525,-1.7790906660146482e-14,-1.8396014417880508e-14,-5.27238875178597e-05,5.396285844098236e-23,-7.01694491285481e-24,0.25156080516962903,4.329272821417179e-22,4.0179817437836565e-16,-3.6583190270126743e-16,1.0047868283068166,0.0,0.0,0.0,2.264937138103311,1.0854915249042385e-15,1.119080723849322e-15,3.1526266564281576e-06,594.240037963727,594.2400379637277,594.2497353847574,594.2497353847574
0.4,3.54850191571701e-17,-3.149191199905178e-17,0.17761453543990754,-1.7266328984766377e-14,-1.797032584675438e-14,-5.33617832947434e-05,5.384117638268055e-23,-7.001122246586669e-24,0.25550339987623083,4.319510647153629e-22,3.831885735498423e-16,-3.4590376456557057e-16,1.0141070416112064,0.0,0.0,0.0,2.2189742846421847,9.38978587919647e-16,9.834612016524305e-16,2.9341099988469568e-06,593.1083002432223,593.108300243223,593.1173427374611,593.1173427374611
0.404,3.560068228602252e-17,-3.150458082477807e-17,0.1817346002025551,-1.6621670116665228e-14,-1.742494532034456e-14,-5.3786766796432275e-05,5.371901622672859e-23,-6.985237411912869e-24,0.25946148532395785,4.309710116597945e-22,3.6247010029014406e-16,-3.2389583371460594e-16,1.023243908282459,0.0,0.0,0.0,2.1731576645031967,7.962129539598007e-16,8.516892745028633e-16,2.7153142022106145e-06,591.9780113858112,591.9780113858118,591.9863955659736,591.9863955659737
0.40800000000000003,3.5654148561592716e-17,-3.1457903842012704e-17,0.18588997627919115,-1.5870205230076607e-14,-1.6774625470294396e-14,-5.4008082216467306e-05,5.359638810806388e-23,-6.969291726708325e-24,0.2634347331328405,4.299872042844731e-22,3.398173109760374e-16,-2.999948420126571e-16,1.032201812137337,0.0,0.0,0.0,2.127412291138901,6.553469564463809e-16,7.237881201980045e-16,2.4986038916952823e-06,590.8473202818434,590.8473202818438,590.8550500855035,590.8550500855036
0.41200000000000003,3.564794988098666e-17,-3.135476966282487e-17,0.190079966952277,-1.502114821942833e-14,-1.6026362708467182e-14,-5.403683802315621e-05,5.347330205685127e-23,-6.953286495224074e-24,0.26742281831762377,4.289997230583014e-22,3.1555128505230487e-16,-2.7451864592860374e-16,1.040985651306936,0.0,0.0,0.0,2.0817783084681225,5.125010468411102e-16,5.922770178731064e-16,2.2865222126457963e-06,589.7172160641115,589.717216064112,589.7243033209257,589.7243033209259
0.41600000000000004,3.558497960753348e-17,-3.1198403796123105e-17,0.19430384721395905,-1.4084087129912975e-14,-1.5189743967074708e-14,-5.3884570191279305e-05,5.334976799937916e-23,-6.937223008203806e-24,0.2714254192587302,4.280086476168135e-22,2.8990456348612475e-16,-2.4771172967466984e-16,1.0495930450650364,0.0,0.0,0.0,2.0363317339896274,3.6821116257430163e-16,4.594142624592288e-16,2.0800112664820257e-06,588.5895891534756,588.5895891534759,588.5960486681605,588.5960486681605
0.42000000000000004,3.546819471918077e-17,-3.099196776506821e-17,0.19856089176268474,-1.3034614962060178e-14,-1.4252556271674e-14,-5.3562932572289445e-05,5.322579575894874e-23,-6.921102542999486e-24,0.27544221767345006,4.270140567693094e-22,2.629735833227615e-16,-2.1961681903031515e-16,1.0580201742205948,0.0,0.0,0.0,1.9910927178991429,1.8772014478421005e-16,3.0346808184669176e-16,1.879669818210054e-06,587.4649544330224,587.4649544330227,587.4708029614385,587.4708029614386
0.42400000000000004,3.530102245891955e-17,-3.0739269590905767e-17,0.20285038387407806,-1.1879359129706178e-14,-1.3218842747037543e-14,-5.308300932181326e-05,5.310139505675615e-23,-6.904926363686071e-24,0.279472898587357,4.260160285059316e-22,2.3475778461754647e-16,-1.9015610985323036e-16,1.0662667596961246,0.0,0.0,0.0,1.9460634661577318,-2.751628565663419e-18,1.3768257197478216e-16,1.6852990934194966e-06,586.3433844426412,586.3433844426413,586.3486382261593,586.3486382261593
0.42800000000000005,3.508682281529678e-17,-3.044452883081786e-17,0.207171625642729,-1.063234090160739e-14,-1.2055694972201674e-14,-5.2456882587261224e-05,5.297657551276783e-23,-6.888695721175323e-24,0.283517150305948,4.25014640004688e-22,2.0507307695423628e-16,-1.593510191168557e-16,1.07433564272032,0.0,0.0,0.0,1.90122517493216,-1.9204581449890845e-16,-7.505905616446899e-17,1.4985090050028804e-06,585.2244244596062,585.2244244596062,585.2291048743525,585.2291048743526
0.432,3.4829791037080357e-17,-3.011226672459125e-17,0.21152389522639303,-9.307956226616605e-15,-1.0774909561246133e-14,-5.169669503773552e-05,5.285134664658892e-23,-6.872411853328743e-24,0.28757466438650475,4.240099676384193e-22,1.7381637661544232e-16,-1.274882242679577e-16,1.0822270646640486,0.0,0.0,0.0,1.8566452630642316,-3.7795581136855307e-16,-2.954048018756329e-16,1.319856176790289e-06,584.109776344691,584.1097763446909,584.1139066272206,584.1139066272206
0.436,3.45347356646697e-17,-2.974738370480609e-17,0.21590645966693006,-7.934279575876118e-15,-9.411199433510287e-15,-5.0815187421349084e-05,5.2725717878324874e-23,-6.856075985069601e-24,0.291645135610177,4.230020869817108e-22,1.4112621294380906e-16,-9.497546460165828e-17,1.0899378543644311,0.0,0.0,0.0,1.8123659408166701,-5.448019881602654e-16,-4.940398986624586e-16,1.1505285174979502e-06,583.000521649522,583.0005216495219,583.0041288996922,583.0041288996922
0.44,3.4206402180374207e-17,-2.9354692695015024e-17,0.22031858499899867,-6.516113286082555e-15,-7.96603067173228e-15,-4.9823286737657564e-05,5.259969852943638e-23,-6.839689328494106e-24,0.29572826195428326,4.219910728177515e-22,1.0741609570517713e-16,-6.218163294122617e-17,1.0974657914324393,0.0,0.0,0.0,1.7684093053163514,-7.128278394799385e-16,-7.001738948403144e-16,9.889219883814637e-07,581.8972490094231,581.8972490094228,581.9003554548744,581.9003554548746
0.444,3.384998088144882e-17,-2.8939247460992537e-17,0.22475956372890182,-5.071564576371327e-15,-6.462303354541351e-15,-4.873218088390161e-05,5.247329782358749e-23,-6.823253082981691e-24,0.29982374456482985,4.209769991451382e-22,7.30860625157206e-17,-2.9436868536332494e-17,1.1048125707871894,0.0,0.0,0.0,1.7247417648742642,-8.700298264176013e-16,-8.94674919319004e-16,8.357823500670664e-07,580.799145630703,580.7991456307026,580.8017759919954,580.8017759919954
0.448,3.347076571803118e-17,-2.8505907879538e-17,0.22922869141524696,-3.593248117665861e-15,-4.91590385529172e-15,-4.755273082993553e-05,5.2346524887487134e-23,-6.806768435304438e-24,0.30393128772924555,4.1995993918462707e-22,3.8427526813274517e-17,3.1273191702746533e-18,1.1119819896568601,0.0,0.0,0.0,1.6813764611718431,-1.0401717122997445e-15,-1.0806840892280993e-15,6.911801849060751e-07,579.7065722587404,579.7065722587399,579.7087516309082,579.7087516309082
0.452,3.307447210644279e-17,-2.806005137138565e-17,0.23372525481897172,-2.1184909188262575e-15,-3.3730267194587607e-15,-4.6296196773821424e-05,5.221938875172403e-23,-6.790236559735642e-24,0.30805059884933,4.1893996538583144e-22,4.011913663916332e-18,3.523628979987203e-17,1.1189743014403704,0.0,0.0,0.0,1.6383505351821777,-1.1797784220232447e-15,-1.2256277888521184e-15,5.560216733588203e-07,578.6204973780052,578.6204973780046,578.6222538709457,578.6222538709457
0.456,3.2666333944599644e-17,-2.760666181334491e-17,0.23824853973247562,-6.476785409475249e-16,-1.8340581820080963e-15,-4.4972128745637824e-05,5.2091898351595026e-23,-6.77365861815752e-24,0.3121813884144149,4.1791714943386744e-22,-2.9670709408045203e-17,6.661266006383513e-17,1.1257886868637628,0.0,0.0,0.0,1.5956855654772657,-1.3193330291731098e-15,-1.369756698998848e-15,4.287660672806587e-07,577.5415064191034,577.5415064191027,577.5428634378832,577.5428634378832
0.46,3.225187370576837e-17,-2.715101032263022e-17,0.24279785784320124,7.844334177318464e-16,-3.341251852976994e-16,-4.35900949323938e-05,5.196406252792691e-23,-6.757035760168082e-24,0.3163233699747358,4.168915622559474e-22,-6.213393081855303e-17,9.681397556267317e-17,1.1324268035049294,0.0,0.0,0.0,1.5533486875087144,-1.426360690826614e-15,-1.481134518121169e-15,3.098220170436132e-07,576.4688048926087,576.4688048926079,576.4697872856051,576.4697872856051
0.464,3.183599812516397e-17,-2.6697766202506706e-17,0.24737252406310908,2.1888731187900087e-15,1.1385545309770022e-15,-4.215921890600779e-05,5.1835890027891804e-23,-6.740369123187151e-24,0.3204762601150138,4.158632740279212e-22,-9.316392081665017e-17,1.2562568508190787e-16,1.1388923875407715,0.0,0.0,0.0,1.5113522670040243,-1.5418867773231907e-15,-1.6019021608303967e-15,1.9905899568834656e-07,575.4027424230737,575.4027424230729,575.403374774939,575.403374774939
0.468,3.142375914279795e-17,-2.6251734595348838e-17,0.2519718569107955,3.5486481844623224e-15,2.5666184754763163e-15,-4.06881598940255e-05,5.170738950581612e-23,-6.723659832561557e-24,0.3246397784282443,4.148323541807663e-22,-1.2254749532974987e-16,1.5283269650145722e-16,1.145186936246334,0.0,0.0,0.0,1.4697078365293101,-1.642101089867349e-15,-1.7072518223665937e-15,9.63058089533624e-08,574.3436498616185,574.3436498616176,574.3439563610724,574.3439563610724
0.47200000000000003,3.101983182851436e-17,-2.5817333668539788e-17,0.2565951788200547,4.868549295411105e-15,3.953368066184606e-15,-3.9185102855131074e-05,5.157856952398313e-23,-6.706909001669497e-24,0.32881364748969266,4.1379887140702676e-22,-1.502869515786889e-16,1.7844381495423998e-16,1.1513113688486647,0.0,0.0,0.0,1.4284262321713022,-1.7453489486907645e-15,-1.814216707442772e-15,1.3612062588022226e-09,573.2918425414418,573.2918425414409,573.2918468815174,573.2918468815174
0.47600000000000003,3.062861158901782e-17,-2.5398692327229486e-17,0.26124181642567684,6.164797886437512e-15,5.31206397163043e-15,-3.765775330899254e-05,5.1449438553429275e-23,-6.690117732024082e-24,0.332997592831094,4.1276289366720143e-22,-1.7637025550938408e-16,2.0247931998455365e-16,1.1572666813063264,0.0,0.0,0.0,1.387517629484361,-1.866171644159079e-15,-1.9355232760288112e-15,-8.60010061210526e-08,572.2476210053566,572.2476210053555,572.2473462989404,572.2473462989404
0.48000000000000004,3.02549972321576e-17,-2.500051674087883e-17,0.2659111066518797,7.384152867072967e-15,6.592425832613326e-15,-3.6112993999670546e-05,5.132000497473414e-23,-6.67328711337606e-24,0.33719134291505654,4.11724488196082e-22,-2.0068914469213532e-16,2.2483934923580854e-16,1.1630545221315514,0.0,0.0,0.0,1.3469797574230689,-1.93447742197697e-15,-2.006828389096941e-15,-1.664272427042494e-07,571.2109697539581,571.210969753957,571.21043718329,571.21043718329
0.48400000000000004,2.990340098339169e-17,-2.462698947024168e-17,0.2706024060462315,8.502173890311183e-15,7.768536255288662e-15,-3.4557663353150406e-05,5.1190277078804257e-23,-6.656418223815731e-24,0.3413946291096666,4.106837215090409e-22,-2.227266814018553e-16,2.450208296175979e-16,1.1686780960902643,0.0,0.0,0.0,1.3067911170405846,-1.967935141537392e-15,-2.042054030930352e-15,-2.396878618220401e-07,570.1813783692924,570.1813783692912,570.1806099779438,570.1806099779438
0.48800000000000004,2.957791089634835e-17,-2.4282041328986704e-17,0.2753150550312252,9.484472868711985e-15,8.810434752137052e-15,-3.42588653152769e-05,5.10602630676507e-23,-6.63951212987407e-24,0.34560718566329346,4.0964065940827004e-22,-2.4180381589117415e-16,2.623100167497446e-16,1.1741385618404263,0.0,0.0,0.0,1.267002178830492,-1.95599396270446e-15,-2.0362001216453522e-15,1.1666866190726598e-06,569.157817345685,569.157817345684,569.1615642210219,569.1615642210219
0.49200000000000005,2.928164553568288e-17,-2.396857267990335e-17,0.2800483941292056,1.0355372972050252e-14,9.74095957625218e-15,-3.487046660277001e-05,5.0929971055160545e-23,-6.622569886623034e-24,0.3498287496795929,4.085953669889697e-22,-2.577038470278305e-16,2.764592453459678e-16,1.1794347501390856,0.0,0.0,0.0,1.2276310412381857,-1.955553627135313e-15,-2.0410626045117168e-15,2.220299103441259e-06,568.1437327672376,568.1437327672364,568.1508760804786,568.1508760804786
0.49600000000000005,2.901743921499759e-17,-2.368930534489635e-17,0.2848017539396327,1.1115563490691223e-14,1.0569673523520273e-14,-3.591993749763681e-05,5.079940906786229e-23,-6.605592537775091e-24,0.35405906109270824,4.0754790864548936e-22,-2.7057040102162374e-16,2.875573462039743e-16,1.184565186487779,0.0,0.0,0.0,1.188716183111944,-1.9497277447982514e-15,-2.04986108828992e-15,2.7593487798977728e-06,567.1404282917542,567.1404282917531,567.1493215672957,567.1493215672957
0.5,2.8788081776171594e-17,-2.3446771153772944e-17,0.2895744798959605,1.174875994253665e-14,1.1276602746662771e-14,-3.7284772752938384e-05,5.066858504568517e-23,-6.5885811157819635e-24,0.3582978626426669,4.0649834807741955e-22,-2.8059979801150767e-16,2.957493359647631e-16,1.1895298341068503,0.0,0.0,0.0,1.1502461970705706,-1.9184343034470546e-15,-2.0312980414491407e-15,3.1733465582106472e-06,566.147037809352,566.1470378093509,566.1572833173409,566.1572833173408
0.504,2.8596068880498305e-17,-2.3243239760291677e-17,0.2943659245596923,1.2223104431431533e-14,1.1831359332550113e-14,-3.887000650816947e-05,5.053750684271253e-23,-6.571536641932585e-24,0.3625448998509709,4.0544674829563577e-22,-2.8753318185957213e-16,3.007317917267859e-16,1.1943312744108592,0.0,0.0,0.0,1.1122248836871846,-1.8413344429702896e-15,-1.9688666866134515e-15,3.4894543534624674e-06,565.16366800439,565.1636680043889,565.1749536942681,565.1749536942681
0.508,2.844288955278101e-17,-2.307987300307538e-17,0.29917548024135837,1.2568461891017594e-14,1.2257158914877331e-14,-4.0592109587061295e-05,5.0406182227929225e-23,-6.55446012645029e-24,0.3667999209963806,4.0439317162829476e-22,-2.9115717176440515e-16,3.023685798078316e-16,1.1989741864842698,0.0,0.0,0.0,1.0745896525873364,-1.778186529305157e-15,-1.914478435544788e-15,3.717147804211587e-06,564.1887337463177,564.1887337463166,564.2007766149056,564.2007766149055
