Time_s,X,Y,Z,Roll_deg,Pitch_deg,Yaw_deg,Ref_X,Ref_Y,Ref_Z,Ref_Yaw,vx,vy,vz,p,q,r,T_pert,tau_x,tau_y,tau_z,RPM_0,RPM_1,RPM_2,RPM_3
0.0040000000000000036,1.0221975646044887e-22,-4.0,0.010006999594037988,-7.417734548572634e-19,7.147505149775166e-19,-9.884920825861219e-20,1.96820473696698e-22,-4.0,0.010074639714689831,-3.6950793544352725e-22,2.8463870859018855e-19,-800.0,2.0013999188075973,0.0,0.0,0.0,0.13727673356390743,8.661928940161907e-19,2.677392694381021e-19,9.074014405973438e-20,539.3555031529193,539.3555031529194,539.3555031529193,539.3555031529194
0.008,9.57209662116336e-23,-4.0,0.010010999365527828,-5.410890127968543e-19,6.609470482888618e-19,-1.534669877040017e-19,1.9680638739700902e-22,-4.0,0.01021705724096241,-3.694814900264507e-22,1.5740392548777563e-19,-444.44444444444446,1.112333262836425,0.0,0.0,0.0,0.2830776354994165,-1.8362149601951623e-19,-9.335075286962158e-19,6.699368022716173e-20,543.293890269062,543.2938902690621,543.293890269062,543.2938902690621
0.012000000000000004,3.7772718040956445e-22,-4.0,0.010014999143178303,-4.250035810630372e-21,2.083083100238409e-18,-2.4754977967855205e-19,1.9678538510297003e-22,-4.0,0.010429397942859043,-3.694420606207381e-22,2.240219977155093e-20,-8.18669336117954e-24,0.0009999434817584835,0.0,0.0,0.0,0.42940122292865546,-5.898833148419322e-19,-5.061497997170969e-18,1.1533876848427385e-19,547.2178993475084,547.2178993475085,547.2178993475084,547.2178993475085
0.016,5.484433290366066e-22,-4.0,0.010018998937194887,7.187269478753254e-20,3.1256451569382585e-18,-2.848638176537297e-19,1.9675755056259578e-22,-4.0,0.010710815098006973,-3.6938980445371174e-22,4.111168422907967e-20,-1.5086693898033008e-24,0.000999945747962895,0.0,0.0,0.0,0.5762362289297325,-8.860035109049677e-20,-2.9865219081882853e-19,5.288818044149007e-20,551.1275385718621,551.1275385718623,551.1275385718621,551.1275385718623
0.020000000000000004,6.516394571860971e-22,-4.0,0.010022998752909006,1.38915661810122e-18,4.699298696470682e-18,-4.430177096839772e-19,1.9672296676488579e-22,-4.0,0.0110604696579496,-3.693248773277293e-22,3.251937422460381e-20,7.277574350394635e-24,0.000999950008513488,0.0,0.0,0.0,0.7235715215096432,-1.543149937853035e-18,-1.409638570568922e-18,1.955814438594644e-19,555.0228183333464,555.0228183333465,555.0228183333464,555.0228183333464
0.024000000000000007,7.123740704589511e-22,-4.0,0.010026998592244063,1.2678091672342748e-18,5.701039544554186e-18,-4.4452412032729865e-19,1.9668171594594476e-22,-4.0,0.011477530186265229,-3.6924743363167492e-22,1.2986255274387293e-20,1.6113097415033416e-23,0.000999955453208183,0.0,0.0,0.0,0.8713960815428251,4.670752479239336e-20,-1.0864990307790565e-18,1.908771319537485e-20,558.903750579078,558.9037505790781,558.903750579078,558.903750579078
0.027999999999999997,7.28431775282573e-22,-4.0,0.010030998455082641,1.8698237242700908e-18,5.876062301645591e-18,-5.908008118260745e-19,1.9663387959505699e-22,-4.0,0.011961172797154362,-3.6915762635236243e-22,3.458844335043626e-21,2.678930955845162e-23,0.0009999612930352425,0.0,0.0,0.0,1.0196990019336867,-7.896876996086465e-19,-1.292371532327538e-19,1.8826516151217374e-19,562.7703487395086,562.7703487395087,562.7703487395086,562.7703487395086
0.032,7.580232912170581e-22,-4.0,0.010034998340143084,2.1320287045857785e-18,6.0758761804120826e-18,-4.716433941517677e-19,1.9657953846071442e-22,-4.0,0.012510581094492131,-3.6905560708585302e-22,-2.5925672327948162e-21,3.191437568858174e-23,0.0009999670552275283,0.0,0.0,0.0,1.168469487585207,-4.340482317362716e-19,-8.116411616678611e-19,-1.157962307422295e-19,566.6226276802145,566.6226276802146,566.6226276802145,566.6226276802145
0.036000000000000004,8.72256179942187e-22,-4.0,0.01003899824560747,2.199409342172289e-18,6.304934631789524e-18,-5.463048309868317e-19,1.965187725565994e-22,-4.0,0.013124946111342446,-3.6894152604868663e-22,1.2978360378496227e-20,3.717515743710449e-23,0.000999972483020986,0.0,0.0,0.0,1.3176968548997043,-2.244757336646554e-19,-1.699610427542564e-18,1.0572290018301003e-19,570.4606036441967,570.4606036441968,570.4606036441967,570.4606036441967
0.04000000000000001,8.315150754565214e-22,-4.0,0.01004299816958284,2.705578638902168e-18,6.371178447615077e-18,-6.209662678218957e-19,1.9645166116752172e-22,-4.0,0.013803466249930549,-3.6881553208902846e-22,6.571761595457889e-21,4.106932986913487e-23,0.0009999774631473668,0.0,0.0,0.0,1.4673705311290435,-7.414711139469564e-19,1.1957487346788764e-18,1.0878980477945688e-19,574.2842941931854,574.2842941931855,574.2842941931854,574.2842941931854
0.044,8.169292743515893e-22,-4.0,0.010046998110173016,2.715061441981971e-18,6.2127609073376066e-18,-7.865985316459093e-19,1.9637828285531093e-22,-4.0,0.014545347222070593,-3.68677772697731e-22,4.79640210012011e-21,4.4060285328147085e-23,0.0009999819720002065,0.0,0.0,0.0,1.6174800541896388,-1.9608726167328928e-19,-5.283088471997274e-19,2.1812503865836694e-19,578.0937181635268,578.0937181635269,578.0937181635268,578.0937181635268
0.048,8.138761322388024e-22,-4.0,0.010050998065532848,3.038054701335998e-18,6.378291093467243e-18,-7.1565401904725455e-19,1.962987154646639e-22,-4.0,0.015349801990044966,-3.6852839401931196e-22,-5.009587770789789e-21,4.8546156730889996e-23,0.0009999860143879852,0.0,0.0,0.0,1.7680150717428047,-5.628320346395637e-19,-7.469333703616191e-19,-5.1431550503217663e-20,581.8888956058163,581.8888956058164,581.8888956058163,581.8888956058163
0.052000000000000005,8.217645956920535e-22,-4.0,0.010054998033988096,3.0540881255741282e-18,6.300642564901541e-18,-7.933949989383783e-19,1.9621303612894789e-22,-4.0,0.016216050707932004,-3.683675408628493e-22,-2.6017377435092738e-21,5.1231373527301305e-23,0.0009999896077070303,0.0,0.0,0.0,1.9189653401141917,-2.264721360415048e-19,-4.769617472168709e-19,1.1934452579828061e-19,585.6698477233107,585.6698477233108,585.6698477233107,585.6698477233108
0.05600000000000001,8.177537615555359e-22,-4.0,0.010058998013983113,3.0193410771472714e-18,6.337828574662184e-18,-9.936916301500432e-19,1.9612132127595982e-22,-4.0,0.01714332066337891,-3.681953567127931e-22,1.0541642637937448e-21,5.299265353221804e-23,0.0009999927876648898,0.0,0.0,0.0,2.0703207237013346,-1.682705365895384e-19,-3.4876736760690173e-19,2.657023378854182e-19,589.4365968252444,589.4365968252445,589.4365968252444,589.4365968252444
0.06,8.177946541656094e-22,-4.0,0.010062998004245606,3.1177844942728105e-18,6.330021490546574e-18,-1.163107539979882e-18,1.960236466336417e-22,-4.0,0.01813084621981657,-3.6801198373969592e-22,6.231438688909244e-22,5.336632800048061e-23,0.0009999956034390661,0.0,0.0,0.0,2.2220711936039663,-3.2142527250894673e-19,-4.747800830236626e-19,2.378547503523245e-19,593.1891662631637,593.1891662631639,593.1891662631637,593.1891662631638
0.064,7.774964062425858e-22,-4.0,0.010067151082139332,-3.376034465789377e-17,1.1538229613484924e-17,1.6042318833131317e-18,1.9592008723575256e-22,-4.0,0.019177868759113068,-3.678175628108613e-22,-3.87133610046701e-21,-3.963760184983278e-23,0.0010153059493500996,0.0,0.0,0.0,2.373896152003751,4.285058462959767e-17,-6.051266503812946e-18,-3.1857819340969125e-18,596.9199700588615,596.9199700588617,596.9199700588615,596.9199700588616
0.068,6.542280936807855e-22,-4.0,0.010074516950420297,-2.7231281993686694e-16,2.6679963464588337e-17,6.674610393862413e-18,1.9581071742749762e-22,-4.0,0.02028363662466268,-3.6761223350091147e-22,-1.556565515706512e-20,-2.4156510343619344e-21,0.001351894253571323,0.0,0.0,0.0,2.5198818574842186,2.808740660729744e-16,-1.7476539900341035e-17,-5.9897304416173e-18,600.4854266236957,600.485426623696,600.4854266236957,600.4854266236957
0.07200000000000001,4.1127460088594713e-22,-4.0,0.010090295444642104,-7.312083860755263e-16,5.992215761951565e-17,1.3096265902814931e-17,1.9569561087111433e-22,-4.0,0.02144740506490721,-3.67396134102275e-22,-4.3139314073667216e-20,-1.805586814763534e-20,0.0025297441749528096,0.0,0.0,0.0,2.6555776112294693,5.544886157264246e-16,-3.915065939723707e-17,-7.776440506972422e-18,603.7806876339841,603.7806876339844,603.7806876339843,603.7806876339841
0.076,3.32346703326112e-22,-4.0,0.010119333558853492,-1.4317209030418977e-15,9.205258728643281e-17,2.2175342046554337e-17,1.9557484055141629e-22,-4.0,0.022668436177286463,-3.6716940163559453e-22,-4.4442961490725725e-20,-7.73386101043205e-20,0.0049231172918049945,0.0,0.0,0.0,2.7815241050891797,8.68012924095847e-16,-4.3330069151555493e-17,-1.1144420645661188e-17,606.8231838858785,606.8231838858788,606.8231838858787,606.8231838858785
0.08,6.717283798723393e-22,-4.0,0.010166063350739442,-2.3881501148053615e-15,1.075667548772163e-16,3.136676797823934e-17,1.9544847878129476e-22,-4.0,0.023945998852614787,-3.669321718600553e-22,3.132737802592624e-21,-2.372382303890141e-19,0.008502247227578676,0.0,0.0,0.0,2.8983993845974063,1.2147578470024035e-15,-2.9222215140617863e-17,-1.1648477810391659e-17,609.6329633463098,609.6329633463104,609.6329633463101,609.6329633463098
0.084,1.4329138628075748e-21,-4.0,0.010234522261771092,-3.568982121308861e-15,1.1275139613093772e-16,4.0225191323350363e-17,1.9531659720717858e-22,-4.0,0.025279368719880478,-3.666845792836356e-22,8.320177746190526e-20,-5.801997008643338e-19,0.01316502114791524,0.0,0.0,0.0,3.0068535666216794,1.5422031585333805e-15,-1.8611812136091675e-17,-1.1636906406316371e-17,612.2287576335688,612.2287576335693,612.2287576335692,612.2287576335688
0.08800000000000001,2.5769262198835582e-21,-4.0,0.01032832254121323,-5.007331878452115e-15,1.1497024918778277e-16,5.138190287550508e-17,1.9517926681445233e-22,-4.0,0.026667828091465066,-3.6642675717327876e-22,1.7179279897489034e-19,-1.210947422633264e-18,0.018810074645401676,0.0,0.0,0.0,3.107611486841057,1.9236630722899623e-15,-1.540612571841461e-17,-1.4685424561539334e-17,614.6305224059786,614.6305224059793,614.6305224059791,614.6305224059786
0.09200000000000001,4.304414737863889e-21,-4.0,0.010450737467373523,-6.707507456945219e-15,9.539170094483484e-17,6.077594531917486e-17,1.9503655793283348e-22,-4.0,0.028110665908779347,-3.661588375649879e-22,2.829352261693008e-19,-2.25500655569487e-18,0.02533945906011536,0.0,0.0,0.0,3.2012366333720994,2.327763334434596e-15,7.228759571777388e-18,-1.3084477508025206e-17,616.8538815590717,616.8538815590724,616.8538815590723,616.8538815590717
0.09600000000000002,6.432943953569603e-21,-4.0,0.010604713132792893,-8.62839293321765e-15,6.91589432068682e-17,7.046903008498075e-17,1.9488854024170846e-22,-4.0,0.02960717768831314,-3.6588095127384424e-22,3.8818936435632425e-19,-3.853100916517099e-18,0.03266710375585193,0.0,0.0,0.0,3.288279467858864,2.701755471366997e-15,1.7962897694403466e-17,-1.3819554542789006e-17,618.9137630406894,618.9137630406904,618.9137630406902,618.9137630406896
0.10000000000000002,8.954155565186163e-21,-4.0,0.01079298957192536,-1.0725500288026738e-14,2.858320526342445e-17,8.420714818852093e-17,1.9473528277542825e-22,-4.0,0.03115666546809575,-3.655932279039484e-22,5.1497445932747475e-19,-6.138233674359724e-18,0.04072249188407771,0.0,0.0,0.0,3.3690551378533473,3.0388901733410787e-15,3.6249115078756393e-17,-1.8942821062034482e-17,620.8192169259105,620.8192169259114,620.8192169259112,620.8192169259104
0.104,1.1351402090755013e-20,-4.0,0.011018074032041783,-1.295112206013455e-14,1.2814522664361223e-17,1.0705431148230879e-16,1.945768539285635e-22,-4.0,0.0327584377545641,-3.652957958582868e-22,5.702969826228228e-19,-9.227198098148229e-18,0.04944706289562971,0.0,0.0,0.0,3.4439396931733803,3.332365797353583e-15,1.5725351315158217e-17,-3.0147756267495564e-17,622.5804933497499,622.5804933497509,622.5804933497507,622.5804933497498
0.108,1.3124261414788853e-20,-4.0,0.011282259638478682,-1.5271975750882398e-14,6.285953627789387e-17,1.3429613878114893e-16,1.9441332146111968e-22,-4.0,0.03441180946983568,-3.649887823485222e-22,5.17938583128173e-19,-1.3217432031054705e-17,0.058785785173532,0.0,0.0,0.0,3.51327880950227,3.595764490157222e-15,-5.413930240140838e-17,-3.621959545802728e-17,624.206910424425,624.2069104244262,624.2069104244259,624.206910424425
0.112,1.4366129631734815e-20,-4.0,0.011587636432805158,-1.773449264076017e-14,1.8090108462314152e-16,1.6516685642742912e-16,1.942447525037126e-22,-4.0,0.036116101899383087,-3.6467231340471028e-22,3.23341642718928e-19,-1.8210732412303355e-17,0.06868537058693329,0.0,0.0,0.0,3.5774026726738257,3.919894677893586e-15,-1.375522811833325e-16,-4.1577348956602054e-17,625.707236038327,625.7072360383281,625.7072360383279,625.7072360383269
0.116,1.558436901903008e-20,-4.0,0.011936094441218207,-2.035044438836459e-14,3.5210029039321007e-16,1.9978356508930752e-16,1.9407121356270425e-22,-4.0,0.037870642640107546,-3.643465138849415e-22,6.84797182067615e-20,-2.4342477623904366e-17,0.07909507748302039,0.0,0.0,0.0,3.6366418015538633,4.267458278332356e-15,-2.1318332266847844e-16,-4.722090845410649e-17,627.0900822263259,627.090082226327,627.0900822263269,627.0900822263256
0.12000000000000001,1.7309684700835605e-20,-4.0,0.012329395224853369,-2.3021062920302226e-14,5.801783500136428e-16,2.352522673555745e-16,1.9389277052529976e-22,-4.0,0.03967476554880827,-3.640115074849101e-22,-2.069598404463576e-19,-3.1725821296783846e-17,0.08997166669316177,0.0,0.0,0.0,3.6911879650283703,4.5101794392795195e-15,-2.9748713793825375e-16,-4.963764377983845e-17,628.3606871997074,628.3606871997087,628.3606871997085,628.3606871997072
0.12400000000000001,2.0575724939074834e-20,-4.0,0.012769135901805414,-2.5676525521235503e-14,8.389249068063441e-16,2.6619565641094297e-16,1.937094886646052e-22,-4.0,0.04152781069104483,-3.636674167474096e-22,-4.460489543852061e-19,-4.03744022021234e-17,0.10127696032839247,0.0,0.0,0.0,3.7413101312105717,4.6751045979126825e-15,-3.6137953123107834e-16,-4.580782001823489e-17,629.5259780789197,629.525978078921,629.5259780789208,629.5259780789195
0.128,2.6350163257898873e-20,-4.0,0.013256806110027792,-2.8273865259065702e-14,1.1235133509716705e-15,2.9090094738916014e-16,1.9352143264464707e-22,-4.0,0.04342912429038967,-3.633143630717562e-22,-6.283926797989142e-19,-5.0234593879014605e-17,0.1129768470946603,0.0,0.0,0.0,3.787166989170927,4.7888194794469506e-15,-4.218362832580805e-16,-3.979136875446392e-17,630.5902184486127,630.5902184486141,630.590218448614,630.5902184486126
0.132,3.560109770849578e-20,-4.0,0.013793756244927307,-3.0783821340923654e-14,1.4387806799146598e-15,3.1175027300393967e-16,1.9332866652535323e-22,-4.0,0.04537805867806792,-3.629524667231401e-22,-7.279277530762023e-19,-6.12411309440439e-17,0.12503920514371544,0.0,0.0,0.0,3.8289852021307684,4.8643910059500496e-15,-4.90540620406307e-16,-3.63014687925374e-17,631.5591670454237,631.5591670454252,631.5591670454249,631.5591670454236
0.136,4.9399466921660884e-20,-4.0,0.014381245095860258,-3.314351350506685e-14,1.7913959936829457e-15,3.288037233608887e-16,1.93131253767496e-22,-4.0,0.04737397224298161,-3.625818468419053e-22,-7.833928974419753e-19,-7.329325192492703e-17,0.13743514019931918,0.0,0.0,0.0,3.866899278383087,4.860559712042537e-15,-5.711662764663255e-16,-3.2723425216993545e-17,632.4363717787517,632.4363717787529,632.4363717787529,632.4363717787514
0.14,6.9226801868474e-20,-4.0,0.015020412364149065,-3.5382089931402914e-14,2.1613744647200654e-15,3.4404629170427725e-16,1.9292925723759742e-22,-4.0,0.049416229382115595,-3.6220262145275906e-22,-7.550981164497097e-19,-8.627942527231313e-17,0.15013726486362372,0.0,0.0,0.0,3.9011025064720504,4.880490288970162e-15,-6.367269325592944e-16,-3.1308296771737025e-17,633.226677314195,633.2266773141962,633.2266773141962,633.2266773141947
0.14400000000000002,9.649254730429577e-20,-4.0,0.015712322919308196,-3.7541561728652163e-14,2.544657376401646e-15,3.6006343136275347e-16,1.9272273921279706e-22,-4.0,0.051504200451322216,-3.6181490747391025e-22,-6.083301622162355e-19,-1.001505809883018e-16,0.16312123243535454,0.0,0.0,0.0,3.931702237092755,4.941196417105276e-15,-6.991840838372377e-16,-3.2839025996430496e-17,633.9328848157649,633.9328848157661,633.9328848157661,633.9328848157646
0.14800000000000002,1.3274033192156642e-19,-4.0,0.016457951097267987,-3.9575338087504396e-14,2.9305145287556444e-15,3.7465020039636912e-16,1.9251176138568265e-22,-4.0,0.053637261716482115,-3.614188207261386e-22,-3.086889206935751e-19,-1.1490537788115816e-16,0.176365083339459,0.0,0.0,0.0,3.958840157536608,4.942087585651698e-15,-7.528279150772156e-16,-3.1825840746653816e-17,634.5585400146238,634.5585400146251,634.5585400146251,634.5585400146235
0.15200000000000002,1.7932699820757573e-19,-4.0,0.017258184939277454,-4.142721435485387e-14,3.3285628442416574e-15,3.859790887108194e-16,1.9229638486908374e-22,-4.0,0.0558147953050383,-3.6101447594179404e-22,1.4493115558529215e-19,-1.30407319918319e-16,0.18984731847270667,0.0,0.0,0.0,3.982652321891225,4.868751407695572e-15,-8.170713727241651e-16,-2.8619099090082613e-17,635.1070134054941,635.1070134054953,635.1070134054953,635.1070134054938
0.15600000000000003,2.3769215939058682e-19,-4.0,0.01811383175884312,-4.3104511027456944e-14,3.744725211959803e-15,3.965255752869132e-16,1.9207667020082873e-22,-4.0,0.05803618915790083,-3.606019867737277e-22,7.163234857039039e-19,-1.4644820229005948e-16,0.20354668979392576,0.0,0.0,0.0,4.003266320215872,4.79152485121213e-15,-8.912587100520114e-16,-2.81703292523174e-17,635.5814401696267,635.5814401696279,635.5814401696279,635.5814401696264
0.16000000000000003,3.0942707135700043e-19,-4.0,0.019025620223844252,-4.455213226865285e-14,4.17642096920526e-15,4.0136483200420166e-16,1.9185267734846553e-22,-4.0,0.06030083698171933,-3.601814658041543e-22,1.3989884327068282e-18,-1.628153426049996e-16,0.21744301894063636,0.0,0.0,0.0,4.020808173141801,4.638022934539907e-15,-9.66751085324955e-16,-2.193645346281076e-17,635.9848834407179,635.9848834407189,635.984883440719,635.9848834407176
0.16400000000000003,3.9628133631438e-19,-4.0,0.01999420028605657,-4.573390833869081e-14,4.612537836630704e-15,4.065150082441576e-16,1.9162446571394615e-22,-4.0,0.06260813820152066,-3.5975302455344687e-22,2.2126828286061313e-18,-1.7924890662793493e-16,0.23151659898246196,0.0,0.0,0.0,4.035406633774967,4.426578690172557e-15,-1.0336296139987593e-15,-2.2498370564813333e-17,636.3204369214628,636.3204369214639,636.3204369214639,636.3204369214625
0.16800000000000004,4.995629307706804e-19,-4.0,0.021020166452062176,-4.6605428098375044e-14,5.088449442760183e-15,4.0872534960793483e-16,1.913920941382753e-22,-4.0,0.06495749791370911,-3.5931677348886397e-22,3.13086226679275e-18,-1.953939428136696e-16,0.24574999586968355,0.0,0.0,0.0,4.047145817780218,4.145094996383193e-15,-1.1385754006607827e-15,-1.9275659832557257e-17,636.5901400865897,636.5901400865906,636.5901400865907,636.5901400865894
0.172,6.208713358198794e-19,-4.0,0.022104050178031236,-4.716217206272068e-14,5.620448022493704e-15,4.092822921081167e-16,1.9115562090612353e-22,-4.0,0.0673483268394264,-3.588728220332105e-22,4.0612273913215744e-18,-2.1090613777557385e-16,0.2601277496328721,0.0,0.0,0.0,4.056127124625408,3.837117691092171e-15,-1.2699162714514489e-15,-1.743499069558176e-17,636.7964049748944,636.7964049748952,636.7964049748954,636.796404974894
0.176,7.621173163363823e-19,-4.0,0.0232463205228588,-4.7362026910687125e-14,6.215906086798448e-15,4.08367777398681e-16,1.9091510375040496e-22,-4.0,0.06978004127826888,-3.5842127857343165e-22,4.872193267285267e-18,-2.2543574372381e-16,0.2746345079929688,0.0,0.0,0.0,4.062452719069814,3.458438180928723e-15,-1.418839314871763e-15,-1.5738964292080522e-17,636.9416386249655,636.9416386249662,636.9416386249665,636.9416386249651
0.18,9.260074509617997e-19,-4.0,0.024447381338752947,-4.722343109422305e-14,6.826834555196583e-15,4.0477375899055197e-16,1.9067059985681999e-22,-4.0,0.07225206306235923,-3.579622504691415e-22,5.7162743028744645e-18,-2.386359740269646e-16,0.2892543512706007,0.0,0.0,0.0,4.066232537158349,3.076884924080081e-15,-1.5271252803480412e-15,-1.2571325782335183e-17,637.0284062501295,637.02840625013,637.0284062501304,637.028406250129
0.184,1.1148820274594805e-18,-4.0,0.025707592354807563,-4.678762945947118e-14,7.45107795832094e-15,3.939772991129374e-16,1.904221658683632e-22,-4.0,0.07476381951077025,-3.5749584406108592e-22,6.695905045910738e-18,-2.5027700086444635e-16,0.3039731819894181,0.0,0.0,0.0,4.067535884110652,2.720350550974031e-15,-1.6321595597450963e-15,-4.010151689946454e-18,637.0583224948462,637.0583224948465,637.0583224948468,637.0583224948457
0.188,1.3319853741370618e-18,-4.0,0.027027262628728517,-4.6031015302139855e-14,8.003666389537792e-15,3.761966751243594e-16,1.9016985788979661e-22,-4.0,0.07731474338429796,-3.5702216467954084e-22,8.065035379539943e-18,-2.601804649442074e-16,0.3187784062465157,0.0,0.0,0.0,4.0664468409494265,2.315926225629765e-15,-1.651613575739933e-15,4.591795365757801e-18,637.0333253474072,637.0333253474075,637.0333253474079,637.0333253474068
0.192,1.5798240954537955e-18,-4.0,0.028406648582129105,-4.498601490593439e-14,8.452810556648867e-15,3.619247612720073e-16,1.8991373149208881e-22,-4.0,0.07990427284058149,-3.565413166526458e-22,1.0115332952890867e-17,-2.681522121887563e-16,0.33365761511485353,0.0,0.0,0.0,4.06305517030696,1.9274292009600974e-15,-1.6234290780564079e-15,1.2231983274572703e-18,636.9554689879136,636.9554689879138,636.9554689879142,636.9554689879133
0.196,1.859920865686064e-18,-4.0,0.029845958480508528,-4.369695647217108e-14,8.825792377524266e-15,3.50001019868931e-16,1.8965384171681978e-22,-4.0,0.08253185138956737,-3.5605340331467404e-22,1.2978569067294534e-17,-2.7403133421819175e-16,0.34859805291785617,0.0,0.0,0.0,4.057443298967123,1.570975117937532e-15,-1.6109574709077165e-15,-9.337860959816056e-19,636.8266266508381,636.8266266508382,636.8266266508385,636.8266266508376
0.2,2.1735199509191417e-18,-4.0,0.03134535280342165,-4.226579649778445e-14,9.144765638794311e-15,3.3076486264853007e-16,1.8939024308055218e-22,-4.0,0.08519692784931536,-3.555585270142386e-22,1.6471236131602565e-17,-2.7794109649289346e-16,0.3635875814723126,0.0,0.0,0.0,4.049694515462594,1.3168896718622427e-15,-1.617498632105515e-15,8.097900695981172e-18,636.6486803241954,636.6486803241954,636.6486803241958,636.648680324195
0.20400000000000001,2.5220725263491624e-18,-4.0,0.03290494913792906,-4.071771649736281e-14,9.390398599863663e-15,3.0121944417207435e-16,1.8912298957916889e-22,-4.0,0.08789895630214382,-3.550567891224359e-22,2.0518483367861166e-17,-2.801036813633185e-16,0.37861471558476373,0.0,0.0,0.0,4.039883777695085,1.0824922557308628e-15,-1.6015620985064204e-15,2.093064818522733e-17,636.4233110362604,636.4233110362604,636.4233110362609,636.4233110362601
0.20800000000000002,2.906931083879139e-18,-4.0,0.034524827015711405,-3.912511435917719e-14,9.525808743710846e-15,2.661670369086921e-16,1.8885213469217735e-22,-4.0,0.09063739605111147,-3.5454829004092643e-22,2.526606735410412e-17,-2.8080970935871927e-16,0.39366900908400715,0.0,0.0,0.0,4.028077670751698,9.246409304338873e-16,-1.5379578638099791e-15,2.8576913499339714e-17,636.1519988829027,636.1519988829027,636.1519988829031,636.1519988829024
0.21200000000000002,3.3285650773164556e-18,-4.0,0.036205025588397,-3.7518355637498156e-14,9.56280914991544e-15,2.231274109973617e-16,1.8857773138698078e-22,-4.0,0.09341171157683367,-3.540331292099536e-22,3.081385816446935e-17,-2.802918476613532e-16,0.40874057108675965,0.0,0.0,0.0,4.014348787133246,7.992039172003568e-16,-1.4718206035150003e-15,3.934661417961972e-17,635.8363544623195,635.8363544623195,635.8363544623198,635.8363544623194
0.21600000000000003,3.78697210192371e-18,-4.0,0.03794554001354304,-3.5949955180876645e-14,9.519182249089712e-15,1.7552138529037611e-16,1.8829983212311665e-22,-4.0,0.09622137249463043,-3.5351140511630082e-22,3.7122883635573154e-17,-2.788479164098885e-16,0.42381909096428155,0.0,0.0,0.0,3.998778417089691,7.341221331505612e-16,-1.4149947483978873e-15,4.644823841620023e-17,635.4781822004092,635.4781822004092,635.4781822004096,635.478182200409
0.22000000000000003,4.282017901581263e-18,-4.0,0.03974633860918457,-3.445232600199663e-14,9.393446085653128e-15,1.2677382541729092e-16,1.8801848885646245e-22,-4.0,0.09906585351200382,-3.5298321530118776e-22,4.406638379368764e-17,-2.7678826066254384e-16,0.4388952493273105,0.0,0.0,0.0,3.9814145131799252,7.095131032316819e-16,-1.3497734383968775e-15,4.973658910301114e-17,635.0785142229546,635.0785142229546,635.078514222955,635.0785142229545
0.22400000000000003,4.813762408631785e-18,-4.0,0.04160734568260755,-3.3026243053755923e-14,9.133769363236508e-15,8.188152680469359e-17,1.8773375304340927e-22,-4.0,0.1019446343864423,-3.524486563681052e-22,5.174680930989245e-17,-2.7436911991897365e-16,0.45396015247908467,0.0,0.0,0.0,3.9623408075715645,6.906485187677862e-16,-1.220951301667596e-15,4.72347676640958e-17,634.6392013548418,634.6392013548418,634.6392013548423,634.6392013548416
0.22800000000000004,5.381225979220964e-18,-4.0,0.04352845050070985,-3.169393593789751e-14,8.74529188275591e-15,3.856115798912796e-17,1.8744567564500316e-22,-4.0,0.1048571998835496,-3.5190782399059037e-22,6.035623879435099e-17,-2.717630787257063e-16,0.4690042827198912,0.0,0.0,0.0,3.941624304161918,7.026346613859106e-16,-1.0772973653169947e-15,4.72419290124896e-17,634.1617061621478,634.1617061621478,634.1617061621481,634.1617061621477
0.23200000000000004,5.982469096143554e-18,-4.0,0.04550951220452459,-3.049760311764271e-14,8.276067235519551e-15,-1.5417125890792987e-18,1.871543071310547e-22,-4.0,0.10780303973549582,-3.5136081291994207e-22,6.982644831767578e-17,-2.6920420663782423e-16,0.4840189971291646,0.0,0.0,0.0,3.9193232234848967,7.703099304519032e-16,-9.693341115333383e-16,4.526225772163771e-17,633.6472858489412,633.6472858489412,633.6472858489416,633.6472858489411
0.23600000000000004,6.615674021409975e-18,-4.0,0.04755035944788936,-2.9473458315426477e-14,7.727609090462737e-15,-3.7609051589977376e-17,1.8685969748421692e-22,-4.0,0.1107816485997882,-3.508077169928764e-22,7.987736538211917e-17,-2.670568340111122e-16,0.4989965331037974,0.0,0.0,0.0,3.8954975529408378,8.895713812808294e-16,-8.577926886558905e-16,4.219487331107803e-17,633.0972359037391,633.0972359037393,633.0972359037395,633.097235903739
0.24000000000000005,7.27851920069957e-18,-4.0,0.04965076931473397,-2.864218903225101e-14,7.12136126390149e-15,-7.067409016898312e-17,1.8656189620403175e-22,-4.0,0.11379252601835949,-3.502486291391238e-22,9.033001901314752e-17,-2.657407245002794e-16,0.5139273411757017,0.0,0.0,0.0,3.8702511121701524,1.044764922355882e-15,-7.588441687208616e-16,4.016875437007093e-17,632.513863456299,632.5138634562991,632.5138634562993,632.5138634562988
0.24400000000000005,7.968581459523649e-18,-4.0,0.05181050121055833,-2.7986857882665703e-14,6.465424749204188e-15,-9.907225636491943e-17,1.8626095231094547e-22,-4.0,0.11683517637697124,-3.496836413889672e-22,1.0108585637637734e-16,-2.655313615544252e-16,0.5288025074427951,0.0,0.0,0.0,3.843620653678907,1.193369415247717e-15,-6.626217357160451e-16,3.607486805122471e-17,631.8979266806416,631.897926680642,631.8979266806421,631.8979266806416
0.24800000000000005,8.683340128912624e-18,-4.0,0.054029307400920504,-2.7497950616562453e-14,5.7583481754156174e-15,-1.2417858157725248e-16,1.8595691435029302e-22,-4.0,0.1199091088649301,-3.491128448807225e-22,1.1204493171348166e-16,-2.665589673714559e-16,0.5436172974945821,0.0,0.0,0.0,3.8156221771369268,1.3428948769837557e-15,-5.584659419948508e-16,3.339559905036981e-17,631.2497008711437,631.249700871144,631.2497008711441,631.2497008711437
0.25200000000000006,9.420071710971317e-18,-4.0,0.05630690180019529,-2.710971457211873e-14,5.000107067074053e-15,-1.468925682124968e-16,1.8564983039625178e-22,-4.0,0.1230138374351143,-3.4853632986816103e-22,1.2319822728795757e-16,-2.687227819813258e-16,0.5583667497873368,0.0,0.0,0.0,3.786335324581171,1.4270192852923445e-15,-4.466117602899245e-16,3.1631917522318726e-17,630.5709332704848,630.5709332704853,630.5709332704854,630.5709332704849
0.256,1.0175764668005803e-17,-4.0,0.05864298539784364,-2.6770406633101025e-14,4.200338023425437e-15,-1.685464897482053e-16,1.853397480557648e-22,-4.0,0.1261488807643086,-3.47954185727875e-22,1.3450663386431317e-16,-2.716860631521143e-16,0.5730447933071029,0.0,0.0,0.0,3.755789428149046,1.4576057174272375e-15,-3.3715210389758777e-16,3.13263049752907e-17,629.86220608773,629.8622060877304,629.8622060877304,629.86220608773
0.26,1.0947175657416553e-17,-4.0,0.061037232896553335,-2.649256035121288e-14,3.3760721569976534e-15,-1.9157306724327371e-16,1.8502671447243363e-22,-4.0,0.1293137622138451,-3.4736650096658626e-22,1.458539035745675e-16,-2.750909389985706e-16,0.5876459058795358,0.0,0.0,0.0,3.7240414200983327,1.5061738038409378e-15,-2.3976842573588085e-16,3.3818965633942615e-17,629.1247413101823,629.1247413101828,629.1247413101829,629.1247413101825
0.264,1.1730937714013766e-17,-4.0,0.06348927939913787,-2.6265060384014328e-14,2.5465285097933128e-15,-2.1500083098504888e-16,1.8471077633038143e-22,-4.0,0.13250800979054744,-3.4677336322839815e-22,1.5707828609349872e-16,-2.788624381838564e-16,0.6021627609070116,0.0,0.0,0.0,3.6911761592919516,1.5459650387000234e-15,-1.5921742984488867e-16,3.523316172787626e-17,628.3604124734283,628.3604124734288,628.3604124734288,628.3604124734285
0.268,1.252368562474847e-17,-4.0,0.06599872014919368,-2.6102027861326238e-14,1.7279066478510748e-15,-2.369530907399438e-16,1.8439197985808597e-22,-4.0,0.1357311561079769,-3.461748593019921e-22,1.6796316567737286e-16,-2.830594719352133e-16,0.616586049359271,0.0,0.0,0.0,3.6572803623273242,1.6056887747509234e-15,-9.461319744414026e-17,3.447156087355491e-17,627.5711419093681,627.5711419093686,627.5711419093686,627.5711419093682
0.272,1.3322258454160197e-17,-4.0,0.06856515632016358,-2.6072250776045814e-14,9.209589789321303e-16,-2.600152998366066e-16,1.8407037083218316e-22,-4.0,0.1389827383479773,-3.4557107512776803e-22,1.7837346612904903e-16,-2.8791306826487147e-16,0.6309098993596016,0.0,0.0,0.0,3.622349155357303,1.7501469153709626e-15,-3.1353923546663006e-17,3.66695894094872e-17,626.7567216837285,626.7567216837291,626.7567216837291,626.7567216837286
0.276,1.4123719420279326e-17,-4.0,0.0711881561218058,-2.6184665677642383e-14,1.1017785106836975e-16,-2.817459395586663e-16,1.8374599458124122e-22,-4.0,0.1422622982225172,-3.4496209580493005e-22,1.8834170137787118e-16,-2.939303812454948e-16,0.6451306885273775,0.0,0.0,0.0,3.5864564784908346,1.914152877227207e-15,4.912643607303367e-17,3.606111610619471e-17,625.918780968676,625.9187809686766,625.9187809686766,625.9187809686761
0.28,1.4924810850395508e-17,-4.0,0.07386730182576323,-2.6400900145415687e-14,-6.874282576055641e-16,-2.990937924762051e-16,1.8341889598950567e-22,-4.0,0.1455693819358266,-3.4434800559851715e-22,1.9787721853432832e-16,-3.013976504472641e-16,0.6592461154678084,0.0,0.0,0.0,3.5495819509682063,2.0430735456643207e-15,1.1611272206662154e-16,3.1833659839336124e-17,625.0567483921185,625.0567483921193,625.0567483921192,625.0567483921187
0.28400000000000003,1.5722355994691045e-17,-4.0,0.07660213228333897,-2.661310916126108e-14,-1.4574345240084613e-15,-3.1388944822658385e-16,1.830891195006153e-22,-4.0,0.1489035401468266,-3.437288879463797e-22,2.0689438767703554e-16,-3.0994647257138583e-16,0.6732520734169883,0.0,0.0,0.0,3.511821471687492,2.053159520880295e-15,1.6707482141129513e-16,2.956465041637493e-17,624.1727707346001,624.1727707346008,624.1727707346008,624.1727707346002
0.28800000000000003,1.6513137906369377e-17,-4.0,0.07939214221581813,-2.6757027715888195e-14,-2.171453260563315e-15,-3.2626496422154816e-16,1.8275670912128962e-22,-4.0,0.15226432793184932,-3.4310482546610176e-22,2.1513729606579814e-16,-3.1871690785218744e-16,0.6871404242596483,0.0,0.0,0.0,3.4732738304192474,1.9879258928421253e-15,1.8609741729707005e-16,2.734510351029069e-17,623.2690723009252,623.269072300926,623.2690723009259,623.2690723009255
0.29200000000000004,1.7294531156107067e-17,-4.0,0.0822368150759061,-2.6865177834123933e-14,-2.8390140296810813e-15,-3.3436599642267433e-16,1.8242170842498748e-22,-4.0,0.1556513047476462,-3.4247589996187043e-22,2.2247255368249355e-16,-3.2700212159419057e-16,0.7009027484727579,0.0,0.0,0.0,3.4339725968898165,1.9559994230585466e-15,2.0822068300944443e-16,2.286001082007166e-17,622.3463559189266,622.3463559189273,622.3463559189272,622.3463559189267
0.29600000000000004,1.8063706651499003e-17,-4.0,0.08513563379843435,-2.702247018665295e-14,-3.4302101333284276e-15,-3.4202405168938724e-16,1.8208416055553766e-22,-4.0,0.15906403439468264,-3.418421924312912e-22,2.287491286828797e-16,-3.3498056237589386e-16,0.7145361686385062,0.0,0.0,0.0,3.3939299467677047,2.020779963704556e-15,1.9684766179523853e-16,2.2675199963567612e-17,621.4048233764182,621.404823376419,621.4048233764189,621.4048233764184
0.30000000000000004,1.8818055306855228e-17,-4.0,0.08808804479807025,-2.718275831246094e-14,-3.909853206997395e-15,-3.5427701203303103e-16,1.8174410823074123e-22,-4.0,0.16250208498071642,-3.4120378307215144e-22,2.3373494586208026e-16,-3.431558699306225e-16,0.7280367853778793,0.0,0.0,0.0,3.353231204344687,2.03503424939825e-15,1.3902612795700386e-16,2.8357241883294876e-17,620.4463998874843,620.4463998874849,620.4463998874849,620.4463998874843
0.30400000000000005,1.9555486530893218e-17,-4.0,0.0910934855909119,-2.7255604819981397e-14,-4.254290999938899e-15,-3.6870473769819133e-16,1.8140159374594606e-22,-4.0,0.16596502888465847,-3.4056075128913072e-22,2.3697695841817573e-16,-3.512748582071938e-16,0.741399519376318,0.0,0.0,0.0,3.3119068640910947,1.943886721198246e-15,4.218688129829147e-17,3.1400859466809994e-17,619.4717268596245,619.4717268596252,619.4717268596252,619.4717268596246
0.30800000000000005,2.027480486338848e-17,-4.0,0.09415140201791983,-2.725455095401041e-14,-4.47759108265834e-15,-3.8308257912111935e-16,1.8105665897759356e-22,-4.0,0.1694524427207134,-3.399131757004599e-22,2.3836754487399733e-16,-3.5866012109003397e-16,0.754622651576109,0.0,0.0,0.0,3.2699528128327064,1.862572277952775e-15,-5.603794710106781e-17,3.19350374444016e-17,618.4806302242324,618.480630224233,618.480630224233,618.4806302242325
0.31200000000000006,2.0975022340155272e-17,-4.0,0.09726121932363102,-2.720105482573683e-14,-4.569402523535653e-15,-3.940569338754485e-16,1.807093453867381e-22,-4.0,0.17296390730279768,-3.3926113414452785e-22,2.378942172976462e-16,-3.6503985850100926e-16,0.7677048999994579,0.0,0.0,0.0,3.2274234315595063,1.8012616834672434e-15,-1.7591687626971482e-16,2.854962908132954e-17,617.4743186864133,617.4743186864139,617.4743186864139,617.4743186864134
0.31600000000000006,2.165621153478888e-17,-4.0,0.1004223260170678,-2.7125138851029375e-14,-4.573943882982221e-15,-4.0722435336919465e-16,1.80359694022539e-22,-4.0,0.17649900760923407,-3.386047036864378e-22,2.3573184481261906e-16,-3.7061650836455155e-16,0.7806407001329132,0.0,0.0,0.0,3.1844065752428232,1.7714231103133678e-15,-2.6453685795554166e-16,3.156211963507763e-17,616.4548016586679,616.4548016586683,616.4548016586684,616.454801658668
0.32,2.231857505948941e-17,-4.0,0.10363409913959902,-2.7125458608918565e-14,-4.512283364400199e-15,-4.203483108380778e-16,1.800077455257255e-22,-4.0,0.18005733274771923,-3.3794396062451215e-22,2.322697879851381e-16,-3.7595227891297123e-16,0.7934238195477366,0.0,0.0,0.0,3.140940050829223,1.8552547305957602e-15,-3.3594329250610854e-16,3.2052047567133763e-17,615.422911797081,615.4229117970815,615.4229117970816,615.422911797081
0.324,2.2962420946820515e-17,-4.0,0.10689590660280482,-2.7249771876733312e-14,-4.390316458771269e-15,-4.3052530711046307e-16,1.796535401320348e-22,-4.0,0.1836384759205637,-3.372789804967471e-22,2.2784712882776603e-16,-3.819758956254604e-16,0.8060506372318781,0.0,0.0,0.0,3.0970573480417003,2.0000678348804475e-15,-4.0623513555570987e-16,2.914844465133263e-17,614.3793838190593,614.3793838190599,614.37938381906,614.3793838190593
0.328,2.358850706350672e-17,-4.0,0.11020710753986701,-2.7409379536818222e-14,-4.235738667683361e-15,-4.4106073170764195e-16,1.7929711767562365e-22,-4.0,0.1872420343902009,-3.3660983808721733e-22,2.2270466254620955e-16,-3.8919161347301435e-16,0.8185188953358151,0.0,0.0,0.0,3.0527915959255045,2.049783076285303e-15,-4.53655605837006e-16,2.998504767216109e-17,613.3249481520678,613.3249481520684,613.3249481520685,613.3249481520679
0.332,2.419748717128652e-17,-4.0,0.1135670526924715,-2.7616863943410438e-14,-4.05190952780389e-15,-4.461784670077264e-16,1.789385175924531e-22,-4.0,0.19086760944496442,-3.359366074324308e-22,2.1706483353049096e-16,-3.973258326495636e-16,0.8308264244718631,0.0,0.0,0.0,3.0081754790702657,2.1166046546219503e-15,-4.986531654015548e-16,2.408895015929511e-17,612.2603290307575,612.2603290307582,612.2603290307582,612.2603290307575
0.336,2.4790501798837853e-17,-4.0,0.11697508482229717,-2.7881092825228872e-14,-3.8798154193096434e-15,-4.401665322716991e-16,1.7857777892364728e-22,-4.0,0.19451480636513074,-3.3525936182763414e-22,2.112571240807144e-16,-4.0612828012999695e-16,0.8429711532275854,0.0,0.0,0.0,2.9632411748749323,2.1970552925620036e-15,-5.038647343249722e-16,1.1297888156872191e-17,611.186243067639,611.1862430676396,611.1862430676397,611.186243067639
0.34,2.536848553097508e-17,-4.0,0.12043053914139662,-2.820948486572238e-14,-3.740932248498549e-15,-4.311064596488103e-16,1.7821494031882587e-22,-4.0,0.19818323438922594,-3.3457817383306924e-22,2.0564368215557714e-16,-4.157588443550342e-16,0.8549511140691413,0.0,0.0,0.0,2.9180203015899853,2.290049289324977e-15,-4.816124240937261e-16,7.490313574254446e-18,610.1033980567602,610.1033980567609,610.1033980567609,610.1033980567602
0.34400000000000003,2.5932016514375344e-17,-4.0,0.12393274375661481,-2.866784840059778e-14,-3.632237324516712e-15,-4.1597527385916022e-16,1.7785004003941085e-22,-4.0,0.20187250668059398,-3.338931152801811e-22,2.0054487747393826e-16,-4.265603332722684e-16,0.8667644477867233,0.0,0.0,0.0,2.872543875610253,2.46427744063853e-15,-4.571195832119377e-16,2.625949613649376e-20,609.0124919765103,609.012491976511,609.012491976511,609.0124919765103
0.34800000000000003,2.6481516753172533e-17,-4.0,0.12748102659229868,-2.929205366336303e-14,-3.5474550666588474e-15,-4.011685561298659e-16,1.7748311596190739e-22,-4.0,0.2055822402942251,-3.3320425727777757e-22,1.9598185874845484e-16,-4.392031671571096e-16,0.8784100536063709,0.0,0.0,0.0,2.8268291490160253,2.6892801847801825e-15,-4.3643502609689586e-16,-2.1604381532814236e-19,607.9138963988412,607.913896398842,607.913896398842,607.9138963988412
0.35200000000000004,2.7017307216805126e-17,-4.0,0.13107472594732666,-3.000087212726019e-14,-3.4795959440655153e-15,-3.798294488814967e-16,1.7711420558115932e-22,-4.0,0.20931205614384205,-3.325116702181409e-22,1.9183646709556886e-16,-4.54080759350095e-16,0.8898886010970719,0.0,0.0,0.0,2.7808720124581052,2.830770397466873e-15,-4.213378298193492e-16,-8.454917346490974e-18,606.8074705359049,606.8074705359057,606.8074705359057,606.8074705359048
0.35600000000000004,2.7539731634868595e-17,-4.0,0.13471313495014714,-3.071121508818962e-14,-3.4305673663925424e-15,-3.560022813488373e-16,1.7674334601357932e-22,-4.0,0.2130615789692424,-3.31815423783092e-22,1.880407024942926e-16,-4.705716845617259e-16,0.9011969306897518,0.0,0.0,0.0,2.734780813134651,2.8810212900094507e-15,-4.032780413457368e-16,-1.2237615732794318e-17,605.6957871295602,605.6957871295612,605.695787129561,605.6957871295601
0.36000000000000004,2.8049098112779746e-17,-4.0,0.13839553526041784,-3.137910835358873e-14,-3.405143465609412e-15,-3.3263401472838554e-16,1.763705740003538e-22,-4.0,0.2168304373038951,-3.311155869500075e-22,1.8458310434169448e-16,-4.875601510126726e-16,0.9123292911534436,0.0,0.0,0.0,2.688596997710377,2.8800263420151297e-15,-3.7811892117070623e-16,-1.2679965196832156e-17,604.5798196035427,604.5798196035435,604.5798196035435,604.5798196035425
0.36400000000000005,2.854619074953207e-17,-4.0,0.1421212278390804,-3.1965747524920173e-14,-3.463242381452519e-15,-3.21248378982641e-16,1.7599592591062296e-22,-4.0,0.22061826344278898,-3.304122279977898e-22,1.817982509057973e-16,-5.041157313492238e-16,0.9232839781155633,0.0,0.0,0.0,2.642299987158888,2.8308154298499667e-15,-2.8707528818980466e-16,3.58068133036341e-19,603.4590455435865,603.4590455435873,603.4590455435873,603.4590455435865
0.36800000000000005,2.903101357150856e-17,-4.0,0.14588950905208353,-3.2433482935354475e-14,-3.6118475186157055e-15,-3.1215698466667726e-16,1.7561943774463611e-22,-4.0,0.22442469341053223,-3.297054145127908e-22,1.8015169849829314e-16,-5.195986673651624e-16,0.9340629270334577,0.0,0.0,0.0,2.595917141537894,2.732083434317386e-15,-1.736282231672544e-16,2.5705759548344578e-18,602.3341023141938,602.3341023141945,602.3341023141945,602.3341023141937
0.37200000000000005,2.950325140535806e-17,-4.0,0.14969967780845703,-3.2706537996067205e-14,-3.8583493707460614e-15,-3.101549779293037e-16,1.752411451368823e-22,-4.0,0.22824936692969977,-3.289952133946893e-22,1.799883821656817e-16,-5.331822701721707e-16,0.9446663900587154,0.0,0.0,0.0,2.549461536562077,2.536733739901707e-15,-4.1548207922539817e-17,1.0478781673705679e-17,601.2052845351639,601.2052845351647,601.2052845351645,601.2052845351639
0.37600000000000006,2.9962827567296226e-17,-4.0,0.15355105294977983,-3.278111644200576e-14,-4.267036406992205e-15,-3.2028974254228937e-16,1.7486108335919662e-22,-4.0,0.23209192738942783,-3.282816908623228e-22,1.8164463548889295e-16,-5.439909904720583e-16,0.955096392708102,0.0,0.0,0.0,2.5029109301769332,2.346471790676465e-15,1.6624204812777496e-16,2.4595894437167904e-17,600.0720283557305,600.0720283557314,600.0720283557313,600.0720283557307
0.38000000000000006,1.73155457383283e-11,-3.999999999982684,0.15744294498284825,1.6870556358211267e-06,-1.687046510880021e-06,-6.988699049565402e-07,1.7447928732384223e-22,-4.0,0.23595202181425312,-3.275649124594737e-22,5.579657276158412e-09,5.579713310019283e-09,0.9653545579570568,0.0,0.0,0.0,2.4562998688634243,-1.7682480824230595e-06,1.7682421766891034e-06,8.163905608189694e-07,598.9339062261147,598.9339062244156,598.9358890036581,598.9369065203551
0.38400000000000006,1.091564806815939e-10,-3.9999999998908393,0.16137464591793177,1.1066174798679427e-05,-1.1065880494943425e-05,-1.9252739167180966e-06,1.7409579158656844e-22,-4.0,0.2398293008331952,-3.2684494306061022e-22,6.261449186761901e-08,6.26159440629828e-08,0.9754389114275165,0.0,0.0,0.0,2.409683842717971,-1.0185718591525285e-05,1.018542501342998e-05,1.4613804543738206e-06,597.7937579085451,597.7937578239157,597.7952901694936,597.8011625011118
0.388,2.394253036392346e-10,-3.999999999760561,0.16534541142534906,2.717646283047566e-05,-2.7175190940000854e-05,-3.407194628817364e-06,1.737106303496448e-22,-4.0,0.24372341864907993,-3.2612184687658294e-22,2.1894903265869503e-07,2.1895726794543428e-07,0.9853433722645537,0.0,0.0,0.0,2.3631551990806097,-1.905229917291658e-05,1.9051208247456972e-05,1.8103588699055553e-06,596.6540258753114,596.6540255602304,596.6540693364739,596.6650742878174
0.392,3.430136891590472e-10,-3.999999999656956,0.1693544974520466,4.863007225010961e-05,-4.862686517798233e-05,-5.075090031111285e-06,1.7332383746487166e-22,-4.0,0.24763403300810272,-3.2539568746027643e-22,4.864417807393591e-07,4.864680567918956e-07,0.995063249766929,0.0,0.0,0.0,2.3167331835561877,-2.7137118703701234e-05,2.7134856718048813e-05,2.088697016464572e-06,595.5148391751137,595.5148385205575,595.5133975307288,595.5291021767242
0.396,3.5413064031083757e-10,-3.9999999996803783,0.17340120266359144,7.250371285611786e-05,-7.586422558323477e-05,-7.569738843240148e-06,1.7293544643656707e-22,-4.0,0.251560805169629,-3.24666527712217e-22,8.444963020801228e-07,8.331184833772755e-07,1.0046008599047522,0.0,0.0,0.0,2.2703509494847807,-3.265379563622608e-05,3.61788395546118e-05,3.1233191941083526e-06,594.372773356795,594.3737953665384,594.3729112961711,594.3928674977536
0.4,2.3277111164126902e-10,-3.9999999999852074,0.17748480899178182,9.162862019719647e-05,-0.00011370505320490346,-1.0668093300566429e-05,1.7254549042453042e-22,-4.0,0.2555033998762308,-3.239344298861367e-22,1.316139502190109e-06,1.1872873908031154e-06,1.0139601690796471,0.0,0.0,0.0,2.2240610006354413,-3.06963141674085e-05,5.101895411336442e-05,3.931509626958028e-06,593.2292050003173,593.2351084412624,593.2324020557135,593.2561387066393
0.404,-1.6312016879722385e-10,-4.000000000642641,0.1816046070863111,0.00010587009732337949,-0.00016013653457372392,-1.4055938572526509e-05,1.7215400224698294e-22,-4.0,0.2594614853239578,-3.231994555944934e-22,1.9287683870717063e-06,1.47694385574394e-06,1.023141449694556,0.0,0.0,0.0,2.1778647718895554,-2.7433563552532456e-05,6.548473280716831e-05,4.397653853407279e-06,592.0861349751322,592.0972095952592,592.0917268813828,592.1187697097922
0.40800000000000003,-1.0102200990452167e-09,-4.000000001700961,0.1857598611773336,0.00011558876111359253,-0.00021277137804707262,-1.762232184725099e-05,1.7176101438348512e-22,-4.0,0.26343473313284044,-3.2246166581394843e-22,2.6744856010071754e-06,1.668631916726867e-06,1.0321424655026408,0.0,0.0,0.0,2.131834783951403,-2.4065924211775335e-05,7.830850733278892e-05,4.746311591279665e-06,590.9453731778451,590.9611906470972,590.9530363456546,590.982888614922
0.41200000000000003,-2.505342103210511e-09,-4.000000003192284,0.189949842098199,0.00012112447096156192,-0.00026941896773290586,-2.127717334428394e-05,1.7136655897783147e-22,-4.0,0.2674228183176237,-3.2172112089080073e-22,3.507137603800331e-06,1.7705189841518832e-06,1.0409612119184328,0.0,0.0,0.0,2.0859774309433448,-2.065114205829268e-05,8.942395568542307e-05,4.997333908303247e-06,589.8070788869252,589.8271720911733,589.8165324744427,589.848692033322
0.41600000000000004,-4.857432789296898e-09,-4.000000005133883,0.1941738398456369,0.00012280436696854064,-0.00032809282860754335,-2.4943453959049833e-05,1.7097066784092246e-22,-4.0,0.27142541925873015,-3.209778805463787e-22,4.384218937332115e-06,1.7906382199098069e-06,1.049599166202196,0.0,0.0,0.0,2.040273456291608,-1.7197357595402333e-05,9.88492847114351e-05,5.162250315665454e-06,588.6707687185599,588.6946707567616,588.6817636605779,588.7157331681427
0.42000000000000004,-8.280963529541212e-09,-4.0000000075292315,0.1984311264594108,0.00012096129602026056,-0.00038694161305353504,-2.855751902891321e-05,1.705733724536141e-22,-4.0,0.27544221767345,-3.202320038823901e-22,5.267064786048685e-06,1.7368272806353945e-06,1.0580572229428757,0.0,0.0,0.0,1.9947783792499727,-1.3731087521170686e-05,0.00010654453992437295,5.253544963973422e-06,587.5378262467451,587.565047920157,587.5501430517572,587.5854182483338
0.42400000000000004,-1.2989004838862483e-08,-4.0000000103695275,0.20272099183981976,0.00011591906354357818,-0.0004443030970544926,-3.206660183659418e-05,1.7017470396954509e-22,-4.0,0.27947289858735697,-3.1948354938622957e-22,6.1207024330479306e-06,1.6167915570572227e-06,1.0663357114120775,0.0,0.0,0.0,1.9494756493066778,-1.0268521034198688e-05,0.00011253171779578877,5.281307913543618e-06,586.4078417181817,586.4378926713933,586.4212863041782,586.4573712375775
0.42800000000000005,-1.9170787776382622e-08,-4.000000013651549,0.2070427042283242,0.00010636731361928864,-0.0005002963071554187,-3.6122393125439426e-05,1.69774693217942e-22,-4.0,0.28351715030594793,-3.187325749362451e-22,6.919455989872635e-06,1.432347767694963e-06,1.0744338700836926,0.0,0.0,0.0,1.9044284012873445,-5.119140703474193e-06,0.0001185172606104471,6.066282773780514e-06,585.2806278720578,585.3140150031376,585.298065940689,585.3344662896142
0.43200000000000005,-2.6964073561976935e-08,-4.000000017401336,0.21139553813546122,8.678580537650842e-05,-0.0005594166063068049,-4.051191598082573e-05,1.693733707064023e-22,-4.0,0.28757466438650475,-3.1797913780696267e-22,7.684217491728386e-06,1.1422235623136878e-06,1.0823505519922725,0.0,0.0,0.0,1.8596438294379858,6.4452511384666935e-06,0.00012928039553833696,6.625199676901855e-06,584.156516866658,584.1965544259938,584.1791487068006,584.2153824252586
0.43600000000000005,-3.656279254853024e-08,-4.000000021529848,0.21577877054796005,6.004221502892401e-05,-0.0006211825446710531,-4.5631733469748795e-05,1.6897076662365565e-22,-4.0,0.291645135610177,-3.172232946742706e-22,8.448065259765517e-06,7.080642869403281e-07,1.0900858178104234,0.0,0.0,0.0,1.8151366745493416,1.667154515417076e-05,0.0001405333182214372,7.661375489294636e-06,583.0365732938736,583.0830358029975,583.0655193986926,583.1021257197972
0.44000000000000006,-4.812854309362864e-08,-4.0000000258749955,0.2201917010115771,3.3538076932150784e-05,-0.0006890477812871605,-5.121581376224762e-05,1.6856691084230352e-22,-4.0,0.29572826195428326,-3.1646510162056258e-22,9.252893948712015e-06,1.7224840190133924e-07,1.09764244477778,0.0,0.0,0.0,1.7708808882597697,1.968133405471817e-05,0.0001558588798562736,8.417129735123598e-06,581.9216965589092,581.9736772993493,581.953963155409,581.9942860417741
0.44400000000000006,-6.190475182080099e-08,-4.000000030339473,0.22463363016251184,7.904177139362392e-06,-0.0007600312261735536,-5.69250584618125e-05,1.681618329215373e-22,-4.0,0.29982374456482985,-3.157046141398407e-22,1.0105636906083592e-05,-3.785103169828258e-07,1.1050232070288741,0.0,0.0,0.0,1.7268933216134417,2.1331823317992466e-05,0.000169289944494427,8.796217399294323e-06,580.8125078303696,580.8690620707955,580.8465186775431,580.8904132468631
0.44800000000000006,-7.814797501173445e-08,-4.000000034834293,0.22910384239075635,-1.6697679941365892e-05,-0.0008309590147222062,-6.262969239946716e-05,1.6775556210983508e-22,-4.0,0.30393128772924555,-3.149418871427785e-22,1.0980228778649267e-05,-8.971983965675075e-07,1.11222760921788,0.0,0.0,0.0,1.6832260231883471,2.2732838191338127e-05,0.00017967141397265277,9.029245378572964e-06,579.7099957706702,579.7701596861176,579.7452224578999,579.7918695785593
0.452,-9.711160159701058e-08,-4.000000039274486,0.23360164192782196,-4.010174901453568e-05,-0.0008990299673317283,-6.822308658412094e-05,1.6734812734763736e-22,-4.0,0.30805059884932995,-3.1417697496174387e-22,1.1814247101045753e-05,-1.3805609977361742e-06,1.1192556041744566,0.0,0.0,0.0,1.6398583657554955,2.391265768150153e-05,0.00018704704754045294,9.137922760889891e-06,578.6136322515789,578.6764579110373,578.6496203400344,578.6982007756651
0.456,-1.1903659445719137e-07,-4.0000000435796625,0.23812631312101584,-6.214276633001263e-05,-0.0009617241709218778,-7.361785582952624e-05,1.6693955727000148e-22,-4.0,0.3121813884144148,-3.1340993135578305e-22,1.2552180701811146e-05,-1.825782920391936e-06,1.1261069547625449,0.0,0.0,0.0,1.5968497600001363,2.4851263170319148e-05,0.000191445875105798,9.140343057819291e-06,577.524926529019,577.5894630514766,577.5612701646479,577.6109744673988
0.46,-1.441429559248051e-07,-4.000000047674597,0.24267714476014884,-8.266432783010403e-05,-0.0010168405524850516,-7.874399715339702e-05,1.6652988020923551e-22,-4.0,0.3163233699747357,-3.126408095155649e-22,1.3145790520428173e-05,-2.2301748234058017e-06,1.132780625231406,0.0,0.0,0.0,1.554210925120889,2.5537498141292226e-05,0.00019295886910234407,9.05320924864755e-06,576.4441554867506,576.509470371003,576.4804961115368,576.5305407100832
0.464,-1.7262247802809074e-07,-4.000000051489715,0.24725343207045863,-0.00010152171803913278,-0.0010624931835412313,-8.354629400797601e-05,1.661191241975112e-22,-4.0,0.3204762601150137,-3.1186966206828686e-22,1.3553864792521585e-05,-2.5912622726443117e-06,1.1392768887663691,0.0,0.0,0.0,1.5119484396850074,2.596457326742043e-05,0.00019170053131486163,8.890900925594359e-06,575.3714920524527,575.4366797516673,575.4075127233635,575.4571459225973
0.468,-2.0463278722977958e-07,-4.0000000549615295,0.25185448260611126,-0.00011858441217777828,-0.0010971026026561643,-8.798179123190456e-05,1.6570731696945647e-22,-4.0,0.3246397784282442,-3.110965410825417e-22,1.3742346772618595e-05,-2.9068748492366904e-06,1.1455979511892311,0.0,0.0,0.0,1.470056761375136,2.6129460913901345e-05,0.000187804095560174,8.665451349119736e-06,574.3068018590551,574.370990837841,574.3422212668745,574.390728062984
0.47200000000000003,-2.4029273008781576e-07,-4.000000058033001,0.25647963152653575,-0.0001337386787493313,-0.0011193828484356576,-9.201851911605517e-05,1.6529448596472749e-22,-4.0,0.32881364748969255,-3.103214980731465e-22,1.368409937156421e-05,-3.1751986431006215e-06,1.1517481257714566,0.0,0.0,0.0,1.4284989960454826,2.6033468303003946e-05,0.0001814176484844785,8.387903779959029e-06,573.249148184247,573.3115070953056,573.2837191368928,573.330424772468
0.47600000000000003,-2.7967803827904537e-07,-4.000000060653873,0.2611282166431761,-0.00014688683290285635,-0.0011283285328050061,-9.563415216519845e-05,1.6488065833056053e-22,-4.0,0.33299759283109387,-3.0954458400593335e-22,1.3358605898391426e-05,-3.394805821638376e-06,1.15773135434829,0.0,0.0,0.0,1.387288056821373,2.5677939784292238e-05,0.00017269215305081376,8.068183566497467e-06,572.1988612488312,572.2586000251009,572.2323673039153,572.2766383608107
0.48000000000000004,-3.228181557986621e-07,-4.000000062780973,0.26579957130772736,-0.00015794889632777493,-0.0011232145640986148,-9.88158132175701e-05,1.6446586092430367e-22,-4.0,0.3371913429150564,-3.087658493025026e-22,1.2751699880259836e-05,-3.564667891196944e-06,1.16354856464385,0.0,0.0,0.0,1.3464512495769565,2.5067306562387308e-05,0.00016180597213644686,7.716381701643727e-06,571.1566370338098,571.2130164179963,571.1888941852063,571.2301462493926
0.48400000000000004,-3.6969375522406476e-07,-4.000000064378468,0.2704930101597782,-0.00016686484498997677,-0.0011036085517356507,-0.00010155753358169291,1.6405012031592863e-22,-4.0,0.3413946291096665,-3.079853438449381e-22,1.1855521124032608e-05,-3.6841752717384844e-06,1.1691974772236453,0.0,0.0,0.0,1.3060449912217083,2.420985668335499e-05,0.00014897524430757252,7.340009296467378e-06,570.1239207586783,570.176265265496,570.1547705500676,570.1924788350949
0.48800000000000004,-4.2023605235337413e-07,-4.000000065417984,0.27520784272886634,-0.00017359657722885647,-0.0010693586356424133,-0.00010386097287321028,1.6363346279052272e-22,-4.0,0.34560718566329335,-3.07203116980486e-22,1.0668442964232308e-05,-3.753172037579822e-06,1.1746752032484407,0.0,0.0,0.0,1.266098732739265,2.3118771222392587e-05,0.00013443968834627492,6.947701612615146e-06,569.101468731553,569.1491758956839,569.1307835995469,569.1644891654868
0.49200000000000005,-4.7432711926835435e-07,-4.000000065878635,0.27994338227599624,-0.0001781274915756161,-0.0010205652972944644,-0.00010572941031423135,1.632159143507612e-22,-4.0,0.34982874967959277,-3.0641921752619596e-22,9.194879959004345e-06,-3.7719861994339943e-06,1.1799809418944847,0.0,0.0,0.0,1.2266241867954506,2.1809097204185098e-05,0.00011843541190861826,6.541388157914989e-06,568.0895966539587,568.1321371504899,568.1172591854911,568.1465678490222
0.49600000000000005,-5.318016766189831e-07,-4.000000065746896,0.28469897039103836,-0.00018045955075558125,-0.0009575197291389318,-0.00010717144421890247,1.627975007193602e-22,-4.0,0.3540590610927081,-3.056336937735265e-22,7.444410426581954e-06,-3.741407104447118e-06,1.1851173724249593,0.0,0.0,0.0,1.1875830686658615,2.0295527606371788e-05,0.00010116053765834878,6.127386759527602e-06,567.0873314747927,567.1242381493031,567.1132485921179,567.1378200671472
0.5,-5.924477348914795e-07,-4.000000065016614,0.2894739554955955,-0.00018061591828181635,-0.0008807287641625455,-0.00010819912351551631,1.6237824734151012e-22,-4.0,0.3582978626426668,-3.0484659349291325e-22,5.431108613416195e-06,-3.6626643340976757e-06,1.1900890046937822,0.0,0.0,0.0,1.1489798612217972,1.8595493690672924e-05,8.284280035334105e-05,5.710051586286258e-06,566.0947956687279,566.1256737790696,566.1188932473272,566.1384496765507
0.504,-6.560090610043139e-07,-4.000000063688821,0.29426770022629933,-0.00017863866846361883,-0.0007908769626400618,-0.00010882465990104421,1.6195817938728994e-22,-4.0,0.36254489985097077,-3.040579639383016e-22,3.1732029261840223e-06,-3.537421151825213e-06,1.1948989070413945,0.0,0.0,0.0,1.11080388651391,1.6727425518455515e-05,6.370175170549732e-05,5.290038618106235e-06,565.1117268615992,565.1362524630739,565.133938231548,565.1482618733261
0.508,-7.221892113069329e-07,-4.000000061771343,0.29907961228882557,-0.00017457989157450372,-0.0006887200293304447,-0.00010906334856280572,1.6153732175406246e-22,-4.0,0.3667999209963805,-3.032678518516435e-22,6.920416626468289e-07,-3.367697718202843e-06,1.1995533505058567,0.0,0.0,0.0,1.0729814357629568,1.470305404860764e-05,4.386463485306621e-05,4.871423236009057e-06,564.1362362013695,564.154126475227,564.1565112940094,564.1654188346769
0.512,-7.906518123877117e-07,-4.000000059278914,0.3039090831787054,-0.00016851660231127078,-0.0005752388482643674,-0.00010893442527301957,1.6111569906885057e-22,-4.0,0.3710626770908894,-3.0247630346735864e-22,-1.988230228710077e-06,-3.155860560577468e-06,1.204056299396953,0.0,0.0,0.0,1.0355617710758434,1.2546569486741958e-05,2.360286011330154e-05,4.459409728825802e-06,563.1695884539841,563.1806497948061,563.1879012699125,563.1912842902597
0.516,-8.610244662176557e-07,-4.000000056232824,0.3087554964623843,-0.00016054821681968408,-0.00045160110227953173,-0.00010845942840358705,1.6069333569069473e-22,-4.0,0.37533292185588896,-3.016833645167604e-22,-4.8402388382052525e-06,-2.904677716429971e-06,1.2084073862316174,0.0,0.0,0.0,0.9985779049645052,1.0286277073630745e-05,3.2008530309779904e-06,4.057452115647035e-06,562.2126342958173,562.2167682640395,562.2289786743307,562.2268069572677
0.52,-9.329021693262772e-07,-4.000000052660662,0.3136182102879312,-0.00015080259195093386,-0.00031920497215458856,-0.00010766270381303495,1.602702557129919e-22,-4.0,0.3796104116985217,-3.008890802324467e-22,-7.83246180886488e-06,-2.6174281026151706e-06,1.212601959742666,0.0,0.0,0.0,0.96209863737116,7.958056853790567e-06,-1.6995425631021228e-05,3.669690259165056e-06,561.2671503508126,561.2643756047885,561.281544654086,561.2738833420676
0.524,-1.005853559939626e-06,-4.000000048595626,0.3184965916234503,-0.00013942305038491156,-0.00017954914116834845,-0.00010656346742903213,1.5984648296581585e-22,-4.0,0.3838949056882217,-3.000934953526564e-22,-1.0929917331673943e-05,-2.297857222217168e-06,1.216638001823183,0.0,0.0,0.0,0.9261241307169532,5.5899545388266464e-06,-3.673989272982728e-05,3.2911088474056442e-06,560.3331649479748,560.3235849733614,560.3456200151757,560.3326019767436
0.528,-1.0794273041065923e-06,-4.000000044075805,0.3233900485971278,-0.00012655479225091702,-3.410413298344956e-05,-0.0001051844386209117,1.5942204101821913e-22,-4.0,0.38818616553344054,-2.992966541255909e-22,-1.4096219261127262e-05,-1.94997252704384e-06,1.2205191467258616,0.0,0.0,0.0,0.8905886708030271,3.1960624566823816e-06,-5.5922494646791515e-05,2.926568402750321e-06,559.4089909269761,559.3927483462992,559.4195380256613,559.4013266375804
0.532,-1.1531549539990787e-06,-4.000000039144007,0.32829797609284334,-0.00011236369364836685,0.0001155278343023708,-0.00010354857874910011,1.5899695318051693e-22,-4.0,0.39248395555855753,-2.9849860031370166e-22,-1.729459679677119e-05,-1.5779511886451553e-06,1.2242497177560296,0.0,0.0,0.0,0.8555356845893018,8.067560793189249e-07,-7.428362536930015e-05,2.577265006280878e-06,558.4957672878413,558.4730953126727,558.5044512108389,558.4812817213485
0.536,-1.2265570057299497e-06,-4.000000033847061,0.3332197759027191,-9.70266762959673e-05,0.00026770124202025406,-0.00010167827377128166,1.5857124250655265e-22,-4.0,0.396788042680973,-2.976993771979438e-22,-2.0487676520870237e-05,-1.1861774911940372e-06,1.2278302324631607,0.0,0.0,0.0,0.8209681596953573,-1.5510610990328825e-06,-9.161747587889432e-05,2.2434514337633674e-06,557.5935898067214,557.5647951104517,557.6004648190968,557.5726292328097
0.54,-1.2991483343828142e-06,-4.000000028235202,0.3381548583225674,-8.07291483787647e-05,0.0004207532635555891,-9.959557131808748e-05,1.581449317959457e-22,-4.0,0.401098196388383,-2.968990275819959e-22,-2.3637548380175407e-05,-7.792416879694919e-07,1.2312617194250017,0.0,0.0,0.0,0.7868856635300716,-3.85307222833854e-06,-0.00010774696990977859,1.9256353378036903e-06,556.7024688208135,556.667922287647,556.7075987535211,556.6754380737605
