Time_s,X,Y,Z,Roll_deg,Pitch_deg,Yaw_deg,Ref_X,Ref_Y,Ref_Z,Ref_Yaw,vx,vy,vz,p,q,r,T_pert,tau_x,tau_y,tau_z,RPM_0,RPM_1,RPM_2,RPM_3
0.0040000000000048885,0.04487283731586363,-6.012571851877098,1.9995077597679496,-0.871748090678475,-0.8984903199361827,0.010220269440505384,0.044881448562501716,-6.012731103339692,7.200000000017598e-05,0.0,-0.002105165184282506,0.039529927167251525,8.104580732765558e-05,-0.012664463753773175,-0.034030421281498385,-2.64732792728393e-06,-10.19,1.0,1.0,-0.011938890836132426,0.0,596.1217709236525,0.0,0.0
0.008000000000009777,0.044860173919095345,-6.012409996808026,1.999505498332664,-0.8745586324218687,-0.9062848828309858,0.010338474299925564,0.04487823642952056,-6.012730192183786,0.00021513340800052478,0.0,-0.002710875967922791,0.04006538214949904,9.266337584901125e-05,-0.012431420832808768,-0.03402174474255656,-2.640450330187014e-06,-10.19,0.21619699227660139,0.08755468371450112,-0.0005584726286006558,0.0,205.55304839458842,100.17275606866346,0.0
0.012000000000000455,0.044845056448582936,-6.01224599192253,1.9995032031899185,-0.8773144432990289,-0.9140764037980813,0.010457013244361615,0.04487344722562373,-6.012728833674832,0.0004285414703013474,0.0,-0.0033210189769549937,0.040602002390203014,0.00010446555571694915,-0.012195032557759725,-0.03401046061401509,-2.6335687405841925e-06,-10.19,0.22120169109914173,0.09000526053753442,-0.0005644385262997681,0.0,208.6808460111872,102.29279870688346,0.0
0.016000000000005343,0.04482746722446503,-6.012079832830329,1.9995008740071736,-0.8800147523893738,-0.9218642765043904,0.010575869187642384,0.044867100048073524,-6.012727033229974,0.0007113732083625512,0.0,-0.003935585959336616,0.041139749288566695,0.00011645158559933752,-0.011955289295648224,-0.03399654827021493,-2.626683918192961e-06,-10.19,0.2262614937074935,0.09250478388317071,-0.0005704064588335057,0.0,211.80479109370864,104.37485142876469,0.0
0.020000000000010232,0.044807388602553434,-6.011911515298909,1.9994985104526726,-0.8826587865975584,-0.9296478897085526,0.01069502478674376,0.04485921382105218,-6.012724796217258,0.0010627853561316913,0.0,-0.004554568264618893,0.041678583776559815,0.00012862063355754312,-0.011712181115537918,-0.03397998521681227,-2.6197964896245858e-06,-10.19,0.2313766096521235,0.09505378147443513,-0.0005763754466759426,0.0,214.92534303765296,106.42089480007162,0.0
0.02400000000000091,0.044784802975948085,-6.011741035255394,1.99949611219552,-0.885245770702876,-0.9374266272632579,0.01081446244439173,0.04484980729705757,-6.01272212795603,0.0014819422978532219,0.0,-0.0051779568412045115,0.04221846631858264,0.00014097179626661763,-0.011465698839163667,-0.03396075071828627,-2.6129072228633567e-06,-10.19,0.23654724533391625,0.09765278202593536,-0.0005823445015825361,0.0,218.04293387672516,108.43271945586967,0.0
0.028000000000005798,0.04475969277666303,-6.011568388788433,1.999493678905759,-0.8877749274093099,-0.9451998681179409,0.010934164311810445,0.04483889905828817,-6.012719033717331,0.0019680160063530122,0.0,-0.005805742233623857,0.04275935691033345,0.00015350409806013168,-0.011215832100559748,-0.033938819870430216,-2.606016572619661e-06,-10.19,0.24177360385696495,0.10030231521197276,-0.0005883126268486467,0.0,221.1579702068423,110.41194931653237,0.0
0.03200000000001069,0.04473204047726347,-6.0113935721500775,1.999491210254452,-0.8902454773962306,-0.9529669863218608,0.01105411229161724,0.044826507518017894,-6.012715518724282,0.002520185981774745,0.0,-0.006437914579799771,0.04330121507891736,0.00016621649007544112,-0.010962568315378663,-0.033914159917536255,-2.5991244011547475e-06,-10.19,0.24705588518963925,0.10300291164236867,-0.0005942788175807747,0.0,224.27083505811552,112.36006149312045,0.0
0.036000000000001364,0.04470182859251373,-6.011216581757679,1.999488705913761,-0.8926566393697488,-0.9607273510275419,0.011174288040866212,0.04481265092196027,-6.0127115881524755,0.0031376391907938154,0.0,-0.007074463608331529,0.043843999880642595,0.00017910784960104977,-0.010705906828388661,-0.03388677412606576,-2.5922333398381847e-06,-10.19,0.25239428579906675,0.1057551028110689,-0.0006002420609673538,0.0,227.3818893921675,114.27840288868254,0.0
0.04000000000000625,0.04466903968103621,-6.011037414195766,1.9994861655570275,-0.895005772260834,-0.9684820445381604,0.01118464620030807,0.04479734734962209,-6.012707247130358,0.0038195700062961225,0.0,-0.007715387277098135,0.044387668280835436,0.00019217697926653232,-0.010445835019871582,-0.03385662851842193,-0.00019461419877381318,-10.19,0.2577868295421685,0.10856142727992321,-0.000477672666090472,0.0,229.98120695035772,117.17195931320887,0.0
0.04400000000001114,0.044633858553219774,-6.010856232319945,1.999469786177576,-0.8936544315626429,-0.9733925027319904,0.010511970130485918,0.04478061471564738,-6.012702500739608,0.004565180147492341,0.0,-0.008364047331234564,0.04493708414618612,-0.0011757052850121636,-0.0038504315367592933,-0.028855576355502087,-0.001501178137110493,-10.19,0.25705235766462764,0.10575029807516106,0.0003190131468203522,0.0,225.4420251598791,124.67309367319982,0.0
0.04800000000000182,0.0445968675641339,-6.010673515114636,1.9994025873040295,-0.8823569542844865,-0.9728636774896042,0.009239526272822067,0.04476247077115066,-6.012697354015521,0.005373678620505963,0.0,-0.009023526356308568,0.045500812639324525,-0.0076261686340384355,0.01998206463148718,-0.014358567239009312,-0.0037062285310497205,-10.19,0.245008486954661,0.09496383495108592,0.0010465251343266722,0.0,213.4479953505321,129.06008648116844,0.0
0.05200000000000671,0.044558533044781745,-6.010489644794348,1.999256360320729,-0.857524866171481,-0.9663175282298693,0.007408530529937102,0.04474293310504008,-6.012691811947379,0.006244281659416086,0.0,-0.009691448918553124,0.04607799302257941,-0.02170865017417549,0.06575773792789572,0.009225393815296681,-0.005992840787974242,-10.19,0.22886579154985798,0.08402166417340537,0.0017506076588362717,0.0,199.01167882335773,130.56532916179606,0.0
0.056000000000011596,0.04451918970846075,-6.010304901963004,1.9990114353276072,-0.8175306613431687,-0.9538012780910505,0.0050827558836857595,0.04472201914533104,-6.012685879478824,0.007176212667719711,0.0,-0.010357498569917595,0.04664898139853925,-0.042449310026331864,0.12551137043614194,0.03513714500882476,-0.00797310174046809,-10.19,0.2107897703570892,0.07388042915003681,0.002403257021556431,0.0,183.1669295477631,129.89575521356528,0.0
0.0800000000000125,0.04427191996048568,-6.009186988966046,1.9949074052495026,-0.2783944098190867,-0.7800639279961938,-0.015006929302180547,0.044547610480858896,-6.012636406594106,0.014947904150330964,0.0,-0.01375873597562001,0.048317325351587996,-0.22949522086789198,0.4915806269608356,0.1570408809526052,-0.015104549094390896,-10.19,0.1343251686827504,0.03630410354152823,0.004385549262131149,0.0,101.36344918411288,117.45155017300706,0.0
0.08400000000000318,0.04422968669748746,-6.008999900274975,1.9937379781042812,-0.14609646382226252,-0.738307553469458,-0.01895326757647344,0.04451728747346525,-6.012627805148451,0.016299104556581543,0.0,-0.014151430180092333,0.04805260632815086,-0.2650915446061086,0.541211385743197,0.17169867377514605,-0.01593863857569107,-10.19,0.08846426384703845,0.028787535577943536,0.005222713755966113,0.0,0.0,93.36700410622971,0.0
0.08800000000000807,0.044187281332229995,-6.00881271874429,1.9924235231738587,-0.0035999038732758867,-0.6935222801915554,-0.022977519876670592,0.044485725719811166,-6.012618852319159,0.017705503790197977,0.0,-0.01447718372982052,0.04757325912600967,-0.30117057525477914,0.5878213415250116,0.1854617864304988,-0.01672783606260036,-10.19,0.06364891732360145,0.013248262405368381,0.005477102195144071,0.0,0.0,87.08550814923774,0.0
0.09200000000001296,0.0441447267894916,-6.008625473719125,1.9909629285056893,0.1485523653677829,-0.6458463729197232,-0.027050139385485242,0.044452941221075015,-6.012609552645135,0.01916638883487472,0.0,-0.014730505007543016,0.04686081601837544,-0.3376099517816572,0.6317847410898442,0.19850334850888632,-0.017481048204392426,-10.19,0.045683016782910285,0.006555813011854185,0.005700455625951599,0.0,0.0,77.77818603814198,0.0
0.09600000000000364,0.04410204154015326,-6.008438191139283,1.989355351384764,0.3098967279781622,-0.5953917797535055,-0.031142823032148707,0.04441894983043986,-6.012599910623305,0.02068105326901187,0.0,-0.014906148594326683,0.04589801047417992,-0.3743206992855625,0.6734650498177136,0.21096130682199363,-0.01820529506178272,-10.19,0.0275331647213084,-0.00020889644389594786,0.005893017030265641,0.0,0.0,66.62938615117397,0.0
0.10000000000000853,0.04405924088697111,-6.008250894702303,1.9876001472432678,0.4800407658101963,-0.5422493463682216,-0.03522813351897959,0.044383767254298316,-6.012589930708954,0.022248797212027157,0.0,-0.014999058054814529,0.0446685338424868,-0.4112373170286919,0.7131980808000649,0.22294605115021654,-0.018906133449654368,-10.19,0.009130432372266906,-0.007076385016619828,0.00605463695348464,0.0,0.0,52.41259575418071,0.0
0.10400000000001342,0.04401633787621934,-6.008063606685028,1.9856968188003532,0.6586545657153643,-0.4864929498626447,-0.03927918861257013,0.04434740905344931,-6.012579617316069,0.02386892727102678,0.0,-0.015004320843524575,0.04315682804682885,-0.448310921487015,0.7512843858413699,0.23454624464196683,-0.019587976728615095,-10.19,-0.009585503191286482,-0.014070379027116602,0.00618483662002293,0.0,0.0,31.06573399403727,0.0
0.10800000000000409,0.043973343948273465,-6.007876348524957,1.983644979343548,0.8454622164342461,-0.4281827937157615,-0.043269405715751816,0.0443098906442847,-6.012568974817675,0.025540756487930673,0.0,-0.014917133220708072,0.04134791480289972,-0.4855044750407352,0.7879871874053359,0.24583332175767741,-0.020254338696137082,-10.19,-0.028666940425053078,-0.021209543338890788,0.006282859789901622,0.0,0.0,0.0,40.70008012186263
0.11200000000000898,0.04393026940512191,-6.00768914123232,1.9814443259652752,1.040233918218709,-0.3673680465407959,-0.047172292004871635,0.044271227299966735,-6.012558007546169,0.027263604287004174,0.0,-0.014732773245200167,0.03922725839993674,-0.5227894437035708,0.8235334727701178,0.25686498559016846,-0.020908021136918774,-10.19,-0.04815896248633922,-0.028508734946603304,0.006347715518460257,0.0,0.0,0.0,62.25899266649557
0.11600000000001387,0.043887123748692684,-6.007502005682397,1.9790946198619546,1.2427789007810857,-0.3040889641339686,-0.050961272179187576,0.04423143415159778,-6.01254671979365,0.029036796422734608,0.0,-0.014446580191452002,0.036780657649672366,-0.5601434381808689,0.8581167594322503,0.26768794750260483,-0.02155125922623031,-10.19,-0.06810031704391895,-0.03597991748295627,0.006378213482031639,0.0,0.0,0.0,77.97986136566347
0.12000000000000455,0.04384391852566638,-6.007314960032614,1.9765954664256535,1.4527292685330533,-0.2385422130505589,-0.054409065180648294,0.04419052618937995,-6.012535115812248,0.030859664928158552,0.0,-0.014053999031486696,0.033994269133160844,-0.5975690410656955,0.8915357923149256,0.27806304138891613,-0.02182894561824506,-10.19,-0.08824661494154679,-0.04347205846436131,0.006138798398992234,19.092323332052654,0.0,0.0,88.45264469694834
0.12400000000000944,0.04380067696048035,-6.007128002737725,1.9739453021213356,1.6685161080004363,-0.17164898476662635,-0.057405166166079706,0.044148518263765764,-6.012523199814454,0.03273154806358654,0.0,-0.013552576980128244,0.030857337508854055,-0.6351926054600983,0.9214171463356164,0.28646786844356814,-0.021550541096558573,-10.19,-0.10697545687974017,-0.05024138323114957,0.005756526643098357,73.8732212487569,0.0,0.0,95.84389379029614
0.1280000000000001,0.043757416536870763,-6.006941119964733,1.9711423915327104,1.8883694967920737,-0.10401206188357827,-0.05994102134514112,0.044105425086601605,-6.01251097597344,0.03465179026565225,0.0,-0.012944325347360407,0.027367347173866085,-0.6731613997581973,0.9449979031475338,0.2919390300639294,-0.02079181589324603,-10.19,-0.12401888262781477,-0.05640475121722054,0.0053459239471023955,101.02926482858493,0.0,0.0,101.54028452003755
0.132000000000005,0.04371414616438012,-6.006754297550446,1.9681854683538622,2.110899431140058,-0.03583710932876842,-0.06200235989359618,0.044061261232260146,-6.012498448423383,0.036619742096850504,0.0,-0.012233584521828326,0.023530364731003606,-0.7115051071189875,0.9614576071027578,0.29512863838938047,-0.020011812610839196,-10.19,-0.13983119176428477,-0.0623477119998274,0.004899928533960392,121.53654200464051,0.0,0.0,105.81087762721123
0.1360000000000099,0.0436708703437274,-6.006567525827971,1.9650737481227785,2.3350905653992156,0.03279820586645755,-0.06374487176961575,0.04401604113876642,-6.012485621259783,0.03863476019535903,0.0,-0.011422889874867708,0.01935574270908261,-0.7501161128129399,0.9722420562100405,0.29743219219386313,-0.019427612939614793,-10.19,-0.1548123556590199,-0.0682476336393073,0.004616462339950191,137.43223954931065,0.0,0.0,110.6468632106769
0.14000000000000057,0.043627591880792994,-6.006380803501875,1.9618068573473297,2.560106496562522,0.1018326686498035,-0.0652780082724131,0.04396977910891379,-6.012472498539782,0.04069620722531108,0.0,-0.010512695371980508,0.014852630135066602,-0.7888768584217458,0.978670629693975,0.29934693179105365,-0.01933970002284836,-10.19,-0.16915170248853567,-0.0741467931573201,0.004447882172079639,150.61002113740741,0.0,0.0,115.7110334578065
0.14400000000000546,0.04358431359536422,-6.006194139524365,1.9583847458996178,2.7851820006522057,0.17116180665235953,-0.06661642266318536,0.0439224893113713,-6.012459084282472,0.04280345182745097,0.0,-0.009503100694346744,0.010030204648891676,-0.8276885440167613,0.9814778431764989,0.3009102860184539,-0.01965193937233906,-10.19,-0.18290443206421317,-0.08000933276688695,0.004287928736925739,162.34521263719273,0.0,0.0,120.23455516617541
0.14800000000001035,0.04354103918384417,-6.006007552615381,1.95480759069458,3.009589032893534,0.2406357620199058,-0.06777344879594525,0.043874185781784106,-6.012445382469217,0.04495586857009953,0.0,-0.008394744007114607,0.004898675764018021,-0.8664737593333289,0.9809674530209594,0.3019669079567123,-0.020051092270109032,-10.19,-0.19606464756292477,-0.08578543660946732,0.004135648874168385,172.90902467138292,0.0,0.0,124.29991721643442
0.15200000000000102,0.04349777371518668,-6.005821070544657,1.9510757280894426,3.2326168522678986,0.31006272623839287,-0.06876873106417485,0.043824882423863995,-6.012431397043952,0.04715283790055997,0.0,-0.007189271063625259,-0.0005301603050128812,-0.9051770073149583,0.9772877125472818,0.3023249584347803,-0.02048724606298581,-10.19,-0.20860227227579714,-0.09142254784554582,0.003998949159454498,182.42635366277534,0.0,0.0,128.022392488685
0.1560000000000059,0.04345452387453626,-6.005634729200154,1.947189603526767,3.4535638212174664,0.37921445381461344,-0.06962844518584356,0.04377459301047149,-6.012417131913496,0.04939374609689831,0.0,-0.005889473455985085,-0.006242733094896221,-0.9437592316856366,0.9705115275648483,0.3018073321792477,-0.020964253794983404,-10.19,-0.22047541214594252,-0.09686904031507158,0.0038862545827301077,190.97115831924725,0.0,0.0,131.49606817369764
0.1600000000000108,0.04341129802797481,-6.005448571560563,1.9431497340492627,3.6717357346053103,0.44783351283004225,-0.07038488718182113,0.043723331184691315,-6.012402590947857,0.05167798522002124,0.0,-0.0044993294985871575,-0.01222363403078835,-0.9821936120348338,0.9606805640551009,0.3002622251577356,-0.021487064356956066,-10.19,-0.23163860579372691,-0.10207724888053582,0.003805780020367482,198.59076833600398,0.0,0.0,134.79730688394164
0.16400000000000148,0.04336810616369049,-6.0052626466326595,1.938956680300719,3.8864475409429837,0.5156413819787898,-0.07107578114588539,0.04367111046089804,-6.012387777980531,0.05400495306619049,0.0,-0.003023993724109088,-0.018455643726903677,-1.0204625738783926,0.9478314138513806,0.29756980639230063,-0.02205869455700523,-10.19,-0.2420472893832507,-0.10700543099811753,0.003765185288652202,205.3178762681584,0.0,0.0,137.9874706793677
0.16800000000000637,0.04332495974745428,-6.005077008385136,1.9346110254840705,4.097026933472972,0.5823468854921354,-0.07174338117270371,0.043617944225813506,-6.012372696808806,0.056374053119903636,0.0,-0.0014697396931992678,-0.024919819705217717,-1.0585555850250548,0.9320096081524104,0.2936456903294188,-0.022679960142284183,-10.19,-0.25166042659107696,-0.1116190385344341,0.00377130664151267,211.1773506318177,0.0,0.0,141.1144150055182
0.17200000000001125,0.04328187151868648,-6.004891714695658,1.930113359429731,4.302818602672832,0.647654530238891,-0.07243341416354332,0.04356384573955785,-6.012357351194057,0.058784694507060045,0.0,0.0001561367497798396,-0.03159562469036116,-1.0964675407836288,0.9132764309373981,0.2884420212518974,-0.023349552431283557,-10.19,-0.26044171045831976,-0.11589140451378133,0.003829934329095751,216.19016315013914,0.0,0.0,144.21319225174943
0.17600000000000193,0.04323885524609572,-6.004706826320398,1.9254642664357144,4.503188616548881,0.7112725025416042,-0.07319390508700903,0.04350882813669083,-6.0123417448620415,0.0612362919485596,0.0,0.0018454470832892725,-0.03846108181074115,-1.134197576090033,0.8917116757915181,0.281947020207017,-0.024064222462743003,-10.19,-0.26836011705409385,-0.11980408161090192,0.003945632117274777,220.37582166807718,0.0,0.0,147.3065406882216
0.18000000000000682,0.043195925539075475,-6.004522406344175,1.9206643211911456,4.697523211256331,0.7729185241471007,-0.07407491180196087,0.0434529044272451,-6.0123258815031955,0.06372826571425975,0.0,0.0035892615985951394,-0.04549292936913883,-1.171747654850309,0.8674044239546737,0.2741804357518671,-0.024820497576450114,-10.19,-0.27538903298623846,-0.12334597499193922,0.004122751721964538,223.74845091039455,0.0,0.0,150.41234872658822
0.1840000000000117,0.043153097524546456,-6.00433851897982,1.9157140785513447,4.885235721418687,0.8323273878795289,-0.07512474166900786,0.04339608749775334,-6.012309764772922,0.06626004157720593,0.0,0.0053780647201642365,-0.052666736323805516,-1.2091222084386226,0.8404574538841055,0.2651928251126573,-0.02561066587766127,-10.19,-0.28150289734515876,-0.12651353630883588,0.0043613122347695025,226.33323883655518,0.0,0.0,153.51761966865257
0.1880000000000024,0.04311038636801298,-6.004155227607277,1.910614056075201,5.065782083413455,0.8892610477127677,-0.07639064049316702,0.043338390112265764,-6.012293398291879,0.06883105076829082,0.0,0.007201966481889002,-0.0599571573621807,-1.2463289016078583,0.8110083593031343,0.2550699015348893,-0.026426372620280213,-10.19,-0.2866858702179389,-0.12931390954959696,0.0046620690326539095,228.15065341706017,0.0,0.0,156.6141489653537
0.19200000000000728,0.043067807104486634,-6.003972594516803,1.9053647374261937,5.2386558253360205,0.9435105736678747,-0.0779177791880288,0.04327982491335979,-6.012276785646271,0.0714407299312642,0.0,0.009050929590173333,-0.06733820795684983,-1.2833782843688817,0.7792286442144207,0.24392817553893545,-0.027260151661919474,-10.19,-0.2909370225232021,-0.13176142934439294,0.005024553463562199,229.2258558796577,0.0,0.0,159.69152764278306
0.19600000000001216,0.043025374353993506,-6.003790680060428,1.8999665688758538,5.403390722983607,0.9949008626855568,-0.0797446665501757,0.04322040442314381,-6.012259930388126,0.0740885210780045,0.0,0.010914977484862278,-0.07478349916846358,-1.320281604264901,0.7452886210324007,0.23190207464391138,-0.028100122911965203,-10.19,-0.294253626153111,-0.13387629137937568,0.005442856222418611,229.5993547417721,0.0,0.0,162.7055152388805
0.20000000000000284,0.042983102224474,-6.003609542898746,1.8944199673984556,5.559551796534403,1.0432949251873245,-0.08190807406857742,0.0431601410442514,-6.012242836035585,0.07677387154421557,0.0,0.012784389259234571,-0.0822662858873334,-1.357050138301846,0.7093482390723317,0.2191442549185975,-0.028938816055535783,-10.19,-0.2966369032210634,-0.13568783082618785,0.0059165500807269915,229.28776562269556,0.0,0.0,165.64259173407393
0.20400000000000773,0.04294100390001808,-6.003429238113366,1.8887253063648761,5.706749711750641,1.0885949731548377,-0.08443524207738255,0.04309904706082789,-6.012225506073177,0.07949623394546607,0.0,0.014649891682517685,-0.08975962216363159,-1.3936959180828226,0.6715721781925345,0.20582256290014378,-0.02976332754649983,-10.19,-0.29808203903858915,-0.13722541027293683,0.006436034591675625,228.33597845923063,0.0,0.0,168.43721791378283
0.20800000000001262,0.0428990914908299,-6.003249816931743,1.8828829180935425,5.844637806657021,1.1307449611416733,-0.08735159021073632,0.043037134639511275,-6.0122079439521,0.08225506613347965,0.0,0.016502863289980012,-0.09723653328600475,-1.4302325789340664,0.632146785990668,0.1921121820289885,-0.030569911029859963,-10.19,-0.29860076900408783,-0.13852666695996319,0.00700032686083103,226.75865423486277,0.0,0.0,171.07807885905845
0.2120000000000033,0.042857375847588815,-6.003071325740117,1.8768930889174043,5.972917160077908,1.1697247955470018,-0.09067355469442569,0.04297441583040366,-6.012190153090493,0.08504983115284634,0.0,0.018335457591338644,-0.10467027253540265,-1.4666745285428342,0.5912669506976049,0.17818739779069648,-0.03135054258079771,-10.19,-0.29820484262271174,-0.13962473593736963,0.007600003828566038,224.5981815092822,0.0,0.0,173.51194973659497
0.21600000000000819,0.04281586642411592,-6.002893805883266,1.8707560616876207,6.091333948412315,1.2055544850304,-0.09441025873513137,0.04291090256803521,-6.012172136873714,0.08787999719806906,0.0,0.02014071815486545,-0.11203448021105053,-1.5030367329719154,0.5491337131034834,0.16421704400997744,-0.03209690611469874,-10.19,-0.29691425510816055,-0.14056043274657756,0.008227225973803402,221.89343311981864,0.0,0.0,175.69644747805665
0.22000000000001307,0.04277457121603269,-6.002717293309393,1.864472036157376,6.199678938670353,1.2382901096346508,-0.09856829745859258,0.042846606672322735,-6.012153898654609,0.0907450375708501,0.0,0.021912685009857415,-0.11930333419321959,-1.5393340432540952,0.5059435825210483,0.15036905348967378,-0.03280727874570924,-10.19,-0.2947492674502944,-0.14137337182919532,0.008879443680785904,218.65846272330668,0.0,0.0,177.61826603291254
0.22400000000000375,0.04273349685642979,-6.002541818515273,1.8580411715552398,6.297785055619316,1.2680096325327133,-0.10314226366241437,0.04278153984951884,-6.012135441753782,0.09364443063779493,0.0,0.023646399670191595,-0.1264516393374675,-1.5755810213724861,0.4618865457666804,0.13678236510194505,-0.03347192871218689,-10.19,-0.29173332254067547,-0.1420908608516085,0.009542936564127153,214.94801938454992,0.0,0.0,179.21403883237866
0.22800000000000864,0.04269264807092094,-6.0023674053462726,1.8514635787626732,6.385535403785085,1.2948423859161549,-0.10811695645631697,0.04271571369315377,-6.012116769459861,0.09657765978844376,0.0,0.025337994928925623,-0.13345498020876587,-1.6117927074020642,0.41716088914166105,0.12361701522504472,-0.03407883878693473,-10.19,-0.2878885207983334,-0.14276878232580156,0.010206071047733887,210.81931154583418,0.0,0.0,180.4173637481134
0.23200000000001353,0.042652027903470446,-6.002194071239514,1.8447393246554997,6.462858707872018,1.3189509008812583,-0.1134732029575889,0.04264913968497213,-6.012097885029767,0.09954421339353255,0.0,0.026984911270489288,-0.14028989925213237,-1.6479844002865094,0.371970473287658,0.11104585988564733,-0.0346140073705251,-10.19,-0.2832507026047365,-0.14345390275724734,0.010863610994932996,206.30492702183898,0.0,0.0,181.20445578740342
0.2360000000000042,0.04261163788847564,-6.002021827514082,1.8378684362393158,6.529724994587061,1.3405199739493523,-0.1191916165967998,0.042581829195860246,-6.012078791688973,0.10254358476366746,0.0,0.028586023632062564,-0.14693403651874565,-1.6841708031068254,0.32651056031198716,0.0992131673088019,-0.03509402804769196,-10.19,-0.27785438096539394,-0.14418213812520964,0.01151454612306326,201.41364604772124,0.0,0.0,181.57497688483997
0.2400000000000091,0.04257147843663762,-6.001850680419921,1.83085091071239,6.586135484194056,1.3597382272471474,-0.125243203676855,0.04251379348676641,-6.012059492631767,0.10557527210831989,0.0,0.030141296066648893,-0.15336606962413799,-1.7203647614432853,0.2809458749167119,0.08819191698749826,-0.03551395725927598,-10.19,-0.2717340493736089,-0.14497213203663828,0.012146882996880473,196.19649166192107,0.0,0.0,181.47861071846538
0.24399999999999977,0.0425315479039276,-6.001680627921765,1.823686688719731,6.63215003954083,1.3768314995007263,-0.13159160508266027,0.04244504370961643,-6.012039991021513,0.10863877849502973,0.0,0.03165171624196865,-0.15956586790603175,-1.7565803093457144,0.23546573270019716,0.07807210007706368,-0.03586621053507478,-10.19,-0.2649094745473676,-0.14586686838499194,0.012750850328953463,190.70190568079,0.0,0.0,180.85418113664153
0.24800000000000466,0.04249184324951657,-6.001511661725917,1.8163756719586885,6.667868838823438,1.392038374713341,-0.13820322122966822,0.042375590908218456,-6.0120202899909065,0.1117336118090841,0.0,0.033119440179665074,-0.16551474995139875,-1.7928319619973538,0.190272485709561,0.06894899015000762,-0.036145585001408985,-10.19,-0.25744136423933034,-0.146901167500615,0.013328199386507103,184.94101248821866,0.0,0.0,179.7175018530876
0.25200000000000955,0.04245236038634877,-6.00134376831897,1.808917731756701,6.693423744302871,1.4055962972438987,-0.14503919042175628,0.04230544601916456,-6.012000392642227,0.11485928471334482,0.0,0.03454775981633629,-0.17119555915964224,-1.829132573932807,0.1455439944009161,0.060877685078943755,-0.03636279433889088,-10.19,-0.2493732341576637,-0.14809161382880934,0.013871421859992527,178.9553806969856,0.0,0.0,178.0332543983143
0.2560000000000002,0.04241309345482361,-6.001176925962757,1.8013126831070991,6.709004969674956,1.4177584376205048,-0.15205594622723567,0.042234619872722874,-6.011980302047596,0.11801531460849353,0.0,0.03594084287614274,-0.1765927032507235,-1.8654951623123395,0.10146653991327503,0.0538896481439917,-0.03651217893866052,-10.19,-0.24073564941299,-0.14946229794700033,0.014373441750811067,172.7863422418807,0.0,0.0,175.75208118252152
0.2600000000000051,0.042374035227482405,-6.00101110602038,1.793560294903639,6.714850327049936,1.4287809771746502,-0.15921407005981048,0.04216312319372282,-6.0119600212492275,0.12120122359358575,0.0,0.03730374581510298,-0.18169249939115859,-1.9019341209311993,0.058257383962002175,0.04802021620113528,-0.03659506113672463,-10.19,-0.23159857978340884,-0.1510362614163643,0.014837328041601698,166.44480147525178,0.0,46.09817241177116,172.88996576230457
0.26400000000001,0.042335177786230443,-6.000846275551512,1.7856603130459747,6.711223173083966,1.438899417006335,-0.1664298504046178,0.04209096660243578,-6.011939553259674,0.12441653842680761,0.0,0.038642267567960124,-0.18648324204953667,-1.9384612610705982,0.016095463207948014,0.04326119853838693,-0.036542566395798406,-10.19,-0.22202543356607987,-0.15281275304814157,0.015209730803197926,160.24855357625302,0.0,69.00423513487664,169.1621028956448
0.2680000000000007,0.04229651229447816,-6.000682396150798,1.7776124722831756,6.698414098663642,1.4483171817164504,-0.17357600368315773,0.04201816061544676,-6.011918901062079,0.12766079048663592,0.0,0.0399622812406749,-0.19095458588076825,-1.9750835817756003,-0.024895317442739668,0.039535993245614805,-0.036198078280909804,-10.19,-0.21204181849174142,-0.15476646590109566,0.015436317536231486,154.53694212730736,0.0,85.0462601425885,164.23423728894224
0.27200000000000557,0.042258029638454195,-6.000519425727399,1.769416505896703,6.676764306016142,1.4572014162338023,-0.1806023601103075,0.0419447156465192,-6.0118980676104155,0.13093351573330028,0.0,0.041269255106352445,-0.1950977031731648,-2.011804457413448,-0.06456123536424588,0.03670247276750954,-0.035538959515705654,-10.19,-0.2017359193036852,-0.1568750563111978,0.015601937811060139,148.88359666563332,0.0,98.36125091108647,158.54426959573772
0.27600000000001046,0.04221972162787991,-6.000357322917482,1.7610721680048782,6.646661840100269,1.4656561380532327,-0.1874779249770241,0.04187064200745549,-6.011877055829738,0.1342342546704384,0.0,0.04256778126623627,-0.19890602011858377,-2.0486234430074206,-0.1026969546065312,0.03454319837279807,-0.03471948892343747,-10.19,-0.19122730811036767,-0.15908950923197668,0.01572692265256306,143.2081405945675,0.0,109.98137721919578,152.2242881720346
0.28000000000000114,0.042181580903393225,-6.000196046081775,1.7525792225487051,6.6085634050028625,1.4737148492071976,-0.19418502053952316,0.04179594990894853,-6.011855868616419,0.13756255230715092,0.0,0.0438609176619479,-0.2023759959753971,-2.0855374715594195,-0.13905477405572259,0.032774126762199575,-0.03382224487169431,-10.19,-0.18060507113013405,-0.16133387755820527,0.015825545112240217,137.42117632511562,0.0,120.38861813203093,145.37970677252235
0.284000000000006,0.04214360104633614,-6.000035553829696,1.7439374439726498,6.562992419285606,1.4813407949526465,-0.20071856075278696,0.04172064946142668,-6.01183450883839,0.14091795812035163,0.0,0.04514951134472081,-0.20550742791929016,-2.122543466838581,-0.17335143358478886,0.031085770691308485,-0.03286484867534158,-10.19,-0.16997798572111839,-0.16353001194818212,0.015911776618871585,131.43093119576966,0.0,129.84918070830224,138.14163584496043
0.2880000000000109,0.042105776516520865,-5.999875804911874,1.7351466134671032,6.510539362858116,1.4884292254875473,-0.2070784870983444,0.041644750675894474,-6.011812979335379,0.1443000260173017,0.0,0.04643188805831611,-0.2083038230484846,-2.159638684328117,-0.20529126825192362,0.029171096252072294,-0.031857997700247984,-10.19,-0.15945323465876815,-0.16559567546791795,0.01599126915272197,125.18414068810456,0.0,138.47658182016704,130.60920407208204
0.2920000000000016,0.04206810243728251,-5.999716757336736,1.7262065096075134,6.451871305497613,1.4948103762051106,-0.21327590196810306,0.041568263464764596,-6.011791282919148,0.14770831429853967,0.0,0.04770366449364226,-0.21077273956425463,-2.1968211669826387,-0.23456557762293523,0.026733971857493044,-0.030808180049088578,-10.19,-0.14914499153298802,-0.16744557136141847,0.016077045898493354,118.56090938676991,0.0,146.38207668912526,122.96501856391399
0.2960000000000065,0.04203057484939527,-5.999558370926759,1.7171169257391934,6.387687888636313,1.5002698649404091,-0.21933068196864886,0.041491197642683275,-6.011769422373727,0.1511423856211001,0.0,0.04895777031434503,-0.21292579010671298,-2.23408810050237,-0.26092001059947495,0.02351976302186693,-0.029726937078506384,-10.19,-0.13916106347241317,-0.16901895294083555,0.016179801080818425,111.4428644276169,0.0,153.64620857568758,115.3975750296012
0.30000000000001137,0.04199319069578399,-5.999400608436827,1.7078776769249318,6.3186916467707315,1.5045662721306863,-0.22525995566970372,0.04141356292735179,-6.011747400455645,0.15460180696190756,0.0,0.05018480018854179,-0.2147779035203409,-2.2714339988597034,-0.2842324100265493,0.019348152526412844,-0.0286200910033798,-10.19,-0.12956270465508812,-0.17026948997350325,0.016297130797803986,103.761762265256,0.0,160.2846380895916,107.98853306501654
0.30400000000000205,0.04195594733676542,-5.999243433312367,1.6984885803674605,6.245614923396221,1.5074320627493651,-0.2310751372919964,0.04133536894033917,-6.011725219894164,0.15808614958156236,0.0,0.0513734541962359,-0.21634659440206697,-2.3088534928646234,-0.30442779918706064,0.014093311871015599,-0.02746980188484442,-10.19,-0.1204051030080314,-0.17114444271107915,0.016423054378414622,95.44117001790522,0.0,166.28350814880423,100.81086924249604
0.30800000000000693,0.04191884217669815,-5.999086808108957,1.6889494403527412,6.1692437062319705,1.5085771050562768,-0.23678370526384127,0.04125662520788858,-6.0117028833915045,0.1615949889884087,0.0,0.05251073739260108,-0.21765231757692827,-2.346344513092587,-0.3213551369780763,0.00764961399537783,-0.026248005960154752,-10.19,-0.11177968586553073,-0.17159411082893972,0.016553434934178143,86.381741722626,0.0,171.61700196894907,94.00682273423672
0.3120000000000118,0.041881872911060845,-5.998930696956291,1.679260067244536,6.090369878450994,1.5077101520179352,-0.24240107137357034,0.04117734116171991,-6.011680393623075,0.1651279049027694,0.0,0.05358213532293092,-0.21871898526531036,-2.383905345589779,-0.33487841405867363,-4.74360391579675e-05,-0.024955626690823417,-10.19,-0.10377213855279585,-0.17159905150427507,0.01669783952946114,76.2810342593805,0.0,176.34371916739633,87.86626849264634
0.3160000000000025,0.04184503752514764,-5.99877506656461,1.6694202844692787,6.009764435540425,1.5045520648337771,-0.24792492635783375,0.04109752613982372,-6.011657753237696,0.16868448122156868,0.0,0.05457213182995555,-0.219573137909271,-2.421532071418644,-0.3449775937702381,-0.008994802997816827,-0.023580503850329598,-10.19,-0.09642290607388455,-0.17115229882632332,0.016836193664203043,64.9804031632043,0.0,180.38701960191676,82.3644512148227
0.3200000000000074,0.041808334036856715,-5.998619885281082,1.6594299194737505,5.928186708778887,1.4988429007443025,-0.2533587863368603,0.041017189387248965,-6.011634964857825,0.17226430598323098,0.0,0.05546480393950639,-0.2202430788292435,-2.459219400433173,-0.35172567947508876,-0.01913229061813256,-0.022119328388290477,-10.19,-0.08976046316287527,-0.17025281808660858,0.016975200953432072,51.62606220552615,0.0,183.81151278258847,77.74886786131759
0.3240000000000123,0.04177176062788673,-5.998465124437635,1.649288815053789,5.8463509301290575,1.490350308390079,-0.25869114945252264,0.04093634005688717,-6.011612031079777,0.17586697133273804,0.0,0.05624428448738468,-0.2207581658424676,-2.4969624773798844,-0.3552259714404371,-0.030366057572873494,-0.020555734531656468,-10.19,-0.08379991681409707,-0.1689148224571859,0.017097456124078737,34.41011729967403,0.0,186.56560394136173,73.97142149273061
0.32800000000000296,0.041735315259327846,-5.998310756899477,1.638996814419343,5.764945454639683,1.4788766200985342,-0.2638987546867022,0.04085498721024795,-6.011588954473948,0.1794920734870702,0.0,0.056895162916281584,-0.22114844765811278,-2.5347563679921494,-0.35563100008999693,-0.042564821921549714,-0.018865906661489934,-10.19,-0.07854477856702395,-0.1671566344760857,0.017188743228672893,0.0,0.0,188.6165450008888,70.96491814232884
0.33200000000000784,0.04169899506766887,-5.998156755432188,1.6285537397632017,5.684651994537205,1.4642773090374854,-0.2689054010572371,0.040773139818228554,-6.011565737585027,0.18313921270091765,0.0,0.05740300845838742,-0.22144466413041552,-2.5725999934156705,-0.3530325710485125,-0.055539193921324025,-0.016945598938730752,-10.19,-0.07401643598690642,-0.16501748203812083,0.017186256135760716,0.0,0.0,189.6928399703724,67.96877866497896
0.33600000000001273,0.04166279619387339,-5.998003092523751,1.617959383268885,5.606142866287729,1.4464835353378906,-0.2736924669008079,0.04069080676187993,-6.01154238293222,0.18680799323254182,0.0,0.05775534862294339,-0.2216790263331946,-2.6104957868784355,-0.3474818534846572,-0.06903417629128332,-0.014819517330073594,-10.19,-0.07024867923240692,-0.16257098551773919,0.017154113507706882,0.0,0.0,190.1376012882229,65.82791847698041
0.3400000000000034,0.04162671667220908,-5.997849748783295,1.607213607446997,5.529962626427484,1.4253967068694762,-0.2782858769469093,0.04060799683316435,-6.011518893009461,0.19049802331001706,0.0,0.057941380923966765,-0.22188380417297324,-2.648438746080952,-0.33920870227619954,-0.08292742668717328,-0.012625062519785865,-10.19,-0.06723669549019395,-0.15980826428807374,0.01714357258039744,0.0,0.0,190.1998793856466,65.35359917040684
0.3440000000000083,0.041590755991134494,-5.997696711261847,1.5963163354303227,5.4565393074421555,1.4008881761683238,-0.2827076542986805,0.04052471873570707,-6.011495270285627,0.19420891509773647,0.0,0.05795022637460108,-0.22208875694458827,-2.68641379253942,-0.32866977148095355,-0.09728557219286964,-0.010511945730446278,-10.19,-0.06487009297128107,-0.15668162601532862,0.01715112667032324,0.0,0.0,189.89162309700183,66.45204702922015
0.3480000000000132,0.04155491425658095,-5.997543971191596,1.5852675308823574,5.386203275299021,1.3728286052402545,-0.28697559421286933,0.040440981085544794,-6.011471517204749,0.19794028466305982,0.0,0.057769621712000896,-0.22231952527219884,-2.7244048520632673,-0.31635812105198546,-0.11220322498847154,-0.008471911944253112,-10.19,-0.06304476946161573,-0.15317055060861892,0.017172729341667668,0.0,0.0,189.22953667610957,68.89020233093956
0.35200000000000387,0.04151919167710746,-5.997391522417027,1.5740671836994784,5.319205458863737,1.341102018708783,-0.2911026449419411,0.04035679241186568,-6.0114476361862215,0.20169175194333813,0.0,0.05738658137640921,-0.22259810078498785,-2.7624009841252937,-0.30268084265947315,-0.12767369014651464,-0.0064840881527384,-10.19,-0.06167771939116044,-0.14927385840952834,0.017203438517598077,0.0,0.0,188.22334697819997,72.37344084647148
0.35600000000000875,0.04148358822684971,-5.997239360386656,1.5627153005449532,5.255729872798321,1.305614811730629,-0.2950948594329833,0.0402721611577436,-6.011423629625014,0.20546294071319643,0.0,0.05678826637879479,-0.22294335248959657,-2.8003948217537173,-0.2879744630103235,-0.1436289967941729,-0.004529215630900495,-10.19,-0.06070057903886257,-0.1450033682310935,0.0172357212520226,0.0,0.0,186.86762439720556,76.5797138371094
0.36000000000001364,0.041448103382657836,-5.9970874815697,1.5512118992120876,5.195897372885661,1.2663067339348386,-0.29895424111455415,0.04018709568086929,-6.0113994998918745,0.20925347855195084,0.0,0.05596260359984786,-0.22337135032146405,-2.838381362086594,-0.2725323918859703,-0.15995588383929957,-0.0025930428985140638,-10.19,-0.06004906509175982,-0.14038577077895778,0.017265086207139357,0.0,0.0,185.17485560537287,81.2501450158805
0.3640000000000043,0.04141273603607602,-5.996935882917159,1.5395570026597432,5.139777873602186,1.223148678226449,-0.3026827593108571,0.04010160425427327,-6.011375249333537,0.21306299681139884,0.0,0.054898745108634364,-0.223895565731321,-2.8763573334282304,-0.2566115066158383,-0.17651830573339927,-0.0006719110791294525,-10.19,-0.05966897721204541,-0.13544922459783615,0.017291566537411294,0.0,0.0,183.17460466853805,86.22750999745946
0.3680000000000092,0.04137748453074724,-5.996784561499059,1.5277506346181584,5.087405974296562,1.176133281736705,-0.3062782192907091,0.040015695067042945,-6.011350880272923,0.21689113058386172,0.0,0.05358719043979541,-0.22452721905322068,-2.9143208898510244,-0.24041549853479785,-0.19319353386976945,0.0012355541225290566,-10.19,-0.05952254162099112,-0.1302144006126057,0.017310369698435277,0.0,0.0,180.86029492735938,91.3587055126493
0.3719999999999999,0.041342346428813154,-5.996633514470119,1.5157928184756704,5.038766239686148,1.125293991453299,-0.30973316862334555,0.039929376225037276,-6.0113263950093465,0.22073751867034042,0.0,0.05201985344967208,-0.2252754876913987,-2.952271097839411,-0.22413447271307216,-0.20984571415111225,0.0031354130198476492,-9.713288741651077,-0.05955593324129989,-0.1247225786237193,0.01731525445381838,54.16523906891992,0.0,213.79541718730522,152.47530501145627
0.3760000000000048,0.04130731908807198,-5.9964827411937165,1.503683613218553,4.993800223133835,1.0706946443875578,-0.3129994504327575,0.039842655751591266,-6.011301795818713,0.22460180354912282,0.0,0.05019036512181061,-0.2261472271227738,-2.990203794670225,-0.20796280208793014,-0.22632357714781498,0.0051055177515993665,-8.87108677170789,-0.059745219421601894,-0.11901492552217349,0.017258355744588755,163.4527479221525,0.0,263.09344660926814,220.88636673166215
0.38000000000000966,0.04127240580054105,-5.99633226652658,1.4914235045893183,4.952444939570685,1.0123357894933587,-0.31599067775900014,0.039755541588219555,-6.011277084953717,0.22848363134443217,0.0,0.04809310497832115,-0.2271461903734659,-3.0280721413237535,-0.1920328761552902,-0.2426319927499457,0.007289682957210751,-8.025128353016036,-0.060356793751535034,-0.11309062123240876,0.017093024139659643,225.48442056990075,0.0,304.18643989625815,272.6804245066613
0.38400000000000034,0.04123762233867496,-5.996182168633066,1.4790138182214325,4.91455729890753,0.950004680099429,-0.3186410600417713,0.03966804159531143,-6.0112522646440425,0.23238265179545559,0.0,0.045719240009889035,-0.22827249384869389,-3.0657451224383307,-0.17652307630748973,-0.2592299033849529,0.009821372633100553,-7.1771368133532505,-0.061640967804414915,-0.10677928794532107,0.0168397529617252,274.29739257311905,131.12138759842162,339.9363645708586,316.22738066283915
0.38800000000000523,0.04120299929987729,-5.9960325976690765,1.4664568752534568,4.879720460825272,0.8831872960300213,-0.3209895452867126,0.03958016355282047,-6.011227337096558,0.23629851822561587,0.0,0.04305036118122375,-0.22952020540618995,-3.1030108645615564,-0.16204752868458544,-0.27711068769229813,0.012559718662267672,-6.329178030553976,-0.0635339138609901,-0.09974975428544394,0.016618168050478554,315.526799279547,208.0414641326841,372.03812079384744,354.86691996348
0.3920000000000101,0.04116857902865415,-5.995883775282915,1.4537560110652268,4.847168478790938,0.8111178213537402,-0.3232080049250163,0.0394919151609515,-6.011202304495507,0.2402308875119582,0.0,0.04005374729592298,-0.230870942669958,-3.139622878685074,-0.1497926369528036,-0.2974949529442292,0.015208053260959312,-5.483387600850875,-0.06565797441914609,-0.09164667492672088,0.01658512324021106,351.17239010822124,262.88174764328886,401.65207024434085,390.3426046666029
0.3960000000000008,0.0411344113741611,-5.995736000579097,1.440915607947217,4.815921218702859,0.7329533059866324,-0.32537030698738695,0.03940330404083947,-6.011177169002707,0.2441794200549,0.0,0.036683301033184415,-0.23228990691496523,-3.1753262701214493,-0.14101739009470693,-0.32123521982780756,0.017580342913663463,-4.641999719102124,-0.06784476366997694,-0.08228499053844097,0.016633183578429207,382.8888247845696,307.9958667742151,428.98509094056186,423.1446170034485
0.4000000000000057,0.041100552603385215,-5.995589678265949,1.4279414509354265,4.784908974500472,0.647900023013987,-0.3274626933310468,0.039314337735223005,-6.011151932757737,0.2481437797482185,0.0,0.032885542943679874,-0.2337278375184732,-3.2098286982308877,-0.13654903363444637,-0.34854704135377546,0.020028419294904908,-3.808004094638683,-0.07032087484008123,-0.07165471936980011,0.016663017176673484,411.7451116230375,347.2779573829382,454.10798631994805,453.60153454029876
0.4040000000000106,0.041067051544511575,-5.995445278414136,1.4148401567139757,4.753099008187273,0.5553661877409485,-0.32946374214639973,0.039225023709115465,-6.0111265978781265,0.25212363394914633,0.0,0.028608258092352214,-0.23512868786659857,-3.2428504104676383,-0.13664014158036666,-0.3790093963852139,0.022713161710241493,-2.9832760757084458,-0.07268202048431552,-0.05977743555909312,0.016665101825618117,438.18855797551737,382.56620787369246,477.3710171185584,482.00691749649496
0.40800000000000125,0.041033949647878286,-5.995303384530456,1.401619864114347,4.719489980270149,0.45496063619576577,-0.3313283861823345,0.039135369350468005,-6.011101166459548,0.2561186534488267,0.0,0.023806974322491705,-0.23643391955172102,-3.2740928329008954,-0.14121707406679734,-0.4118286889606906,0.025707217291862716,-2.1711188794555767,-0.075516159531227,-0.04683714426215067,0.016610929885522877,462.72877032001475,414.6669788284392,498.8155579456031,508.62679593375003
0.41200000000000614,0.041001265254244405,-5.995164635159049,1.3882894765446832,4.683174214438345,0.3465358044787744,-0.3329939374490956,0.03904538197082738,-6.011075640576,0.2601285124430009,0.0,0.018449210452348215,-0.23758589754985326,-3.3032845669435376,-0.1500208484205271,-0.4460436101951445,0.0289632525262971,-1.3733467288403034,-0.07828652217766893,-0.03289738633320757,0.016478057418059185,485.5579922197792,444.34997199799784,518.6762472767364,533.5433151077215
0.416000000000011,0.040968984877172585,-5.995029702949027,1.3748584302222144,4.643342252367621,0.23017094204917696,-0.3343954364996417,0.03895506880599149,-6.011050022279994,0.2641528885027971,0.0,0.012516080902217818,-0.2385299389546352,-3.330221701412502,-0.16268076897462044,-0.4806508931137549,0.032466494825086734,-0.5913278311956205,-0.08085663461333933,-0.01808696596315057,0.016261242932069788,506.8761245024279,472.04065086822624,537.1251944734963,556.8995559622341
0.4200000000000017,0.040937057836907056,-5.9948993183740615,1.3613370638666176,4.599252172058159,0.10617522266958104,-0.33545681929888843,0.03886443701665694,-6.0110243136027375,0.2681914625458754,0.0,0.006003399308364453,-0.2392152782289602,-3.3547281602249504,-0.17881818144475187,-0.5146409194046793,0.036150842054073984,0.17280233192220606,-0.08356399305699425,-0.002585178813140049,0.015944828634495548,526.9190317374055,497.9480410108185,554.1966275368869,578.8292896301383
0.4240000000000066,0.04090538669391243,-5.9947742277989775,1.3477361144037943,4.55024355657819,-0.02494236262045037,-0.3360988119353693,0.03877349368906149,-6.010998516554318,0.27224391880779936,0.0,-0.0010784098178755193,-0.23959491037338956,-3.376648859061271,-0.19808646420185844,-0.5470718978068081,0.03994898173933183,0.9179029915909211,-0.0860221915987231,0.013501923003037528,0.015521917703486895,545.7639399703941,522.3639357965924,570.0484426370788,599.3799557210149
0.4280000000000115,0.04087382092616392,-5.994655221591287,1.3340671579905532,4.495706405353345,-0.16244904515519548,-0.3362251388874696,0.038682245835624365,-6.010972633123885,0.27630994481350324,0.0,-0.00870401722462488,-0.23962511217726576,-3.395811455516884,-0.22019829523505158,-0.5770049165385576,0.043832052034732914,1.641925622266264,-0.08859548196026001,0.02999721711204459,0.014969365049079145,563.598201675492,545.3869922509632,584.6648504506052,618.6324450087926
0.43200000000000216,0.04084215162723357,-5.994543053340802,1.3203415866830466,4.435111240123196,-0.30547939986902817,-0.33574468031490956,0.038590700395578735,-6.010946665279824,0.2803892313491109,0.0,-0.01683439849712513,-0.2392664377818614,-3.41213271405985,-0.24485076310174372,-0.6036483221729622,0.047742076570467765,2.3448718129363684,-0.09044153604643074,0.04680842975110691,0.014289203939348006,580.4004708946647,567.2975451018459,598.2741863428827,636.5809970911922
0.43600000000000705,0.040810105904341316,-5.994438493068356,1.3065713993973826,4.367965167039378,-0.4529733913814907,-0.33455722597154613,0.03849886423559908,-6.010920614969941,0.28448147243397715,0.0,-0.02541749978417753,-0.2384830036373447,-3.4255315823307564,-0.271791683068393,-0.6262460854147222,0.051649379990586254,3.0251437539408244,-0.0921657606300068,0.06377016629936166,0.013467031307302976,596.3522682571397,588.0896636784398,610.8218980715509,653.3352077507326
0.44000000000001194,0.04077734698288782,-5.99434226921691,1.2927684820844891,4.293833327927357,-0.6037581778805324,-0.3325673510261557,0.038406744150426705,-6.010894484121638,0.28858636529281745,0.0,-0.03438987784364318,-0.2372427739905135,-3.435968024865249,-0.30078425307967016,-0.6441519981413324,0.05549354492866117,3.682585184817661,-0.09314924791917552,0.08073776784008063,0.012504272961485947,611.4474592641676,607.9394411305622,622.4763234333838,668.8849974812821
0.4440000000000026,0.040743471046691355,-5.994255087536698,1.2789449426330954,4.2123227844280215,-0.7565195592528183,-0.3296791295976999,0.03831434686348731,-6.010868274642087,0.29270361032818654,0.0,-0.043677084505505906,-0.2355170310404764,-3.443401347458483,-0.3316201623429048,-0.6567605830611888,0.059244976032779284,4.316363752363184,-0.09360530731544481,0.0975637739624455,0.01139636912630301,625.7849248246928,626.8740402758649,633.2520226460223,683.2969890346677
0.4480000000000075,0.04070801232239427,-5.994177594817259,1.265112674950947,4.123092926290197,-0.9098664667264019,-0.32579759436660355,0.03822167902750377,-6.010841988418403,0.29683291109317395,0.0,-0.05319577821849898,-0.23328092553555377,-3.4478361302210607,-0.364081244619882,-0.6635960353982293,0.06286712672972534,4.926524728536606,-0.09313467558844395,0.11407318011288581,0.010140437811377856,639.3905726153162,645.009135451586,643.2670215875174,696.5679398058645
0.4520000000000124,0.04067044968191254,-5.9941103602089205,1.2512831552843438,4.025858768612813,-1.0623707585913689,-0.3208457876031781,0.03812874722510705,-6.010815627317821,0.3009739742641822,0.0,-0.06285604582104035,-0.23051361596043543,-3.449328140301232,-0.3979393879200803,-0.6643491451146513,0.06632460351266402,5.513533576704372,-0.09151929580357092,0.1301104277219728,0.008753548055388732,652.2884592318727,662.4052487130613,652.6400079222622,708.748141110755
0.45600000000000307,0.040630204746123715,-5.994053902231599,1.2374679016764574,3.9203865468522525,-1.2125160796743748,-0.3147548839512098,0.03803555796943931,-6.010789193187862,0.3051265096140502,0.0,-0.07256320780336303,-0.22719834191847754,-3.4479328168294274,-0.43295842599163314,-0.6587560011837977,0.0695750921867527,6.076936594012693,-0.0890552653235995,0.14555127476385943,0.007241964905435423,664.5556984209087,679.0476368373778,661.3745150614003,719.9122668832441
0.46000000000000796,0.0405866528305296,-5.994008662623745,1.2236781572629516,3.80650616729083,-1.358754545848832,-0.30746888919502136,0.03794211770475236,-6.0107626878565075,0.3092902299853883,0.0,-0.08221856205919598,-0.2233226001682575,-3.4436898169556045,-0.4688905122783068,-0.6465680632515995,0.07257653861978866,6.616921498891568,-0.085458706657669,0.16018354994269063,0.0056177714481557665,676.2052037314834,694.9873981527498,669.5799630531245,730.067272632446
0.46400000000001285,0.040539133629447555,-5.993974995095567,1.209924772637832,3.684114353024585,-1.4995374879438543,-0.2989438612695417,0.03784843280700427,-6.010736113132366,0.313464851263991,0.0,-0.09172067454414709,-0.21887867866511362,-3.4366686565472664,-0.5054614050387568,-0.6276647463494356,0.0753120267748326,7.13392351238031,-0.08060443459255213,0.1738225881058427,0.0038926637654077435,687.2695515449132,710.2585331166891,677.340176956888,739.241700015512
0.4680000000000035,0.0404869664030803,-5.993953149397762,1.1962179921468052,3.5531728994549012,-1.6333611982132634,-0.28915532985254644,0.03775450958444845,-6.0107094708048425,0.3176500923525901,0.0,-0.10096860665977811,-0.21386391526690257,-3.4269876285758927,-0.5423854099939773,-0.6021070840946221,0.07776329021719211,7.628824089092788,-0.07430439282427945,0.18627537512283798,0.0020874970284560767,697.7683457804943,724.8941967510669,684.7649094714271,747.470472946488
0.4720000000000084,0.04042945823871842,-5.993943277767329,1.1825675829229647,3.4137154017366735,-1.7587616691018195,-0.27810984624766666,0.03766035427821792,-6.0106827626443,0.32184567514481616,0.0,-0.10986415588037399,-0.2082805388725701,-3.4147817490007286,-0.5793704267818558,-0.5700601027748196,0.07989542298796294,8.102262130713406,-0.06662865523708483,0.1974133388934959,0.00023741636250308035,707.7187549915516,738.8781582962109,691.932172370786,754.8327749996442
0.4760000000000133,0.04036589826860289,-5.993945466251323,1.1689834105016106,3.2658721111429467,-1.8742361797500888,-0.2658255063620787,0.03756597306290814,-6.0106559904022285,0.32605132449923035,0.0,-0.11831167762312196,-0.20213602765301558,-3.400121066646247,-0.6160698973915807,-0.5315679246063107,0.08167822088175866,8.55372353523843,-0.057974889642646035,0.20717513849355682,-0.0016439110442893479,717.1708541415564,752.1675857805856,698.8155369552518,761.3983366009786
0.480000000000004,0.04029558313216216,-5.993959702460971,1.1554749187497457,3.109829870942803,-1.9783146175078123,-0.2523508536411008,0.037471372047152146,-6.010629155811407,0.33026676821369466,0.0,-0.12621725921345134,-0.19544317208540718,-3.383062025744357,-0.6521555477992351,-0.4866530929023619,0.08306745972368024,8.983746556924132,-0.0479847773011002,0.21522013007667376,-0.0035202610650255737,726.1072507465755,764.7676788772521,705.5667619701004,767.1625249611534
0.48400000000000887,0.040217822674517595,-5.9939858859450785,1.1420513594211161,2.945949125623025,-2.0696191990087525,-0.2377618704446699,0.037376557274191195,-6.010602260586067,0.3344917369999446,0.0,-0.13349009679284696,-0.18822139742272337,-3.363665293006229,-0.6871612112233831,-0.4354968482553813,0.08404776420543411,9.392417009299141,-0.036908900841673434,0.221487790230745,-0.005357670457794396,734.5427101347348,776.6391224917126,712.2119574547859,772.2063189238249
0.48800000000001376,0.04013195396719598,-5.994023823680259,1.1287217149056865,2.7747151851300442,-2.1468532487138643,-0.22216351461756703,0.0372815347224439,-6.01057530642205,0.3387259644582276,0.0,-0.1400456001747576,-0.18049787499626307,-3.3420019313611546,-0.7205004614775421,-0.3784556572609168,0.08457198813278491,9.77998361546004,-0.024786734880977504,0.22580802263795718,-0.007119248989306312,742.4781151021168,787.7537541104222,718.8216881458819,776.577362741505
0.49200000000000443,0.04003735644947139,-5.994073227555264,1.1154946239565615,2.5967241051109426,-2.2088210609773897,-0.2056719639949124,0.03718631030606791,-6.010548294996969,0.3429691870522757,0.0,-0.14580670109174287,-0.17230839457021302,-3.3181474127489468,-0.7516286059002286,-0.3159279772729632,0.08465066865720453,10.146854427750696,-0.011668067487366915,0.2280135274436581,-0.008787650497288078,749.941098419333,798.1073680695278,725.4409604202951,780.3019502568061
0.4960000000000093,0.03993347265454297,-5.994133706671519,1.102378157220546,2.4126475844799153,-2.2544615049413363,-0.18843014426834742,0.03709088987551707,-6.0105212279703695,0.3472211440844763,0.0,-0.15070492319579212,-0.1636951473476226,-3.2922066123497173,-0.7801166593822616,-0.24839095182952992,0.08428725613186364,10.19,0.0024944364663689045,0.22790406817746361,-0.010326920976484492,751.0428344226406,802.1673500944738,726.0662340852977,777.7273775006237
0.5,0.039819815012204496,-5.994204778363219,1.0893799749997926,2.223284568102857,-2.282848096123204,-0.17060772024147952,0.036995279218097664,-6.010494106983883,0.3514815776710884,0.0,-0.15468157544696184,-0.15470576946765294,-3.2643041921557434,-0.8055438942948296,-0.17641386738129355,0.08347735951638355,10.19,0.01747223101392452,0.2254320499480567,-0.011700008305973357,751.2789902748108,805.0697922029173,726.4085477253509,774.1724465088813
0.5040000000000049,0.03969599670954413,-5.994285854235882,1.07650681429854,2.0295497184700433,-2.293203943867686,-0.1523821285495293,0.0368994840585151,-6.010466933661382,0.35575023271788003,0.0,-0.1576885676886533,-0.14539364976873972,-3.2345993045872348,-0.827418254526491,-0.10060345953473915,0.08222881083057537,10.19,0.033324550469629746,0.2202888092622703,-0.012890907308207477,751.4995015011999,807.5640201061882,727.399905619032,770.420714069132
0.5080000000000098,0.03956175053650168,-5.9943762439716295,1.0637642775233314,1.832422780867308,-2.2849155819597216,-0.13394730802715643,0.03680351005942142,-6.010439709609139,0.3600268568957324,0.0,-0.1596888384362969,-0.13581718183062852,-3.2033212501523805,-0.8453073819172884,-0.021621239460801557,0.08055948154334808,10.19,0.04996759553567877,0.21230432271112537,-0.013873082832151952,751.7012136705274,809.5968397473126,729.081114551472,766.4912377384308
0.5120000000000005,0.03941693161113158,-5.994475173788921,1.051156999831804,1.633012081291283,-2.2575650582190927,-0.11551076100096982,0.03670736282195506,-6.010412436415978,0.3643112006165871,0.0,-0.1606568644959659,-0.12603849332499756,-3.1707341278777754,-0.8588045812800686,0.0597802148722568,0.07848720364644508,10.19,0.06706616604569188,0.20152705105699387,-0.014622741428708601,751.8880792245993,811.1144525513994,731.4319531112179,762.4531499299372
0.5160000000000053,0.03926151758680344,-5.9945818047168276,1.0386888110351116,1.432531657020087,-2.2109391013193176,-0.09727766414867871,0.036611047886276366,-6.010385115653423,0.3686030170095845,0.0,-0.16057929176825605,-0.11612363598942585,-3.1370687801704875,-0.8674325351305395,0.14276360654556158,0.07604018585622538,10.19,0.08429056769255239,0.1880542946932489,-0.015134079230592599,752.0796809551874,812.0885585750214,734.4031186600666,758.360226090638
0.5200000000000102,0.03909560719263265,-5.994695249842275,1.0263628730849066,1.2322184101960645,-2.14500216396485,-0.0794510017261271,0.03651457073210191,-6.0103577488758555,0.3729020618972536,0.0,-0.15945474369765927,-0.10614175206491325,-3.1025160757780825,-0.870839515384227,0.22648814438400885,0.07325958758920749,10.19,0.10139780288468342,0.17198292686384953,-0.01540121791531213,752.2856101048432,812.4990046462556,737.9547168040293,754.2575229407398
0.5240000000000009,0.03891941816966738,-5.9948145889568885,1.0141817942553546,1.0333325736973353,-2.059899730424559,-0.062226785868557205,0.03641793677923154,-6.010330337620659,0.3772080937720272,0.0,-0.15729282020356267,-0.09616262539411195,-3.06723288158442,-0.8688841690954783,0.31017103574175614,0.07019065900998112,10.19,0.11815883687364095,0.1534320221106248,-0.015423938461008872,752.5181793727228,812.3347355498695,742.0382633704919,750.1851301610681
0.5280000000000058,0.038733284790813866,-5.994938881296184,1.0021477239887668,0.8372009875431053,-1.9560025901628075,-0.04579002054993512,0.03632115138807122,-6.010302883408371,0.38152087377294286,0.0,-0.15411374586154422,-0.0862557359912247,-3.031347675262294,-0.8613798521321596,0.3929544529896732,0.06687507020100496,10.19,0.13430240070277008,0.1325893742186322,-0.015207009192827985,752.792707667223,811.5919098321253,746.5862155436297,746.1907133074781
0.5320000000000107,0.038537654198463465,-5.99506717767817,0.9902624321337253,0.6452170924470682,-1.8339303277611392,-0.03030814486734271,0.036224219860154845,-6.010275387742827,0.3858401656623918,0.0,-0.14994905624757263,-0.07649106321321078,-2.9949651399547004,-0.848057212204804,0.473852250966181,0.0633581554446457,10.19,0.1495486676965161,0.10969970779471377,-0.014763296831783079,753.1287793926051,810.2797165428403,751.5143580406797,742.3205769454003
0.5360000000000014,0.038333081940197286,-5.99519853173747,0.97852737426112,0.4588554172090155,-1.694597222054429,-0.01592596122743535,0.03612714743865885,-6.010247852111312,0.39016573580318825,0.0,-0.14484308587913713,-0.06694013522407659,-2.958170062023238,-0.8285890880635979,0.5517223514887124,0.05969149419073609,10.19,0.1635961195508957,0.08508921873914994,-0.014112302359805734,753.5471426385488,808.4200600839138,756.7202434261224,738.6257713837892
0.5400000000000063,0.038120225026246866,-5.9953320116278865,0.9669437471449754,0.2795920457946811,-1.5391417483787153,-0.0027597598373375254,0.03602993930891267,-6.010220277984699,0.39449735313582146,0.0,-0.1388529799780604,-0.057675336787037755,-2.9210306724439983,-0.8027529906831663,0.6254321360890651,0.05592902964091171,10.19,0.1762148523307046,0.05905325628898801,-0.01328130970863132,754.0732512346433,806.0470838881964,762.1060819599589,735.1365838096874
0.5440000000000111,0.03789983436735177,-5.995466710659928,0.9555125340740864,0.10886900252634144,-1.3688904132837512,0.00910398521391096,0.03593260059890832,-6.010192666817598,0.39883478915575027,0.0,-0.13204712810118333,-0.048768040562000244,-2.8836016062356036,-0.7705375047242862,0.6940216897188163,0.05212029871649855,10.19,0.18721801251808687,0.031872247152957334,-0.012300288677475955,754.7324895773631,803.200379217786,767.5799532710824,731.8735423726635
0.5480000000000018,0.037672746327450705,-5.995601757247298,0.944234542274469,-0.05194293801820305,-1.1853110140574235,0.01961580617803913,0.03583513637980281,-6.010165020048496,0.4031778178910149,0.0,-0.12450182872138907,-0.04028590748106728,-2.845926617721045,-0.7321208273054175,0.7567291768775665,0.04831827389197222,10.19,0.19646243896794616,0.0038007259038329994,-0.011208826691176777,755.559695049725,799.9321162072463,773.048863824923,728.837058267173
