Time_s,X,Y,Z,Roll_deg,Pitch_deg,Yaw_deg,Ref_X,Ref_Y,Ref_Z,Ref_Yaw,vx,vy,vz,p,q,r,T_pert,tau_x,tau_y,tau_z,RPM_0,RPM_1,RPM_2,RPM_3
0.0,3.1138971096129686,0.33951284439474955,0.024999900205492163,179.9999811714937,5.5381762580215965e-05,65.10175154896581,3.111094602214317,0.3392072828347943,0.0018,0.0,0.0,0.0,0.0,0.0,0.0,0.0,-0.7399482538690701,-1.0,-0.02715478968625433,-0.2,898.7950548261148,673.663440965273,0.0,259.45929757999835
0.003999999999997783,3.1138971096129686,0.33951284439474955,0.024999900205492163,179.9999811714937,5.5381762580215965e-05,65.10175154896581,3.11054092764261,0.3391469148707633,0.0022276151999997256,0.0,0.0,0.0,0.0,0.0,0.0,0.0,0.12781100404520473,-1.0,-1.0,-0.2,1000.4278944099,558.1698623265495,0.0,0.0
0.003999999999997783,3.1138971096129686,0.33951284439474955,0.024999900205492163,179.9999811714937,5.5381762580215965e-05,65.10175154896581,3.1079416777193596,0.3388635147763892,0.0060354017863195495,0.0,0.0,0.0,0.0,0.0,0.0,0.0,-0.6054174945887772,-1.0,-0.05992819753637707,-0.2,904.1098102051124,672.3905383484598,0.0,256.13615806454527
0.007999999999995566,3.1138971096129686,0.33951284439474955,0.024999900205492163,179.9999811714937,5.5381762580215965e-05,65.10175154896581,3.107428280330074,0.33880753829360716,0.006859603141311548,0.0,0.0,0.0,0.0,0.0,0.0,0.0,1.0672368070025913,-1.0,-1.0,-0.2,1014.065641581413,582.2600353211066,0.0,0.0
0.007999999999995566,3.1138971096129686,0.33951284439474955,0.024999900205492163,179.9999811714937,5.5381762580215965e-05,65.10175154896581,3.1050211345467837,0.33854508360002245,0.012527175866948907,0.0,0.0,0.0,0.0,0.0,0.0,0.0,-0.3988177268622888,-1.0,-0.09296603978949505,-0.2,910.5766014136342,672.649762209348,0.0,256.81588348041566
0.01199999999999335,3.1138971096129686,0.33951284439474955,0.024999900205492163,179.9999811714937,5.5381762580215965e-05,65.10175154896581,3.104545802075108,0.33849325739195874,0.013718637259202946,0.0,0.0,0.0,0.0,0.0,0.0,0.0,2.0192228072723206,-1.0,-1.0,-0.2,1027.7011225033643,605.6956500511525,0.0,0.0
0.01199999999999335,3.1138971096129686,0.33951284439474955,0.024999900205492163,179.9999811714937,5.5381762580215965e-05,65.10175154896581,3.1023201556350157,0.3382505918423617,0.02110615902926675,0.0,0.0,0.0,0.0,0.0,0.0,0.0,-0.12549028412048752,-1.0,-0.1262580245433638,-0.2,918.0850538688666,674.3248472269678,0.0,261.1717729679218
0.015999999999998238,3.1138971096129686,0.33951284439474955,0.024999900205492163,179.9999811714937,5.5381762580215965e-05,65.10175154896581,3.101880784668796,0.3382026865708532,0.02263717350930824,0.0,0.0,0.0,0.0,0.0,0.0,0.0,2.9817131232801106,-1.0,-1.0,-0.2,1041.305557321163,628.5020978518297,92.25823763591535,92.25823763591535
0.015999999999998238,3.1138971096129686,0.33951284439474955,0.024999900205492163,179.9999811714937,5.5381762580215965e-05,65.10175154896581,3.0998265558200164,0.3379787109368048,0.031612568109336076,0.0,0.0,0.0,0.0,0.0,0.0,0.0,0.2095186183386261,-1.0,-0.15979426743576253,-0.2,926.5292916051432,677.297612343997,0.0,268.7540717727146
0.01999999999999602,3.1138971096129686,0.33951284439474955,0.024999900205492163,179.9999811714937,5.5381762580215965e-05,65.10175154896581,3.0994211467394344,0.33793450858032137,0.03345696802984859,0.0,0.0,0.0,0.0,0.0,0.0,0.0,3.9527849395725774,-1.0,-1.0,-0.2,1054.853493601134,650.7023253829133,192.120305189912,192.120305189912
0.01999999999999602,3.1138971096129686,0.33951284439474955,0.024999900205492163,179.9999811714937,5.5381762580215965e-05,65.10175154896581,3.0975287524272836,0.33772817800708205,0.04389553638503535,0.0,0.0,0.0,0.0,0.0,0.0,0.0,0.6014433216616083,-1.0,-0.193565275276744,-0.2,935.8086489343206,681.4500252554063,0.0,279.05345783223703
0.023999999999993804,3.1138971096129686,0.33951284439474955,0.024999900205492163,179.9999811714937,5.5381762580215965e-05,65.10175154896581,3.0971554045720615,0.33768747133379995,0.04602861725270919,0.0,0.0,0.0,0.0,0.0,0.0,0.0,4.930641488852538,-1.0,-1.0,-0.2,1068.3224883788787,672.317307877949,255.94385689011372,255.9438568901136
0.023999999999993804,3.1138971096129686,0.33951284439474955,0.024999900205492163,179.9999811714937,5.5381762580215965e-05,65.10175154896581,3.0954157371870537,0.33749779280512876,0.05781267157525433,0.0,0.0,0.0,0.0,0.0,0.0,0.0,1.0457848397532854,-1.0,-0.22756193034575106,-0.2,945.8281669637596,686.6660348035413,0.0,291.5594943752516
0.027999999999998693,3.1138971096129686,0.33951284439474955,0.024999900205492163,179.9999811714937,5.5381762580215965e-05,65.10175154896581,3.095072644241183,0.3374603848697205,0.06021111945321553,0.0,0.0,0.0,0.0,0.0,0.0,0.0,5.913605372531805,-1.0,-1.0,-0.2,1081.6928156639626,693.3664044033605,307.0075995195862,307.00759951958617
0.027999999999998693,3.1138971096129686,0.33951284439474955,0.024999900205492163,179.9999811714937,5.5381762580215965e-05,65.10175154896581,3.0934770494144277,0.33728641478687454,0.07322963447211146,0.0,0.0,0.0,0.0,0.0,0.0,0.0,1.5382976230757,-1.0,-0.26177547532623785,-0.2,956.4988978570608,692.833114535751,0.0,305.8012753486211
0.031999999999996476,3.1138971096129686,0.33951284439474955,0.024999900205492163,179.9999811714937,5.5381762580215965e-05,65.10175154896581,3.093162494998828,0.33725211844997005,0.07587145677300282,0.0,0.0,0.0,0.0,0.0,0.0,0.0,6.900112204243877,-1.0,-1.0,-0.2,1094.9471986912642,713.8676286385736,350.86134957500576,350.8613495750057
0.031999999999996476,3.1138971096129686,0.33951284439474955,0.024999900205492163,179.9999811714937,5.5381762580215965e-05,65.10175154896581,3.091702750398662,0.3370929603198693,0.09001973727610336,0.0,0.0,0.0,0.0,0.0,0.0,0.0,2.0749769407621432,-1.0,-0.2961974988517603,-0.2,967.7380439049865,699.8434920059188,0.0,321.36833806486396
0.03599999999999426,3.1138971096129686,0.33951284439474955,0.024999900205492163,179.9999811714937,5.5381762580215965e-05,65.10175154896581,3.091415103862601,0.3370615977891881,0.09288419679297248,0.0,0.0,0.0,0.0,0.0,0.0,0.0,7.888704561454009,-1.0,-1.0,-0.2,1100.0,733.8378581730423,389.89062247703805,389.89062247703805
0.03599999999999426,3.1138971096129686,0.33951284439474955,0.024999900205492163,179.9999811714937,5.5381762580215965e-05,65.10175154896581,3.0900833989482894,0.33691640001693135,0.10806356074515114,0.0,0.0,0.0,0.0,0.0,0.0,0.0,2.652046853163231,-1.0,-0.33081992163853025,-0.2,979.4689598351988,707.5950648538706,0.0,337.9163671873375
0.03999999999999915,3.1138971096129686,0.33951284439474955,0.024999900205492163,179.9999811714937,5.5381762580215965e-05,65.10175154896581,3.089821111350805,0.33688780240913097,0.1111311127739186,0.0,0.0,0.0,0.0,0.0,0.0,0.0,8.87802623096072,-1.0,-1.0,-0.2,1100.0,753.2929983885152,425.3786981369585,425.37869813695863
0.03999999999999915,3.1138971096129686,0.33951284439474955,0.024999900205492163,179.9999811714937,5.5381762580215965e-05,65.10175154896581,3.088610028041066,0.3367557561902565,0.12724858930761154,0.0,0.0,0.0,0.0,0.0,0.0,0.0,3.265948748167861,-1.0,-0.36563498318033705,-0.2,991.6210460537978,715.9920245148038,0.0,355.16372925221617
0.04399999999999693,3.1138971096129686,0.33951284439474955,0.024999900205492163,179.9999811714937,5.5381762580215965e-05,65.10175154896581,3.088371628313998,0.3367297631125823,0.1305008217214524,0.0,0.0,0.0,0.0,0.0,0.0,0.0,9.866816734725456,-1.0,-1.0,-0.2,1100.0,772.2481123398115,458.1089853080118,458.10898530801194
0.04399999999999693,3.1138971096129686,0.33951284439474955,0.024999900205492163,179.9999811714937,5.5381762580215965e-05,65.10175154896581,3.0872741225299483,0.33661010042066736,0.14746886332696346,0.0,0.0,0.0,0.0,0.0,0.0,0.0,3.913330415822074,-1.0,-0.4006352289828488,-0.2,1004.1295583702484,724.9452212935576,0.0,372.8837208620126
0.047999999999994714,3.1138971096129686,0.33951284439474955,0.024999900205492163,179.9999811714937,5.5381762580215965e-05,65.10175154896581,3.0870582138145553,0.33658655957152805,0.15088843946913078,0.0,0.0,0.0,0.0,0.0,0.0,0.0,10.19,-1.0,-1.0,-0.2,1100.0,778.3434459107903,468.31102399988123,468.3110239998813
0.047999999999994714,3.1138971096129686,0.33951284439474955,0.024999900205492163,179.9999811714937,5.5381762580215965e-05,65.10175154896581,3.0860675978584253,0.3364785512369141,0.16862464774180383,0.0,0.0,0.0,0.0,0.0,0.0,0.0,4.590532082738128,-1.0,-0.4358134983152888,-0.2,1016.9281162688786,734.3622847151919,0.0,390.8767844470308
0.0519999999999996,3.1138971096129686,0.33951284439474955,0.024999900205492163,179.9999811714937,5.5381762580215965e-05,65.10175154896581,3.085872854007917,0.33645731802454804,0.1721952520091697,0.0,0.0,0.0,0.0,0.0,0.0,0.0,10.19,-1.0,-1.0,-0.2,1100.0,778.3434459107903,468.31102399988123,468.3110239998813
0.0519999999999996,3.1138971096129686,0.33951284439474955,0.024999900205492163,179.9999811714937,5.5381762580215965e-05,65.10175154896581,3.0849827797405736,0.3363602719001609,0.1906221163389606,0.0,0.0,0.0,0.0,0.0,0.0,0.0,5.295001926549542,-1.0,-0.47116291245823194,-0.2,1029.969105124106,744.1762637118907,0.0,409.0171229664153
0.055999999999997385,3.1138971096129686,0.33951284439474955,0.024999900205492163,179.9999811714937,5.5381762580215965e-05,65.10175154896581,3.084807941981222,0.3363412090785918,0.19432840233433699,0.0,0.0,0.0,0.0,0.0,0.0,0.0,10.19,-1.0,-1.0,-0.2,1100.0,778.3434459107903,468.31102399988123,468.3110239998813
0.055999999999997385,3.1138971096129686,0.33951284439474955,0.024999900205492163,179.9999811714937,5.5381762580215965e-05,65.10175154896581,3.0840123847631378,0.3362544682890015,0.21337305095051487,0.0,0.0,0.0,0.0,0.0,0.0,0.0,6.023943110246001,-1.0,-0.506676863427263,-0.2,1043.203685950036,754.3182080112025,111.66131417589851,427.1915897402077
0.05999999999999517,3.1138971096129686,0.33951284439474955,0.024999900205492163,179.9999811714937,5.5381762580215965e-05,65.10175154896581,3.083856258506939,0.3362374456105183,0.21720059208723527,0.0,0.0,0.0,0.0,0.0,0.0,0.0,10.19,-1.0,-1.0,-0.2,1100.0,778.3434459107903,468.31102399988123,468.3110239998813
0.05999999999999517,3.1138971096129686,0.33951284439474955,0.024999900205492163,179.9999811714937,5.5381762580215965e-05,65.10175154896581,3.0831495018687995,0.336160386880553,0.2367945548969526,0.0,0.0,0.0,0.0,0.0,0.0,0.0,6.77472675844481,-1.0,-0.5423490031531171,-0.2,1056.5876858370207,764.7255200870119,201.42456793097048,445.31092113251043
0.06400000000000006,3.1138971096129686,0.33951284439474955,0.024999900205492163,179.9999811714937,5.5381762580215965e-05,65.10175154896581,3.0828988533750357,0.3361330583015841,0.2407297973441813,0.0,0.0,0.0,0.0,0.0,0.0,0.0,10.19,-1.0,-1.0,-0.2,1100.0,778.3434459107903,468.31102399988123,468.3110239998813
0.06400000000000006,3.1138971096129686,0.33951284439474955,0.024999900205492163,179.9999811714937,5.5381762580215965e-05,65.10175154896581,3.0817487038849602,0.33600765578791425,0.26080878002852376,0.0,0.0,0.0,0.0,0.0,0.0,0.0,7.544883357952637,-1.0,-0.5843684314970388,-0.2,1070.579983133761,774.6528497230255,265.20901000990045,462.15120143902953
0.06799999999999784,3.1138971096129686,0.33951284439474955,0.024999900205492163,179.9999811714937,5.5381762580215965e-05,65.10175154896581,3.0815225916883278,0.33598300243800294,0.26483899789086657,0.0,0.0,0.0,0.0,0.0,0.0,0.0,10.19,-1.0,-1.0,-0.2,1100.0,778.3434459107903,468.31102399988123,468.3110239998813
0.06799999999999784,3.1138971096129686,0.33951284439474955,0.024999900205492163,179.9999811714937,5.5381762580215965e-05,65.10175154896581,3.080489001430286,0.33587030855118083,0.28534266674578646,0.0,0.0,0.0,0.0,0.0,0.0,0.0,8.332094566832144,-1.0,-0.6265861181663528,-0.2,1084.6374432581486,784.7506258263493,317.2265783652452,478.88437032584494
0.07199999999999562,3.1138971096129686,0.33951284439474955,0.024999900205492163,179.9999811714937,5.5381762580215965e-05,65.10175154896581,3.080285966687192,0.33584817137043516,0.28945591937551346,0.0,0.0,0.0,0.0,0.0,0.0,0.0,10.19,-1.0,-1.0,-0.2,1100.0,778.3434459107903,468.31102399988123,468.3110239998813
0.07199999999999562,3.1138971096129686,0.33951284439474955,0.024999900205492163,179.9999811714937,5.5381762580215965e-05,65.10175154896581,3.0793619534232817,0.3357474248266524,0.3103276964078033,0.0,0.0,0.0,0.0,0.0,0.0,0.0,9.134185413366483,-1.0,-0.6689944081115677,-0.2,1098.728019832966,794.97317908075,362.4880415542262,495.45842496145764
0.0759999999999934,3.1138971096129686,0.33951284439474955,0.024999900205492163,179.9999811714937,5.5381762580215965e-05,65.10175154896581,3.079180611667956,0.33572765286470535,0.31451278775231073,0.0,0.0,0.0,0.0,0.0,0.0,0.0,10.19,-1.0,-1.0,-0.2,1100.0,778.3434459107903,468.31102399988123,468.3110239998813
0.0759999999999934,3.1138971096129686,0.33951284439474955,0.024999900205492163,179.9999811714937,5.5381762580215965e-05,65.10175154896581,3.0783595502660748,0.33563813131593134,0.3356996555625296,0.0,0.0,0.0,0.0,0.0,0.0,0.0,9.94911686713439,-1.0,-0.7115859473896753,-0.2,1100.0,805.2795206319348,403.1991515209312,511.8318100281897
0.0799999999999983,3.1138971096129686,0.33951284439474955,0.024999900205492163,179.9999811714937,5.5381762580215965e-05,65.10175154896581,3.078198587885199,0.3356205813475644,0.3399460954542338,0.0,0.0,0.0,0.0,0.0,0.0,0.0,10.19,-1.0,-1.0,-0.2,1100.0,778.3434459107903,468.31102399988123,468.3110239998813
0.0799999999999983,3.1138971096129686,0.33951284439474955,0.024999900205492163,179.9999811714937,5.5381762580215965e-05,65.10175154896581,3.077474193364641,0.3355415995329824,0.36139841145931034,0.0,0.0,0.0,0.0,0.0,0.0,0.0,10.19,-1.0,-0.7543536711364356,-0.2,1100.0,805.077430667906,420.6947416135167,511.51379725122877
0.08399999999999608,3.1138971096129686,0.33951284439474955,0.024999900205492163,179.9999811714937,5.5381762580215965e-05,65.10175154896581,3.0773323642323636,0.335526135691236,0.36569637875909855,0.0,0.0,0.0,0.0,0.0,0.0,0.0,10.19,-1.0,-1.0,-0.2,1100.0,778.3434459107903,468.31102399988123,468.3110239998813
0.08399999999999608,3.1138971096129686,0.33951284439474955,0.024999900205492163,179.9999811714937,5.5381762580215965e-05,65.10175154896581,3.0766986755815022,0.3354570436728612,0.3873676983272311,0.0,0.0,0.0,0.0,0.0,0.0,0.0,10.19,-1.0,-0.7972907920251018,-0.2,1100.0,800.4689278800853,429.398684779783,504.22931282208026
0.08799999999999386,3.1138971096129686,0.33951284439474955,0.024999900205492163,179.9999811714937,5.5381762580215965e-05,65.10175154896581,3.076574797847717,0.3354435370988564,0.3917080058367519,0.0,0.0,0.0,0.0,0.0,0.0,0.0,10.19,-1.0,-1.0,-0.2,1100.0,778.3434459107903,468.31102399988123,468.3110239998813
0.08799999999999386,3.1138971096129686,0.33951284439474955,0.024999900205492163,179.9999811714937,5.5381762580215965e-05,65.10175154896581,3.0760261625795158,0.3353837185775998,0.4135549139262579,0.0,0.0,0.0,0.0,0.0,0.0,0.0,10.19,-1.0,-0.8403907891917821,-0.2,1100.0,795.8161043110169,437.96171420723215,496.8097898474802
0.09199999999999875,3.1138971096129686,0.33951284439474955,0.024999900205492163,179.9999811714937,5.5381762580215965e-05,65.10175154896581,3.075807015308666,0.33535982462393066,0.4179289749878483,0.0,0.0,0.0,0.0,0.0,0.0,0.0,10.19,-1.0,-1.0,-0.2,1100.0,778.3434459107903,468.31102399988123,468.3110239998813
0.09199999999999875,3.1138971096129686,0.33951284439474955,0.024999900205492163,179.9999811714937,5.5381762580215965e-05,65.10175154896581,3.0720087968218954,0.33494569919952427,0.43991092589980896,0.0,0.0,0.0,0.0,0.0,0.0,0.0,10.19,-1.0,-0.9169934439006662,-0.2,1100.0,787.478681548015,452.7814716830854,483.3418762119977
0.09599999999999653,3.1138971096129686,0.33951284439474955,0.024999900205492163,179.9999811714937,5.5381762580215965e-05,65.10175154896581,3.0712597768281706,0.33486403243288865,0.44431072260667753,0.0,0.0,0.0,0.0,0.0,0.0,0.0,10.19,-1.0,-1.0,-0.2,1100.0,778.3434459107903,468.31102399988123,468.3110239998813
0.09599999999999653,3.1138971096129686,0.33951284439474955,0.024999900205492163,179.9999811714937,5.5381762580215965e-05,65.10175154896581,3.0677777564571675,0.33448438256046664,0.46638988747862536,0.0,0.0,0.0,0.0,0.0,0.0,0.0,10.19,-1.0,-0.999421084175653,-0.2,1100.0,778.4075293865623,468.20449932311516,468.41752445145113
0.09999999999999432,3.1138971096129686,0.33951284439474955,0.024999900205492163,179.9999811714937,5.5381762580215965e-05,65.10175154896581,3.0670913695285713,0.33440954477030216,0.4708079404213706,0.0,0.0,0.0,0.0,0.0,0.0,0.0,10.19,-1.0,-1.0,-0.2,1100.0,778.3434459107903,468.31102399988123,468.3110239998813
0.09999999999999432,3.1138971096129686,0.33951284439474955,0.024999900205492163,179.9999811714937,5.5381762580215965e-05,65.10175154896581,3.063907476130243,0.33406240012619076,0.49294906210590533,0.0,0.0,0.0,0.0,0.0,0.0,0.0,10.19,-1.0,-1.0,-0.2,1100.0,778.3434459107903,468.31102399988123,468.3110239998813
0.1039999999999992,3.1138971096129686,0.33951284439474955,0.024999900205492163,179.9999811714937,5.5381762580215965e-05,65.10175154896581,3.063280138421538,0.33399400056050793,0.497378401584539,0.0,0.0,0.0,0.0,0.0,0.0,0.0,10.19,-1.0,-1.0,-0.2,1100.0,778.3434459107903,468.31102399988123,468.3110239998813
0.1039999999999992,3.1138971096129686,0.33951284439474955,0.024999900205492163,179.9999811714937,5.5381762580215965e-05,65.10175154896581,3.0603772064647004,0.3336774895612499,0.5195486565726657,0.0,0.0,0.0,0.0,0.0,0.0,0.0,10.19,-1.0,-1.0,-0.2,1100.0,778.3434459107903,468.31102399988123,468.3110239998813
0.10799999999999699,3.1138971096129686,0.33951284439474955,0.024999900205492163,179.9999811714937,5.5381762580215965e-05,65.10175154896581,3.059805513826543,0.33361515706057054,0.5239827952066805,0.0,0.0,0.0,0.0,0.0,0.0,0.0,10.19,-1.0,-1.0,-0.2,1100.0,778.3434459107903,468.31102399988123,468.3110239998813
0.10799999999999699,3.1138971096129686,0.33951284439474955,0.024999900205492163,179.9999811714937,5.5381762580215965e-05,65.10175154896581,3.057167240863409,0.3333275022259782,0.5461516622708754,0.0,0.0,0.0,0.0,0.0,0.0,0.0,10.19,-1.0,-1.0,-0.2,1100.0,778.3434459107903,468.31102399988123,468.3110239998813
0.11199999999999477,3.1138971096129686,0.33951284439474955,0.024999900205492163,179.9999811714937,5.5381762580215965e-05,65.10175154896581,3.056647960401169,0.33327088430298085,0.5505845689429161,0.0,0.0,0.0,0.0,0.0,0.0,0.0,10.19,-1.0,-1.0,-0.2,1100.0,778.3434459107903,468.31102399988123,468.3110239998813
0.11199999999999477,3.1138971096129686,0.33951284439474955,0.024999900205492163,179.9999811714937,5.5381762580215965e-05,65.10175154896581,3.0542588664629307,0.3330103978289758,0.5727237041894704,0.0,0.0,0.0,0.0,0.0,0.0,0.0,10.19,-1.0,-1.0,-0.2,1100.0,778.3434459107903,468.31102399988123,468.3110239998813
0.11599999999999966,3.1138971096129686,0.33951284439474955,0.024999900205492163,179.9999811714937,5.5381762580215965e-05,65.10175154896581,3.0537889284774877,0.3329591597897887,0.5771497792608441,0.0,0.0,0.0,0.0,0.0,0.0,0.0,10.19,-1.0,-1.0,-0.2,1100.0,778.3434459107903,468.31102399988123,468.3110239998813
0.11599999999999966,3.1138971096129686,0.33951284439474955,0.024999900205492163,179.9999811714937,5.5381762580215965e-05,65.10175154896581,3.0516343173089298,0.3327242393217541,0.5992328972949403,0.0,0.0,0.0,0.0,0.0,0.0,0.0,10.19,-1.0,-1.0,-0.2,1100.0,778.3434459107903,468.31102399988123,468.3110239998813
0.11999999999999744,3.1138971096129686,0.33951284439474955,0.024999900205492163,179.9999811714937,5.5381762580215965e-05,65.10175154896581,3.051210807602546,0.33267806342705314,0.6036469490341727,0.0,0.0,0.0,0.0,0.0,0.0,0.0,10.19,-1.0,-1.0,-0.2,1100.0,778.3434459107903,468.31102399988123,468.3110239998813
0.11999999999999744,3.1138971096129686,0.33951284439474955,0.024999900205492163,179.9999811714937,5.5381762580215965e-05,65.10175154896581,3.0492767296543497,0.33246718802482933,0.6256497099544456,0.0,0.0,0.0,0.0,0.0,0.0,0.0,10.19,-1.0,-1.0,-0.2,1100.0,778.3434459107903,468.31102399988123,468.3110239998813
0.12399999999999523,3.1138971096129686,0.33951284439474955,0.024999900205492163,179.9999811714937,5.5381762580215965e-05,65.10175154896581,3.0488968821854647,0.33242577268897927,0.6300469321227307,0.0,0.0,0.0,0.0,0.0,0.0,0.0,10.19,-1.0,-1.0,-0.2,1100.0,778.3434459107903,468.31102399988123,468.3110239998813
0.12399999999999523,3.1138971096129686,0.33951284439474955,0.024999900205492163,179.9999811714937,5.5381762580215965e-05,65.10175154896581,3.044367591887738,0.33193193741506366,0.6519468340747717,0.0,0.0,0.0,0.0,0.0,0.0,0.0,10.19,-1.0,-1.0,-0.2,1100.0,778.3434459107903,468.31102399988123,468.3110239998813
0.1280000000000001,3.1138971096129686,0.33951284439474955,0.024999900205492163,179.9999811714937,5.5381762580215965e-05,65.10175154896581,3.0434751071875445,0.3318346284775891,0.6563227846144737,0.0,0.0,0.0,0.0,0.0,0.0,0.0,10.19,-1.0,-1.0,-0.2,1100.0,778.3434459107903,468.31102399988123,468.3110239998813
0.1280000000000001,3.1138971096129686,0.33951284439474955,0.024999900205492163,179.9999811714937,5.5381762580215965e-05,65.10175154896581,3.039343808898822,0.33138418686578464,0.6780990616448948,0.0,0.0,0.0,0.0,0.0,0.0,0.0,10.19,-1.0,-1.0,-0.2,1100.0,778.3434459107903,468.31102399988123,468.3110239998813
0.1319999999999979,3.1138971096129686,0.33951284439474955,0.024999900205492163,179.9999811714937,5.5381762580215965e-05,65.10175154896581,3.0385301482757963,0.33129547223496314,0.6824496424198844,0.0,0.0,0.0,0.0,0.0,0.0,0.0,10.19,-1.0,-1.0,-0.2,1100.0,778.3434459107903,468.31102399988123,468.3110239998813
0.1319999999999979,3.1138971096129686,0.33951284439474955,0.024999900205492163,179.9999811714937,5.5381762580215965e-05,65.10175154896581,3.0347737736127782,0.3308859091050458,0.7040831673841689,0.0,0.0,0.0,0.0,0.0,0.0,0.0,10.19,-1.0,-1.0,-0.2,1100.0,778.3434459107903,468.31102399988123,468.3110239998813
0.13599999999999568,3.1138971096129686,0.33951284439474955,0.024999900205492163,179.9999811714937,5.5381762580215965e-05,65.10175154896581,3.034034362419462,0.3308052900002446,0.7084046049230832,0.0,0.0,0.0,0.0,0.0,0.0,0.0,10.19,-1.0,-1.0,-0.2,1100.0,778.3434459107903,468.31102399988123,468.3110239998813
0.13599999999999568,3.1138971096129686,0.33951284439474955,0.024999900205492163,179.9999811714937,5.5381762580215965e-05,65.10175154896581,3.0306310062833495,0.33043421700663383,0.7298777972115613,0.0,0.0,0.0,0.0,0.0,0.0,0.0,10.19,-1.0,-1.0,-0.2,1100.0,778.3434459107903,468.31102399988123,468.3110239998813
0.13999999999999346,3.1138971096129686,0.33951284439474955,0.024999900205492163,179.9999811714937,5.5381762580215965e-05,65.10175154896581,3.029961500690574,0.3303612198136824,0.7341666244070626,0.0,0.0,0.0,0.0,0.0,0.0,0.0,10.19,-1.0,-1.0,-0.2,1100.0,778.3434459107903,468.31102399988123,468.3110239998813
0.13999999999999346,3.1138971096129686,0.33951284439474955,0.024999900205492163,179.9999811714937,5.5381762580215965e-05,65.10175154896581,3.0268903664525566,0.3300263694689332,0.7554633622639634,0.0,0.0,0.0,0.0,0.0,0.0,0.0,10.19,-1.0,-1.0,-0.2,1100.0,778.3434459107903,468.31102399988123,468.3110239998813
0.14399999999999835,3.1138971096129686,0.33951284439474955,0.024999900205492163,179.9999811714937,5.5381762580215965e-05,65.10175154896581,3.0261745422739312,0.32994832209150976,0.7597164009834507,0.0,0.0,0.0,0.0,0.0,0.0,0.0,10.19,-1.0,-1.0,-0.2,1100.0,778.3434459107903,468.31102399988123,468.3110239998813
0.14399999999999835,3.1138971096129686,0.33951284439474955,0.024999900205492163,179.9999811714937,5.5381762580215965e-05,65.10175154896581,3.0228891189450007,0.329590107487693,0.7808219382041315,0.0,0.0,0.0,0.0,0.0,0.0,0.0,10.19,-1.0,-1.0,-0.2,1100.0,778.3434459107903,468.31102399988123,468.3110239998813
0.14799999999999613,3.1138971096129686,0.33951284439474955,0.024999900205492163,179.9999811714937,5.5381762580215965e-05,65.10175154896581,3.0222431955828686,0.32951968150050753,0.7850362827691603,0.0,0.0,0.0,0.0,0.0,0.0,0.0,10.19,-1.0,-1.0,-0.2,1100.0,778.3434459107903,468.31102399988123,468.3110239998813
0.14799999999999613,3.1138971096129686,0.33951284439474955,0.024999900205492163,179.9999811714937,5.5381762580215965e-05,65.10175154896581,3.019289844303472,0.32919767320734034,0.8059371695703145,0.0,0.0,0.0,0.0,0.0,0.0,0.0,10.19,-1.0,-1.0,-0.2,1100.0,778.3434459107903,468.31102399988123,468.3110239998813
0.15199999999999392,3.1138971096129686,0.33951284439474955,0.024999900205492163,179.9999811714937,5.5381762580215965e-05,65.10175154896581,3.0187096679522147,0.32913441571477325,0.8101101710641158,0.0,0.0,0.0,0.0,0.0,0.0,0.0,10.19,-1.0,-1.0,-0.2,1100.0,778.3434459107903,468.31102399988123,468.3110239998813
0.15199999999999392,3.1138971096129686,0.33951284439474955,0.024999900205492163,179.9999811714937,5.5381762580215965e-05,65.10175154896581,3.0160685077987988,0.3288464460855199,0.8307941789310348,0.0,0.0,0.0,0.0,0.0,0.0,0.0,10.19,-1.0,-1.0,-0.2,1100.0,778.3434459107903,468.31102399988123,468.3110239998813
0.1559999999999988,3.1138971096129686,0.33951284439474955,0.024999900205492163,179.9999811714937,5.5381762580215965e-05,65.10175154896581,3.0155501363821484,0.3287899272771185,0.8349234302951015,0.0,0.0,0.0,0.0,0.0,0.0,0.0,10.19,-1.0,-1.0,-0.2,1100.0,778.3434459107903,468.31102399988123,468.3110239998813
0.1559999999999988,3.1138971096129686,0.33951284439474955,0.024999900205492163,179.9999811714937,5.5381762580215965e-05,65.10175154896581,3.0132023029998027,0.3285339395030381,0.8553794806189258,0.0,0.0,0.0,0.0,0.0,0.0,0.0,10.19,-1.0,-1.0,-0.2,1100.0,778.3434459107903,468.31102399988123,468.3110239998813
0.1599999999999966,3.1138971096129686,0.33951284439474955,0.024999900205492163,179.9999811714937,5.5381762580215965e-05,65.10175154896581,3.0127419961364894,0.32848375155945597,0.8594628025016089,0.0,0.0,0.0,0.0,0.0,0.0,0.0,10.19,-1.0,-1.0,-0.2,1100.0,778.3434459107903,468.31102399988123,468.3110239998813
0.1599999999999966,3.1138971096129686,0.33951284439474955,0.024999900205492163,179.9999811714937,5.5381762580215965e-05,65.10175154896581,3.0106695934810452,0.3282577944081715,0.8796808988279788,0.0,0.0,0.0,0.0,0.0,0.0,0.0,10.19,-1.0,-1.0,-0.2,1100.0,778.3434459107903,468.31102399988123,468.3110239998813
0.16399999999999437,3.1138971096129686,0.33951284439474955,0.024999900205492163,179.9999811714937,5.5381762580215965e-05,65.10175154896581,3.0102638029069104,0.3282135504568772,0.8837163261497095,0.0,0.0,0.0,0.0,0.0,0.0,0.0,10.19,-1.0,-1.0,-0.2,1100.0,778.3434459107903,468.31102399988123,468.3110239998813
0.16399999999999437,3.1138971096129686,0.33951284439474955,0.024999900205492163,179.9999811714937,5.5381762580215965e-05,65.10175154896581,3.008449857184511,0.3280157732503381,0.9036874898683194,0.0,0.0,0.0,0.0,0.0,0.0,0.0,10.19,-1.0,-1.0,-0.2,1100.0,778.3434459107903,468.31102399988123,468.3110239998813
0.16799999999999926,3.1138971096129686,0.33951284439474955,0.024999900205492163,179.9999811714937,5.5381762580215965e-05,65.10175154896581,3.008095217610852,0.3279771063688871,0.9076732590694863,0.0,0.0,0.0,0.0,0.0,0.0,0.0,10.19,-1.0,-1.0,-0.2,1100.0,778.3434459107903,468.31102399988123,468.3110239998813
0.16799999999999926,3.1138971096129686,0.33951284439474955,0.024999900205492163,179.9999811714937,5.5381762580215965e-05,65.10175154896581,3.006523633317458,0.327805754190291,0.9273894683817853,0.0,0.0,0.0,0.0,0.0,0.0,0.0,10.19,-1.0,-1.0,-0.2,1100.0,778.3434459107903,468.31102399988123,468.3110239998813
0.17199999999999704,3.1138971096129686,0.33951284439474955,0.024999900205492163,179.9999811714937,5.5381762580215965e-05,65.10175154896581,3.00621695370623,0.3277723164550478,0.9313240053210317,0.0,0.0,0.0,0.0,0.0,0.0,0.0,10.19,-1.0,-1.0,-0.2,1100.0,778.3434459107903,468.31102399988123,468.3110239998813
0.17199999999999704,3.1138971096129686,0.33951284439474955,0.024999900205492163,179.9999811714937,5.5381762580215965e-05,65.10175154896581,3.004872471673775,0.32762572557455033,0.9507781373307109,0.0,0.0,0.0,0.0,0.0,0.0,0.0,10.19,-1.0,-1.0,-0.2,1100.0,778.3434459107903,468.31102399988123,468.3110239998813
0.17599999999999483,3.1138971096129686,0.33951284439474955,0.024999900205492163,179.9999811714937,5.5381762580215965e-05,65.10175154896581,3.0046107269111277,0.3275971871528416,0.9546600458028774,0.0,0.0,0.0,0.0,0.0,0.0,0.0,10.19,-1.0,-1.0,-0.2,1100.0,778.3434459107903,468.31102399988123,468.3110239998813
0.17599999999999483,3.1138971096129686,0.33951284439474955,0.024999900205492163,179.9999811714937,5.5381762580215965e-05,65.10175154896581,3.0034788842711166,0.3274737806623281,0.9738458215808479,0.0,0.0,0.0,0.0,0.0,0.0,0.0,10.19,-1.0,-1.0,-0.2,1100.0,778.3434459107903,468.31102399988123,468.3110239998813
0.17999999999999972,3.1138971096129686,0.33951284439474955,0.024999900205492163,179.9999811714937,5.5381762580215965e-05,65.10175154896581,3.0032592072215625,0.3274498289460969,0.9776738724250026,0.0,0.0,0.0,0.0,0.0,0.0,0.0,10.19,-1.0,-1.0,-0.2,1100.0,778.3434459107903,468.31102399988123,468.3110239998813
0.17999999999999972,3.1138971096129686,0.33951284439474955,0.024999900205492163,179.9999811714937,5.5381762580215965e-05,65.10175154896581,3.0023262992008113,0.32734811259371455,0.9965858049073252,0.0,0.0,0.0,0.0,0.0,0.0,0.0,10.19,-1.0,-1.0,-0.2,1100.0,778.3434459107903,468.31102399988123,468.3110239998813
0.1839999999999975,3.1138971096129686,0.33951284439474955,0.024999900205492163,179.9999811714937,5.5381762580215965e-05,65.10175154896581,3.002145973125086,0.3273284513728286,1.0003589256768535,0.0,0.0,0.0,0.0,0.0,0.0,0.0,10.19,-1.0,-1.0,-0.2,1100.0,778.3434459107903,468.31102399988123,468.3110239998813
0.1839999999999975,3.1138971096129686,0.33951284439474955,0.024999900205492163,179.9999811714937,5.5381762580215965e-05,65.10175154896581,3.001399016592015,0.32724700958838454,1.0189922702605367,0.0,0.0,0.0,0.0,0.0,0.0,0.0,10.19,-1.0,-1.0,-0.2,1100.0,778.3434459107903,468.31102399988123,468.3110239998813
0.18799999999999528,3.1138971096129686,0.33951284439474955,0.024999900205492163,179.9999811714937,5.5381762580215965e-05,65.10175154896581,3.001255467912429,0.3272313582618314,1.0227095354285411,0.0,0.0,0.0,0.0,0.0,0.0,0.0,10.19,-1.0,-1.0,-0.2,1100.0,778.3434459107903,468.31102399988123,468.3110239998813
0.18799999999999528,3.1138971096129686,0.33951284439474955,0.024999900205492163,179.9999811714937,5.5381762580215965e-05,65.10175154896581,3.000682166595905,0.32716885036455134,1.0410602431362856,0.0,0.0,0.0,0.0,0.0,0.0,0.0,10.19,-1.0,-1.0,-0.2,1100.0,778.3434459107903,468.31102399988123,468.3110239998813
0.19200000000000017,3.1138971096129686,0.33951284439474955,0.024999900205492163,179.9999811714937,5.5381762580215965e-05,65.10175154896581,3.0005729579937084,0.3271569431878339,1.0447208648105875,0.0,0.0,0.0,0.0,0.0,0.0,0.0,10.19,-1.0,-1.0,-0.2,1100.0,778.3434459107903,468.31102399988123,468.3110239998813
0.19200000000000017,3.1138971096129686,0.33951284439474955,0.024999900205492163,179.9999811714937,5.5381762580215965e-05,65.10175154896581,3.000161669299842,0.3271120997683481,1.0627855379014557,0.0,0.0,0.0,0.0,0.0,0.0,0.0,10.19,-1.0,-1.0,-0.2,1100.0,778.3434459107903,468.31102399988123,468.3110239998813
0.19599999999999795,3.1138971096129686,0.33951284439474955,0.024999900205492163,179.9999811714937,5.5381762580215965e-05,65.10175154896581,2.9999723928338393,0.32709146267306605,1.0663888570248448,0.0,0.0,0.0,0.0,0.0,0.0,0.0,10.19,-1.0,-1.0,-0.2,1100.0,778.3434459107903,468.31102399988123,468.3110239998813
0.19599999999999795,3.1138971096129686,0.33951284439474955,0.024999900205492163,179.9999811714937,5.5381762580215965e-05,65.10175154896581,2.9991853256887278,0.3270056475687899,1.0841647069334606,0.0,0.0,0.0,0.0,0.0,0.0,0.0,10.19,-1.0,-1.0,-0.2,1100.0,778.3434459107903,468.31102399988123,468.3110239998813
0.19999999999999574,3.1138971096129686,0.33951284439474955,0.024999900205492163,179.9999811714937,5.5381762580215965e-05,65.10175154896581,2.999033930845075,0.3269891407632707,1.0877101849459514,0.0,0.0,0.0,0.0,0.0,0.0,0.0,10.19,-1.0,-1.0,-0.2,1100.0,778.3434459107903,468.31102399988123,468.3110239998813
0.19999999999999574,3.1138971096129686,0.33951284439474955,0.024999900205492163,179.9999811714937,5.5381762580215965e-05,65.10175154896581,2.998425751940798,0.32692283011059864,1.1051949924382167,0.0,0.0,0.0,0.0,0.0,0.0,0.0,10.19,-1.0,-1.0,-0.2,1100.0,778.3434459107903,468.31102399988123,468.3110239998813
0.20399999999999352,3.1138971096129686,0.33951284439474955,0.024999900205492163,179.9999811714937,5.5381762580215965e-05,65.10175154896581,2.998309732758189,0.3269101803661449,1.1086822033789587,0.0,0.0,0.0,0.0,0.0,0.0,0.0,10.19,-1.0,-1.0,-0.2,1100.0,778.3434459107903,468.31102399988123,468.3110239998813
0.20399999999999352,3.1138971096129686,0.33951284439474955,0.024999900205492163,179.9999811714937,5.5381762580215965e-05,65.10175154896581,2.997868471239096,0.32686206896483794,1.1258742808174138,0.0,0.0,0.0,0.0,0.0,0.0,0.0,10.19,-1.0,-1.0,-0.2,1100.0,778.3434459107903,468.31102399988123,468.3110239998813
0.2079999999999984,3.1138971096129686,0.33951284439474955,0.024999900205492163,179.9999811714937,5.5381762580215965e-05,65.10175154896581,2.9977854549939047,0.32685301757985513,1.1293029038451472,0.0,0.0,0.0,0.0,0.0,0.0,0.0,10.19,-1.0,-1.0,-0.2,1100.0,778.3434459107903,468.31102399988123,468.3110239998813
0.2079999999999984,3.1138971096129686,0.33951284439474955,0.024999900205492163,179.9999811714937,5.5381762580215965e-05,65.10175154896581,2.997499779130663,0.3268218699145695,1.1462010594620142,0.0,0.0,0.0,0.0,0.0,0.0,0.0,10.19,-1.0,-1.0,-0.2,1100.0,778.3434459107903,468.31102399988123,468.3110239998813
0.2119999999999962,3.1138971096129686,0.33951284439474955,0.024999900205492163,179.9999811714937,5.5381762580215965e-05,65.10175154896581,2.9974475198839836,0.3268161720109904,1.1495708717737647,0.0,0.0,0.0,0.0,0.0,0.0,0.0,10.19,-1.0,-1.0,-0.2,1100.0,778.3434459107903,468.31102399988123,468.3110239998813
0.2119999999999962,3.1138971096129686,0.33951284439474955,0.024999900205492163,179.9999811714937,5.5381762580215965e-05,65.10175154896581,2.9973067060553475,0.3268008188693137,1.166174375854404,0.0,0.0,0.0,0.0,0.0,0.0,0.0,10.19,-1.0,-1.0,-0.2,1100.0,778.3434459107903,468.31102399988123,468.3110239998813
0.21599999999999397,3.1138971096129686,0.33951284439474955,0.024999900205492163,179.9999811714937,5.5381762580215965e-05,65.10175154896581,2.997283078497337,0.3267982427214373,1.169485245983206,0.0,0.0,0.0,0.0,0.0,0.0,0.0,10.19,-1.0,-1.0,-0.2,1100.0,778.3434459107903,468.31102399988123,468.3110239998813
0.21599999999999397,3.1138971096129686,0.33951284439474955,0.024999900205492163,179.9999811714937,5.5381762580215965e-05,65.10175154896581,2.997276981602692,0.32679757796792425,1.1857937988671978,0.0,0.0,0.0,0.0,0.0,0.0,0.0,10.19,-1.0,-1.0,-0.2,1100.0,778.3434459107903,468.31102399988123,468.3110239998813
0.21999999999999886,3.1138971096129686,0.33951284439474955,0.024999900205492163,179.9999811714937,5.5381762580215965e-05,65.10175154896581,2.9972799751809185,0.32679790436222145,1.1890456803403193,0.0,0.0,0.0,0.0,0.0,0.0,0.0,10.19,-1.0,-1.0,-0.2,1100.0,778.3434459107903,468.31102399988123,468.3110239998813
0.21999999999999886,3.1138971096129686,0.33951284439474955,0.024999900205492163,179.9999811714937,5.5381762580215965e-05,65.10175154896581,2.997399000419572,0.3268108818614475,1.2050593821516657,0.0,0.0,0.0,0.0,0.0,0.0,0.0,10.19,-1.0,-1.0,-0.2,1100.0,778.3434459107903,468.31102399988123,468.3110239998813
0.22399999999999665,3.1138971096129686,0.33951284439474955,0.024999900205492163,179.9999811714937,5.5381762580215965e-05,65.10175154896581,2.997426713738661,0.3268139034859458,1.2082523074918285,0.0,0.0,0.0,0.0,0.0,0.0,0.0,10.19,-1.0,-1.0,-0.2,1100.0,778.3434459107903,468.31102399988123,468.3110239998813
0.22399999999999665,3.1138971096129686,0.33951284439474955,0.024999900205492163,179.9999811714937,5.5381762580215965e-05,65.10175154896581,2.9976617896946656,0.32683953416790557,1.2239716295138594,0.0,0.0,0.0,0.0,0.0,0.0,0.0,10.19,-1.0,-1.0,-0.2,1100.0,778.3434459107903,468.31102399988123,468.3110239998813
0.22799999999999443,3.1138971096129686,0.33951284439474955,0.024999900205492163,179.9999811714937,5.5381762580215965e-05,65.10175154896581,2.9977124251750893,0.32684505502982897,1.2271057045667484,0.0,0.0,0.0,0.0,0.0,0.0,0.0,10.19,-1.0,-1.0,-0.2,1100.0,778.3434459107903,468.31102399988123,468.3110239998813
0.22799999999999443,3.1138971096129686,0.33951284439474955,0.024999900205492163,179.9999811714937,5.5381762580215965e-05,65.10175154896581,2.9980549781490744,0.3268824040912975,1.2425314621812251,0.0,0.0,0.0,0.0,0.0,0.0,0.0,10.19,-1.0,-1.0,-0.2,1100.0,778.3434459107903,468.31102399988123,468.3110239998813
0.23199999999999932,3.1138971096129686,0.33951284439474955,0.024999900205492163,179.9999811714937,5.5381762580215965e-05,65.10175154896581,2.9980147366375203,0.3268780164992964,1.245606860753211,0.0,0.0,0.0,0.0,0.0,0.0,0.0,10.19,-1.0,-1.0,-0.2,1100.0,778.3434459107903,468.31102399988123,468.3110239998813
0.23199999999999932,3.1138971096129686,0.33951284439474955,0.024999900205492163,179.9999811714937,5.5381762580215965e-05,65.10175154896581,2.997929895668894,0.326868766161997,1.2607401878668487,0.0,0.0,0.0,0.0,0.0,0.0,0.0,10.19,-1.0,-1.0,-0.2,1100.0,778.3434459107903,468.31102399988123,468.3110239998813
0.2359999999999971,3.1138971096129686,0.33951284439474955,0.024999900205492163,179.9999811714937,5.5381762580215965e-05,65.10175154896581,2.9979173059131954,0.32686739348216304,1.2637571466577386,0.0,0.0,0.0,0.0,0.0,0.0,0.0,10.19,-1.0,-1.0,-0.2,1100.0,778.3434459107903,468.31102399988123,468.3110239998813
0.2359999999999971,3.1138971096129686,0.33951284439474955,0.024999900205492163,179.9999811714937,5.5381762580215965e-05,65.10175154896581,2.997962515884742,0.3268723227927647,1.2785994715429374,0.0,0.0,0.0,0.0,0.0,0.0,0.0,10.19,-1.0,-1.0,-0.2,1100.0,778.3434459107903,468.31102399988123,468.3110239998813
0.23999999999999488,3.1138971096129686,0.33951284439474955,0.024999900205492163,179.9999811714937,5.5381762580215965e-05,65.10175154896581,2.9979756230204937,0.32687375188331724,1.2815582853592755,0.0,0.0,0.0,0.0,0.0,0.0,0.0,10.19,-1.0,-1.0,-0.2,1100.0,778.3434459107903,468.31102399988123,468.3110239998813
0.23999999999999488,3.1138971096129686,0.33951284439474955,0.024999900205492163,179.9999811714937,5.5381762580215965e-05,65.10175154896581,2.9981415558964604,0.3268918437921745,1.2961113078392488,0.0,0.0,0.0,0.0,0.0,0.0,0.0,10.19,-1.0,-1.0,-0.2,1100.0,778.3434459107903,468.31102399988123,468.3110239998813
0.24399999999999977,3.1138971096129686,0.33951284439474955,0.024999900205492163,179.9999811714937,5.5381762580215965e-05,65.10175154896581,2.9981785114326853,0.3268958731093864,1.299012325074213,0.0,0.0,0.0,0.0,0.0,0.0,0.0,10.19,-1.0,-1.0,-0.2,1100.0,778.3434459107903,468.31102399988123,468.3110239998813
0.24399999999999977,3.1138971096129686,0.33951284439474955,0.024999900205492163,179.9999811714937,5.5381762580215965e-05,65.10175154896581,2.9984563491913043,0.3269261661744391,1.3132779949859605,0.0,0.0,0.0,0.0,0.0,0.0,0.0,10.19,-1.0,-1.0,-0.2,1100.0,778.3434459107903,468.31102399988123,468.3110239998813
0.24799999999999756,3.1138971096129686,0.33951284439474955,0.024999900205492163,179.9999811714937,5.5381762580215965e-05,65.10175154896581,2.9985154057997825,0.32693260520450945,1.3161216133527007,0.0,0.0,0.0,0.0,0.0,0.0,0.0,10.19,-1.0,-1.0,-0.2,1100.0,778.3434459107903,468.31102399988123,468.3110239998813
0.24799999999999756,3.1138971096129686,0.33951284439474955,0.024999900205492163,179.9999811714937,5.5381762580215965e-05,65.10175154896581,2.998896815393062,0.3269741908611113,1.33010211022437,0.0,0.0,0.0,0.0,0.0,0.0,0.0,10.19,-1.0,-1.0,-0.2,1100.0,778.3434459107903,468.31102399988123,468.3110239998813
0.25199999999999534,3.1138971096129686,0.33951284439474955,0.024999900205492163,179.9999811714937,5.5381762580215965e-05,65.10175154896581,2.9988642216433403,0.32697063711598484,1.332888772730242,0.0,0.0,0.0,0.0,0.0,0.0,0.0,10.19,-1.0,-1.0,-0.2,1100.0,778.3434459107903,468.31102399988123,468.3110239998813
0.25199999999999534,3.1138971096129686,0.33951284439474955,0.024999900205492163,179.9999811714937,5.5381762580215965e-05,65.10175154896581,2.9988145606188197,0.32696522250044135,1.3465864866123916,0.0,0.0,0.0,0.0,0.0,0.0,0.0,10.19,-1.0,-1.0,-0.2,1100.0,778.3434459107903,468.31102399988123,468.3110239998813
0.2560000000000002,3.1138971096129686,0.33951284439474955,0.024999900205492163,179.9999811714937,5.5381762580215965e-05,65.10175154896581,2.998808890572138,0.32696460428679813,1.3493166777619896,0.0,0.0,0.0,0.0,0.0,0.0,0.0,10.19,-1.0,-1.0,-0.2,1100.0,778.3434459107903,468.31102399988123,468.3110239998813
0.2560000000000002,3.1138971096129686,0.33951284439474955,0.024999900205492163,179.9999811714937,5.5381762580215965e-05,65.10175154896581,2.9988858207498716,0.32697299209877223,1.3627341911550988,0.0,0.0,0.0,0.0,0.0,0.0,0.0,10.19,-1.0,-1.0,-0.2,1100.0,778.3434459107903,468.31102399988123,468.3110239998813
0.259999999999998,3.1138971096129686,0.33951284439474955,0.024999900205492163,179.9999811714937,5.5381762580215965e-05,65.10175154896581,2.998905162559391,0.32697510096510096,1.3654084333706942,0.0,0.0,0.0,0.0,0.0,0.0,0.0,10.19,-1.0,-1.0,-0.2,1100.0,778.3434459107903,468.31102399988123,468.3110239998813
0.259999999999998,3.1138971096129686,0.33951284439474955,0.024999900205492163,179.9999811714937,5.5381762580215965e-05,65.10175154896581,2.9990995618164797,0.3269962966059327,1.3785485041939656,0.0,0.0,0.0,0.0,0.0,0.0,0.0,10.19,-1.0,-1.0,-0.2,1100.0,778.3434459107903,468.31102399988123,468.3110239998813
0.2639999999999958,3.1138971096129686,0.33951284439474955,0.024999900205492163,179.9999811714937,5.5381762580215965e-05,65.10175154896581,2.9990300075254552,0.3269887129978833,1.3811673544424916,0.0,0.0,0.0,0.0,0.0,0.0,0.0,10.19,-1.0,-1.0,-0.2,1100.0,778.3434459107903,468.31102399988123,468.3110239998813
0.2639999999999958,3.1138971096129686,0.33951284439474955,0.024999900205492163,179.9999811714937,5.5381762580215965e-05,65.10175154896581,2.9960039753508667,0.32665878019835276,1.3940328999915723,0.0,0.0,0.0,0.0,0.0,0.0,0.0,10.19,-1.0,-1.0,-0.2,1100.0,778.3434459107903,468.31102399988123,468.3110239998813
0.2679999999999936,3.1138971096129686,0.33951284439474955,0.024999900205492163,179.9999811714937,5.5381762580215965e-05,65.10175154896581,2.995298175250056,0.3265818257610784,1.3965969466076695,0.0,0.0,0.0,0.0,0.0,0.0,0.0,10.19,-1.0,-1.0,-0.2,1100.0,778.3434459107903,468.31102399988123,468.3110239998813
0.2679999999999936,3.1138971096129686,0.33951284439474955,0.024999900205492163,179.9999811714937,5.5381762580215965e-05,65.10175154896581,2.989285146418518,0.3259262162627039,1.4091910284513862,0.0,0.0,0.0,0.0,0.0,0.0,0.0,10.19,-1.0,-1.0,-0.2,1100.0,778.3434459107903,468.31102399988123,468.3110239998813
0.27199999999999847,3.1138971096129686,0.33951284439474955,0.024999900205492163,179.9999811714937,5.5381762580215965e-05,65.10175154896581,2.9879893576561334,0.3257849344820395,1.4117008881466835,0.0,0.0,0.0,0.0,0.0,0.0,0.0,10.19,-1.0,-1.0,-0.2,1100.0,778.3434459107903,468.31102399988123,468.3110239998813
0.27199999999999847,3.1138971096129686,0.33951284439474955,0.024999900205492163,179.9999811714937,5.5381762580215965e-05,65.10175154896581,2.979209960051042,0.32482770367188357,1.424026697915234,0.0,0.0,0.0,0.0,0.0,0.0,0.0,10.19,-1.0,-1.0,-0.2,1100.0,778.3434459107903,468.31102399988123,468.3110239998813
0.27599999999999625,3.1138971096129686,0.33951284439474955,0.024999900205492163,179.9999811714937,5.5381762580215965e-05,65.10175154896581,2.9774799998216612,0.3246390835288629,1.4264830129643733,0.0,0.0,0.0,0.0,0.0,0.0,0.0,10.19,-1.0,-1.0,-0.2,1100.0,778.3434459107903,468.31102399988123,468.3110239998813
0.27599999999999625,3.1138971096129686,0.33951284439474955,0.024999900205492163,179.9999811714937,5.5381762580215965e-05,65.10175154896581,2.969471962142379,0.3237659552414445,1.4385438589836665,0.0,0.0,0.0,0.0,0.0,0.0,0.0,10.19,-1.0,-1.0,-0.2,1100.0,778.3434459107903,468.31102399988123,468.3110239998813
0.27999999999999403,3.1138971096129686,0.33951284439474955,0.024999900205492163,179.9999811714937,5.5381762580215965e-05,65.10175154896581,2.967894773202263,0.3235939919798603,1.440947294578154,0.0,0.0,0.0,0.0,0.0,0.0,0.0,10.19,-1.0,-1.0,-0.2,1100.0,778.3434459107903,468.31102399988123,468.3110239998813
0.27999999999999403,3.1138971096129686,0.33951284439474955,0.024999900205492163,179.9999811714937,5.5381762580215965e-05,65.10175154896581,2.9606133872864815,0.3228000916175872,1.4527465893071316,0.0,0.0,0.0,0.0,0.0,0.0,0.0,10.19,-1.0,-1.0,-0.2,1100.0,778.3434459107903,468.31102399988123,468.3110239998813
0.2839999999999989,3.1138971096129686,0.33951284439474955,0.024999900205492163,179.9999811714937,5.5381762580215965e-05,65.10175154896581,2.9591801036435252,0.3226438185651018,1.4550978310683653,0.0,0.0,0.0,0.0,0.0,0.0,0.0,10.19,-1.0,-1.0,-0.2,1100.0,778.3434459107903,468.31102399988123,468.3110239998813
0.2839999999999989,3.1138971096129686,0.33951284439474955,0.024999900205492163,179.9999811714937,5.5381762580215965e-05,65.10175154896581,2.952582915827011,0.32192451734166816,1.4666390792981892,0.0,0.0,0.0,0.0,0.0,0.0,0.0,10.19,-1.0,-1.0,-0.2,1100.0,778.3434459107903,468.31102399988123,468.3110239998813
0.2879999999999967,3.1138971096129686,0.33951284439474955,0.024999900205492163,179.9999811714937,5.5381762580215965e-05,65.10175154896581,2.951285118825445,0.32178301659969166,1.4689388309415463,0.0,0.0,0.0,0.0,0.0,0.0,0.0,10.19,-1.0,-1.0,-0.2,1100.0,778.3434459107903,468.31102399988123,468.3110239998813
0.2879999999999967,3.1138971096129686,0.33951284439474955,0.024999900205492163,179.9999811714937,5.5381762580215965e-05,65.10175154896581,2.945331823709789,0.3211339199574173,1.4802256187174836,0.0,0.0,0.0,0.0,0.0,0.0,0.0,10.19,-1.0,-1.0,-0.2,1100.0,778.3434459107903,468.31102399988123,468.3110239998813
0.2919999999999945,3.1138971096129686,0.33951284439474955,0.024999900205492163,179.9999811714937,5.5381762580215965e-05,65.10175154896581,2.9441615209452285,0.3210063201021837,1.4824745998597337,0.0,0.0,0.0,0.0,0.0,0.0,0.0,10.19,-1.0,-1.0,-0.2,1100.0,778.3434459107903,468.31102399988123,468.3110239998813
0.2919999999999945,3.1138971096129686,0.33951284439474955,0.024999900205492163,179.9999811714937,5.5381762580215965e-05,65.10175154896581,2.9388138599815923,0.32042325665444876,1.4935105840884415,0.0,0.0,0.0,0.0,0.0,0.0,0.0,10.19,-1.0,-1.0,-0.2,1100.0,778.3434459107903,468.31102399988123,468.3110239998813
0.2959999999999994,3.1138971096129686,0.33951284439474955,0.024999900205492163,179.9999811714937,5.5381762580215965e-05,65.10175154896581,2.9377634651721634,0.32030873054233483,1.4957095281910096,0.0,0.0,0.0,0.0,0.0,0.0,0.0,10.19,-1.0,-1.0,-0.2,1100.0,778.3434459107903,468.31102399988123,468.3110239998813
0.2959999999999994,3.1138971096129686,0.33951284439474955,0.024999900205492163,179.9999811714937,5.5381762580215965e-05,65.10175154896581,2.9329851298478498,0.31978774151786726,1.5064984268976953,0.0,0.0,0.0,0.0,0.0,0.0,0.0,10.19,-1.0,-1.0,-0.2,1100.0,778.3434459107903,468.31102399988123,468.3110239998813
0.29999999999999716,3.1138971096129686,0.33951284439474955,0.024999900205492163,179.9999811714937,5.5381762580215965e-05,65.10175154896581,2.9320474436190374,0.3196855041903361,1.5086480793387669,0.0,0.0,0.0,0.0,0.0,0.0,0.0,10.19,-1.0,-1.0,-0.2,1100.0,778.3434459107903,468.31102399988123,468.3110239998813
0.29999999999999716,3.1138971096129686,0.33951284439474955,0.024999900205492163,179.9999811714937,5.5381762580215965e-05,65.10175154896581,2.9278039830430114,0.3192228333571233,1.519193662540404,0.0,0.0,0.0,0.0,0.0,0.0,0.0,10.19,-1.0,-1.0,-0.2,1100.0,778.3434459107903,468.31102399988123,468.3110239998813
0.30399999999999494,3.1138971096129686,0.33951284439474955,0.024999900205492163,179.9999811714937,5.5381762580215965e-05,65.10175154896581,2.9269721745857455,0.31913214004087787,1.521294778809195,0.0,0.0,0.0,0.0,0.0,0.0,0.0,10.19,-1.0,-1.0,-0.2,1100.0,778.3434459107903,468.31102399988123,468.3110239998813
0.30399999999999494,3.1138971096129686,0.33951284439474955,0.024999900205492163,179.9999811714937,5.5381762580215965e-05,65.10175154896581,2.923230907278119,0.31872422408844253,1.5316008599715896,0.0,0.0,0.0,0.0,0.0,0.0,0.0,10.19,-1.0,-1.0,-0.2,1100.0,778.3434459107903,468.31102399988123,468.3110239998813
0.30799999999999983,3.1138971096129686,0.33951284439474955,0.024999900205492163,179.9999811714937,5.5381762580215965e-05,65.10175154896581,2.922498496841415,0.3186443682865722,1.5336542039783223,0.0,0.0,0.0,0.0,0.0,0.0,0.0,10.19,-1.0,-1.0,-0.2,1100.0,778.3434459107903,468.31102399988123,468.3110239998813
0.30799999999999983,3.1138971096129686,0.33951284439474955,0.024999900205492163,179.9999811714937,5.5381762580215965e-05,65.10175154896581,2.9192284265404056,0.31828782764627966,1.5437246320263736,0.0,0.0,0.0,0.0,0.0,0.0,0.0,10.19,-1.0,-1.0,-0.2,1100.0,778.3434459107903,468.31102399988123,468.3110239998813
0.3119999999999976,3.1138971096129686,0.33951284439474955,0.024999900205492163,179.9999811714937,5.5381762580215965e-05,65.10175154896581,2.918589268721517,0.31821813931636084,1.5457309745219143,0.0,0.0,0.0,0.0,0.0,0.0,0.0,10.19,-1.0,-1.0,-0.2,1100.0,778.3434459107903,468.31102399988123,468.3110239998813
0.3119999999999976,3.1138971096129686,0.33951284439474955,0.024999900205492163,179.9999811714937,5.5381762580215965e-05,65.10175154896581,2.9157610040295414,0.31790976940031274,1.5555696263738918,0.0,0.0,0.0,0.0,0.0,0.0,0.0,10.19,-1.0,-1.0,-0.2,1100.0,778.3434459107903,468.31102399988123,468.3110239998813
0.3159999999999954,3.1138971096129686,0.33951284439474955,0.024999900205492163,179.9999811714937,5.5381762580215965e-05,65.10175154896581,2.9152092718262086,0.31784961321560146,1.557529743473292,0.0,0.0,0.0,0.0,0.0,0.0,0.0,10.19,-1.0,-1.0,-0.2,1100.0,778.3434459107903,468.31102399988123,468.3110239998813
0.3159999999999954,3.1138971096129686,0.33951284439474955,0.024999900205492163,179.9999811714937,5.5381762580215965e-05,65.10175154896581,2.91279494952455,0.31758637605551954,1.5671405170713522,0.0,0.0,0.0,0.0,0.0,0.0,0.0,10.19,-1.0,-1.0,-0.2,1100.0,778.3434459107903,468.31102399988123,468.3110239998813
0.3200000000000003,3.1138971096129686,0.33951284439474955,0.024999900205492163,179.9999811714937,5.5381762580215965e-05,65.10175154896581,2.912325119115505,0.31753514974554753,1.5690551888757167,0.0,0.0,0.0,0.0,0.0,0.0,0.0,10.19,-1.0,-1.0,-0.2,1100.0,778.3434459107903,468.31102399988123,468.3110239998813
0.3200000000000003,3.1138971096129686,0.33951284439474955,0.024999900205492163,179.9999811714937,5.5381762580215965e-05,65.10175154896581,2.9102983309844435,0.31731416601386353,1.5784419966862304,0.0,0.0,0.0,0.0,0.0,0.0,0.0,10.19,-1.0,-1.0,-0.2,1100.0,778.3434459107903,468.31102399988123,468.3110239998813
0.32399999999999807,3.1138971096129686,0.33951284439474955,0.024999900205492163,179.9999811714937,5.5381762580215965e-05,65.10175154896581,2.9099051672057765,0.3172712987809045,1.5803120059977063,0.0,0.0,0.0,0.0,0.0,0.0,0.0,10.19,-1.0,-1.0,-0.2,1100.0,778.3434459107903,468.31102399988123,468.3110239998813
0.32399999999999807,3.1138971096129686,0.33951284439474955,0.024999900205492163,179.9999811714937,5.5381762580215965e-05,65.10175154896581,2.9082408901942074,0.31708984017704944,1.5894787689562495,0.0,0.0,0.0,0.0,0.0,0.0,0.0,10.19,-1.0,-1.0,-0.2,1100.0,778.3434459107903,468.31102399988123,468.3110239998813
0.32799999999999585,3.1138971096129686,0.33951284439474955,0.024999900205492163,179.9999811714937,5.5381762580215965e-05,65.10175154896581,2.9079194326806204,0.31705479118507957,1.5913049000811743,0.0,0.0,0.0,0.0,0.0,0.0,0.0,10.19,-1.0,-1.0,-0.2,1100.0,778.3434459107903,468.31102399988123,468.3110239998813
0.32799999999999585,3.1138971096129686,0.33951284439474955,0.024999900205492163,179.9999811714937,5.5381762580215965e-05,65.10175154896581,2.9065939622760006,0.31691027317070963,1.600255541958252,0.0,0.0,0.0,0.0,0.0,0.0,0.0,10.19,-1.0,-1.0,-0.2,1100.0,778.3434459107903,468.31102399988123,468.3110239998813
0.33199999999999363,3.1138971096129686,0.33951284439474955,0.024999900205492163,179.9999811714937,5.5381762580215965e-05,65.10175154896581,2.906339512237352,0.3168825301036342,1.6020385795936511,0.0,0.0,0.0,0.0,0.0,0.0,0.0,10.19,-1.0,-1.0,-0.2,1100.0,778.3434459107903,468.31102399988123,468.3110239998813
0.33199999999999363,3.1138971096129686,0.33951284439474955,0.024999900205492163,179.9999811714937,5.5381762580215965e-05,65.10175154896581,2.905330398893341,0.3167725049712417,1.6107770217583972,0.0,0.0,0.0,0.0,0.0,0.0,0.0,10.19,-1.0,-1.0,-0.2,1100.0,778.3434459107903,468.31102399988123,468.3110239998813
0.3359999999999985,3.1138971096129686,0.33951284439474955,0.024999900205492163,179.9999811714937,5.5381762580215965e-05,65.10175154896581,2.9051385064981505,0.3167515826573002,1.6125177499573697,0.0,0.0,0.0,0.0,0.0,0.0,0.0,10.19,-1.0,-1.0,-0.2,1100.0,778.3434459107903,468.31102399988123,468.3110239998813
0.3359999999999985,3.1138971096129686,0.33951284439474955,0.024999900205492163,179.9999811714937,5.5381762580215965e-05,65.10175154896581,2.904424494983558,0.31667373291733875,1.6210479065175696,0.0,0.0,0.0,0.0,0.0,0.0,0.0,10.19,-1.0,-1.0,-0.2,1100.0,778.3434459107903,468.31102399988123,468.3110239998813
0.3399999999999963,3.1138971096129686,0.33951284439474955,0.024999900205492163,179.9999811714937,5.5381762580215965e-05,65.10175154896581,2.904290947322401,0.31665917201673555,1.6227471077292295,0.0,0.0,0.0,0.0,0.0,0.0,0.0,10.19,-1.0,-1.0,-0.2,1100.0,778.3434459107903,468.31102399988123,468.3110239998813
0.3399999999999963,3.1138971096129686,0.33951284439474955,0.024999900205492163,179.9999811714937,5.5381762580215965e-05,65.10175154896581,2.903851918861025,0.31661130408904076,1.6310728810270791,0.0,0.0,0.0,0.0,0.0,0.0,0.0,10.19,-1.0,-1.0,-0.2,1100.0,778.3434459107903,468.31102399988123,468.3110239998813
0.3439999999999941,3.1138971096129686,0.33951284439474955,0.024999900205492163,179.9999811714937,5.5381762580215965e-05,65.10175154896581,2.9037727284639243,0.31660266984197927,1.6327313352070163,0.0,0.0,0.0,0.0,0.0,0.0,0.0,10.19,-1.0,-1.0,-0.2,1100.0,778.3434459107903,468.31102399988123,468.3110239998813
0.3439999999999941,3.1138971096129686,0.33951284439474955,0.024999900205492163,179.9999811714937,5.5381762580215965e-05,65.10175154896581,2.9035896455405847,0.3165827080378878,1.6408566116510392,0.0,0.0,0.0,0.0,0.0,0.0,0.0,10.19,-1.0,-1.0,-0.2,1100.0,778.3434459107903,468.31102399988123,468.3110239998813
0.347999999999999,3.1138971096129686,0.33951284439474955,0.024999900205492163,179.9999811714937,5.5381762580215965e-05,65.10175154896581,2.903448939127693,0.3165673666079099,1.6424750954383607,0.0,0.0,0.0,0.0,0.0,0.0,0.0,10.19,-1.0,-1.0,-0.2,1100.0,778.3434459107903,468.31102399988123,468.3110239998813
0.347999999999999,3.1138971096129686,0.33951284439474955,0.024999900205492163,179.9999811714937,5.5381762580215965e-05,65.10175154896581,2.900174514941888,0.31621035125706687,1.6504037416528676,0.0,0.0,0.0,0.0,0.0,0.0,0.0,10.19,-1.0,-1.0,-0.2,1100.0,778.3434459107903,468.31102399988123,468.3110239998813
0.35199999999999676,3.1138971096129686,0.33951284439474955,0.024999900205492163,179.9999811714937,5.5381762580215965e-05,65.10175154896581,2.8995351827361815,0.3161406439134933,1.651983027610154,0.0,0.0,0.0,0.0,0.0,0.0,0.0,10.19,-1.0,-1.0,-0.2,1100.0,778.3434459107903,468.31102399988123,468.3110239998813
0.35199999999999676,3.1138971096129686,0.33951284439474955,0.024999900205492163,179.9999811714937,5.5381762580215965e-05,65.10175154896581,2.896723247103548,0.31583405437913037,1.659718886884554,0.0,0.0,0.0,0.0,0.0,0.0,0.0,10.19,-1.0,-1.0,-0.2,1100.0,778.3434459107903,468.31102399988123,468.3110239998813
0.35599999999999454,3.1138971096129686,0.33951284439474955,0.024999900205492163,179.9999811714937,5.5381762580215965e-05,65.10175154896581,2.8961754268815905,0.31577432472358086,1.6612597427972469,0.0,0.0,0.0,0.0,0.0,0.0,0.0,10.19,-1.0,-1.0,-0.2,1100.0,778.3434459107903,468.31102399988123,468.3110239998813
0.35599999999999454,3.1138971096129686,0.33951284439474955,0.024999900205492163,179.9999811714937,5.5381762580215965e-05,65.10175154896581,2.893796621352846,0.315514960010202,1.6688066318183894,0.0,0.0,0.0,0.0,0.0,0.0,0.0,10.19,-1.0,-1.0,-0.2,1100.0,778.3434459107903,468.31102399988123,468.3110239998813
0.35999999999999943,3.1138971096129686,0.33951284439474955,0.024999900205492163,179.9999811714937,5.5381762580215965e-05,65.10175154896581,2.893334492997943,0.31546457346667617,1.6703098200502235,0.0,0.0,0.0,0.0,0.0,0.0,0.0,10.19,-1.0,-1.0,-0.2,1100.0,778.3434459107903,468.31102399988123,468.3110239998813
0.35999999999999943,3.1138971096129686,0.33951284439474955,0.024999900205492163,179.9999811714937,5.5381762580215965e-05,65.10175154896581,2.8913609960848548,0.3152494001559401,1.67767152590179,0.0,0.0,0.0,0.0,0.0,0.0,0.0,10.19,-1.0,-1.0,-0.2,1100.0,778.3434459107903,468.31102399988123,468.3110239998813
0.3639999999999972,3.1138971096129686,0.33951284439474955,0.024999900205492163,179.9999811714937,5.5381762580215965e-05,65.10175154896581,2.890979044394916,0.3152077553937313,1.6791378028031263,0.0,0.0,0.0,0.0,0.0,0.0,0.0,10.19,-1.0,-1.0,-0.2,1100.0,778.3434459107903,468.31102399988123,468.3110239998813
0.3639999999999972,3.1138971096129686,0.33951284439474955,0.024999900205492163,179.9999811714937,5.5381762580215965e-05,65.10175154896581,2.8893844977108976,0.3150338995914506,1.6863180802168878,0.0,0.0,0.0,0.0,0.0,0.0,0.0,10.19,-1.0,-1.0,-0.2,1100.0,778.3434459107903,468.31102399988123,468.3110239998813
0.367999999999995,3.1138971096129686,0.33951284439474955,0.024999900205492163,179.9999811714937,5.5381762580215965e-05,65.10175154896581,2.889077497740164,0.3150004269269329,1.6877481955829585,0.0,0.0,0.0,0.0,0.0,0.0,0.0,10.19,-1.0,-1.0,-0.2,1100.0,778.3434459107903,468.31102399988123,468.3110239998813
0.367999999999995,3.1138971096129686,0.33951284439474955,0.024999900205492163,179.9999811714937,5.5381762580215965e-05,65.10175154896581,2.887836935528402,0.31486516657942054,1.6947507644274697,0.0,0.0,0.0,0.0,0.0,0.0,0.0,10.19,-1.0,-1.0,-0.2,1100.0,778.3434459107903,468.31102399988123,468.3110239998813
0.3719999999999999,3.1138971096129686,0.33951284439474955,0.024999900205492163,179.9999811714937,5.5381762580215965e-05,65.10175154896581,2.8875999386016247,0.3148393264511534,1.6961454610036275,0.0,0.0,0.0,0.0,0.0,0.0,0.0,10.19,-1.0,-1.0,-0.2,1100.0,778.3434459107903,468.31102399988123,468.3110239998813
0.3719999999999999,3.1138971096129686,0.33951284439474955,0.024999900205492163,179.9999811714937,5.5381762580215965e-05,65.10175154896581,2.886689720499682,0.31474008401444736,1.7029740039966577,0.0,0.0,0.0,0.0,0.0,0.0,0.0,10.19,-1.0,-1.0,-0.2,1100.0,778.3434459107903,468.31102399988123,468.3110239998813
0.37599999999999767,3.1138971096129686,0.33951284439474955,0.024999900205492163,179.9999811714937,5.5381762580215965e-05,65.10175154896581,2.8865180408687467,0.31472136552832797,1.7043340170279357,0.0,0.0,0.0,0.0,0.0,0.0,0.0,10.19,-1.0,-1.0,-0.2,1100.0,778.3434459107903,468.31102399988123,468.3110239998813
0.37599999999999767,3.1138971096129686,0.33951284439474955,0.024999900205492163,179.9999811714937,5.5381762580215965e-05,65.10175154896581,2.8859157877652186,0.3146557009745464,1.7109921776596213,0.0,0.0,0.0,0.0,0.0,0.0,0.0,10.19,-1.0,-1.0,-0.2,1100.0,778.3434459107903,468.31102399988123,468.3110239998813
0.37999999999999545,3.1138971096129686,0.33951284439474955,0.024999900205492163,179.9999811714937,5.5381762580215965e-05,65.10175154896581,2.885804989879548,0.31464362051588235,1.7123182344820458,0.0,0.0,0.0,0.0,0.0,0.0,0.0,10.19,-1.0,-1.0,-0.2,1100.0,778.3434459107903,468.31102399988123,468.3110239998813
0.37999999999999545,3.1138971096129686,0.33951284439474955,0.024999900205492163,179.9999811714937,5.5381762580215965e-05,65.10175154896581,2.885489522724656,0.31460922466165203,1.718809615136411,0.0,0.0,0.0,0.0,0.0,0.0,0.0,10.19,-1.0,-1.0,-0.2,1100.0,778.3434459107903,468.31102399988123,468.3110239998813
0.38399999999999324,3.1138971096129686,0.33951284439474955,0.024999900205492163,179.9999811714937,5.5381762580215965e-05,65.10175154896581,2.8854354090879775,0.3146033245711665,1.720102434807568,0.0,0.0,0.0,0.0,0.0,0.0,0.0,10.19,-1.0,-1.0,-0.2,1100.0,778.3434459107903,468.31102399988123,468.3110239998813
