Time_s,X,Y,Z,Roll_deg,Pitch_deg,Yaw_deg,Ref_X,Ref_Y,Ref_Z,Ref_Yaw,vx,vy,vz,p,q,r,T_pert,tau_x,tau_y,tau_z,RPM_0,RPM_1,RPM_2,RPM_3
0.003999999999990678,-0.021515270778799722,5.986648635827566,1.9996459670631996,0.32345823883363295,1.3297104344573834,0.01015650129936767,-0.02184481599669885,5.986859291130538,7.19999999996644e-05,0.0,0.08198077938340878,-0.05244163437736663,0.0013604171420877698,-0.022267702356460542,0.00560633881462145,6.120243158628615e-06,-10.19,-1.0,-1.0,-0.01186439956367797,596.0075538093465,0.0,0.0,0.0
0.007999999999995566,-0.021181792141463842,5.986437876397241,1.999642547499689,0.3182083614306074,1.330831046630724,0.010164182683716669,-0.02184325257893544,5.986860231601617,0.00021513340799976047,0.0,0.08276766036338155,-0.052588932721707685,0.0013689828685947251,-0.022633029900769465,0.005197798936497039,6.122221053332023e-06,-10.19,-0.2048595954063537,-0.3962787455093996,-0.00042674075572283896,305.3827083524133,0.0,145.23576850838484,0.0
0.012000000000000455,-0.020845168047240976,5.986226554905207,1.9996390978556082,0.31287415050356937,1.3318564784362705,0.0101712366374194,-0.021840921565092344,5.986861633818705,0.0004285414703013412,0.0,0.08355421095815219,-0.05273248663337776,0.0013773371755339153,-0.02299984073809948,0.004785390112919857,6.124121682889508e-06,-10.19,-0.20886049248885452,-0.40489334621895284,-0.00042703283368668814,308.92249124786156,0.0,147.94577989187718,0.0
0.015999999999991132,-0.020505400274401477,5.986014686707593,1.9996356182371282,0.3074552760690178,1.3327858421812044,0.010177674549879915,-0.021837832250239036,5.986863492190371,0.0007113732083612934,0.0,0.08434036727289192,-0.05287224426560331,0.001385474304978317,-0.02336810971501496,0.004369109714987745,6.125942711791688e-06,-10.19,-0.21288017314731889,-0.4135915357301224,-0.00042731294441298125,312.4503674873178,0.0,150.6441787629894,0.0
0.01999999999999602,-0.02016249086067229,5.985802287369056,1.9996321087548885,0.30195141291780614,1.3336182499644325,0.010183508479606623,-0.021833993845202945,5.986865801175858,0.00106278535613019,0.0,0.08512606490027011,-0.05300815361748671,0.001393388483004067,-0.023737821740483403,0.003948957638760352,6.1276845835297084e-06,-10.19,-0.21691831854804616,-0.42237352169041,-0.00042758229419913074,315.9667090658861,0.0,153.33186686893202,0.0
0.02400000000000091,-0.019816442105282772,5.98558937266337,1.9996285695239655,0.2963622406914291,1.334352813741919,0.01018875116478818,-0.02182941547724886,5.986868555284677,0.0014819422978532095,0.0,0.08591123892095805,-0.05314016253767843,0.001401073921503367,-0.024108942339065995,0.003524930370024784,6.129342716707825e-06,-10.19,-0.22097460437154953,-0.43123950661366284,-0.0004278421300144316,319.4718675764315,0.0,156.00968143796166,0.0
0.027999999999991587,-0.01946725657100802,5.985375958573998,1.9996250006638392,0.2906874439585741,1.3349886453926088,0.010193416033853256,-0.021824106190753062,5.9868717490762,0.0019680160063510355,0.0,0.08669582390417074,-0.05326821872742684,0.001408524820082495,-0.024481452796432462,0.0030970280720818795,6.130916818849673e-06,-10.19,-0.22504870056231213,-0.44018968757078225,-0.00042809373996271187,322.966175296043,0.0,158.67840115349225,0.0
0.031999999999996476,-0.019114937086209427,5.985162061294643,1.9996214022983543,0.28492671229193334,1.3355248567849087,0.010197517216010246,-0.021818074947872326,5.986875377159258,0.0025201859817725334,0.0,0.08747975390826399,-0.05339226974478424,0.001415735367654832,-0.024855349339213684,0.0026652525859372014,6.132410313587001e-06,-10.19,-0.22914027150741842,-0.44922425624234186,-0.00042833845374077857,326.44994639757334,0.0,161.33875140183844,0.0
0.036000000000001364,-0.01875948674687238,5.984947697229795,1.9996177745556825,0.2790797403452713,1.3359605598437532,0.010201069551763354,-0.021811330629208033,5.986879434191741,0.0031376391907937972,0.0,0.08826296248135948,-0.05351226300738885,0.0014226997445142546,-0.025230583033800054,0.0022296007865791603,6.133815474009548e-06,-10.19,-0.23324897586052212,-0.45834339898757104,-0.00042857764309265934,329.9234779835933,0.0,163.9914091225086,0.0
0.03999999999999204,-0.01840090891864089,5.984732882995259,1.999614117568278,0.2731436619797669,1.3362953924657655,0.01009405635157538,-0.021803882034465087,5.986883914880204,0.0038195700062934523,0.0,0.08904539298248457,-0.05362812853132735,0.0014294121242894706,-0.025607142343364885,0.0017900746407455172,-0.00018585730559066076,-10.19,-0.23737147023342092,-0.467547910578088,-0.00030027765274290893,333.03388380170895,0.0,167.34234876024888,0.0
0.04399999999999693,-0.01803944918334457,5.984517652452768,1.9995971906668764,0.26402119043861344,1.332332682070831,0.009219529754501259,-0.02179573788310579,5.986888813979469,0.0045651801474894445,0.0,0.08983382708584413,-0.05374393119825347,0.00010982223135147275,-0.031363574375306985,-0.0059816058128458905,-0.0016819435282715764,-10.19,-0.237695265899653,-0.46911846957130443,0.0005999889698854803,331.04747180330975,0.0,172.81173537891635,0.0
0.04799999999998761,-0.017675764235659874,5.984302107965252,1.9995324401199253,0.24802152059800328,1.3153565936826732,0.007556554025961572,-0.021786906814999042,5.98689412629224,0.005373678620502844,0.0,0.09064244385350781,-0.053865339352528505,-0.006000458889179576,-0.048940699792688495,-0.036295313368118164,-0.004453943763949239,-10.19,-0.2327013082261976,-0.45531547753740403,0.0015562894644538775,323.42730953388303,0.0,173.47588395051943,0.0
0.0519999999999925,-0.017310362578282584,5.984086337137371,1.9993937656603948,0.22339408439341882,1.2796326730819128,0.005057916575254952,-0.021777397391064202,5.986899846668711,0.006244281659412747,0.0,0.09147338726196394,-0.05399068732152965,-0.019255169880591057,-0.07993543949600644,-0.09749181951604009,-0.0077712622850860166,-10.19,-0.22530997357999208,-0.43518155600138453,0.0026002340868130527,312.9755684128101,0.0,172.64478114859367,0.0
0.055999999999997385,-0.01694360768132328,5.983870404777348,1.999163227711367,0.18918190067750673,1.221771015782073,0.0017590629216883865,-0.021767218093910502,5.986905970006185,0.007176212667716154,0.0,0.09230198500295397,-0.05410553003195515,-0.038680239431126064,-0.11811714160774087,-0.18176500375685684,-0.011048538074980862,-10.19,-0.21642680908233525,-0.41112718058227693,0.003637262134875601,300.63625196380684,0.0,170.55029115502506,0.0
0.05999999999998806,-0.01657577820171354,5.983654362930251,1.998827995781441,0.14504602044658102,1.1403213031118409,-0.0022657615461835327,-0.021756377328471306,5.986912491248688,0.008168702160260301,0.0,0.09308863895666386,-0.054191665381085954,-0.062406301561021206,-0.1599293826354829,-0.2789218213731362,-0.01421855830912376,-10.19,-0.20660241042795308,-0.3845827436802069,0.004620649584497234,286.91001101016457,0.0,167.342856637582,0.0
0.06399999999999295,-0.016207094725058015,5.983438254740574,1.9983786939443122,0.09103755318718215,1.0351027794689438,-0.006912429708334723,-0.021744883422633515,5.986919405386597,0.009220987705619795,0.0,0.09378847134260386,-0.054229635532687545,-0.08922088010634838,-0.2029322417807383,-0.38138949305396525,-0.017192707168522434,-10.19,-0.1962269844268416,-0.35666943478073443,0.005512491775828326,272.1930185785294,0.0,163.13059688345032,0.0
0.06799999999999784,-0.015837736716430413,5.983222117150574,1.9978083104621054,0.027475228216451538,0.9067361737457689,-0.012056536139865043,-0.02173274462786256,5.986926707456257,0.010332313868877733,0.0,0.0943549831909115,-0.05419978797210394,-0.11831478183712574,-0.24550736955634833,-0.484002841709508,-0.019926662002181277,-10.19,-0.18558497987668027,-0.32814141576356404,0.006284868060473251,256.76297591526094,0.0,157.92779852194602,0.0
0.07199999999998852,-0.015467853811264608,5.983005982537148,1.9971114615755448,-0.04514087520504225,0.7563353977131884,-0.017562219498794267,-0.021719969119822297,5.986934392539612,0.011501932154873093,0.0,0.09474267083059192,-0.05408306875109479,-0.14913156375779552,-0.2865660496778688,-0.5835197069203946,-0.022393209256869027,-10.19,-0.17488885972449963,-0.2995006451406346,0.006919322356430095,240.80855975725606,0.0,151.68578464700855,0.0
0.0759999999999934,-0.015097573201591214,5.982789879571996,1.9962838940135819,-0.12619332468133534,0.5853049772554711,-0.023289288701071047,-0.02170656499899016,5.9869424557638355,0.012729100951883196,0.0,0.09490858060351957,-0.05386160949551683,-0.1812858267232603,-0.3253744142649787,-0.6779548905765278,-0.024582968435854828,-10.19,-0.16429687234649298,-0.271083659841863,0.007405243179165293,224.4511307072204,0.0,144.30898062141858,0.0
0.0799999999999983,-0.014727004340829759,5.982573833547591,1.995322147276291,-0.2149958098588007,0.39520859195354885,-0.029098938657072845,-0.02169254029126804,5.986950892300961,0.014013085475695066,0.0,0.09481322577557477,-0.05351911556333794,-0.21450765171913835,-0.3614620029495582,-0.7661480510822208,-0.026499195608178934,-10.19,-0.1539246861531037,-0.2431198231760692,0.007738508348011635,207.75673597825576,0.0,135.656776762755,0.0
0.08399999999998897,-0.01435624181936428,5.982357866355974,1.9942233232360695,-0.31083040086933483,0.18768506515196753,-0.03485829362102216,-0.021677902948588155,5.986959697367518,0.015353157714139266,0.0,0.09442105968476035,-0.05304108023407221,-0.24860541117530252,-0.39455800645911737,-0.8474733890059545,-0.0281542852220412,-10.19,-0.1438534791998214,-0.21577007063963047,0.00792035025576204,190.74036265561426,0.0,125.52932632333186,0.0
0.08799999999999386,-0.013985367019568918,5.982141996261979,1.9929849280314003,-0.41297645202443806,-0.03560426685267443,-0.040443994091720475,-0.021662660849514227,5.986968866224172,0.016748596372049285,0.0,0.09370067043418495,-0.0524148651427229,-0.2834408141622991,-0.4245452935069435,-0.9216460445258873,-0.02956739435491686,-10.19,-0.13413580820884052,-0.1891522373217676,0.007956425563854234,173.3620691423046,0.0,113.62756184803732,0.0
0.09199999999999875,-0.013614448906566672,5.981926237673563,1.991604778779896,-0.5207391275558674,-0.2730237992663304,-0.04574813373952674,-0.0216468217998386,5.9869783941753605,0.018198686816595144,0.0,0.09262481447303364,-0.051629677257782315,-0.3189105276234482,-0.4514367229462518,-0.9886222518527694,-0.030768559752738726,-10.19,-0.12479188822699998,-0.1633394307913535,0.007859708358887963,155.476015125118,0.0,99.48077253540042,0.0
0.09599999999998943,-0.013243544429932917,5.981710600978186,1.9900809499571284,-0.6334755109784185,-0.5230049654232244,-0.05067235043841178,-0.021630393533174346,5.986988276568945,0.019702721023075673,0.0,0.09117027393650882,-0.05067643778822819,-0.35493264396194263,-0.47536405102404206,-1.0485550340042955,-0.031784218558911045,-10.19,-0.11580964895767644,-0.13835998252441323,0.007636897142114773,136.8488101915275,0.0,82.05133760648683,0.0
0.09999999999999432,-0.01287269908783096,5.981495091476266,1.9884116115509702,-0.750567470443812,-0.7839457733074936,-0.05513585618129371,-0.02161338371154281,5.98699850879585,0.021259997521127037,0.0,0.08931772859474593,-0.04954762588278845,-0.3914498268329264,-0.4964865331080186,-1.1015466395701567,-0.032644028146502295,-10.19,-0.10721632777212856,-0.11435401708676832,0.007304455674352813,117.12203292195265,0.0,58.89621161382652,31.760834971446062
0.1039999999999992,-0.012501946432343774,5.981279709320799,1.9865950543597617,-0.871461198601899,-1.0542743642324268,-0.059045939294244995,-0.021595799925957237,5.987009086289715,0.022869821341291174,0.0,0.08705177771820176,-0.04823713123249996,-0.4284228532050781,-0.514991087819637,-1.1476267355018512,-0.033325810958666977,-10.19,-0.09898097067949063,-0.09140290003774904,0.0068451056480619875,95.82787954425739,0.0,9.65515796530516,52.00974069754471
0.10799999999998988,-0.012131308964869874,5.981064449600441,1.9846296943071833,-0.9957054359890587,-1.332442112194537,-0.06231643210266955,-0.02157764969700142,5.987020004526548,0.024531503962039118,0.0,0.08436099367665763,-0.04674002701118297,-0.4658151475726922,-0.5311899534242457,-1.1868718960635052,-0.03379774259599492,-10.19,-0.09102244136154163,-0.06957949903315758,0.006262645813394049,71.52247179805103,0.0,0.0,63.47924910005654
0.11199999999999477,-0.011760797548941323,5.980849301295662,1.9825140308053562,-1.1229910339811222,-1.616908999844608,-0.064914020519557,-0.021558940475403913,5.987031259024376,0.026244363257201437,0.0,0.0812378531653101,-0.04505207986729065,-0.5035926246751009,-0.5455684635348848,-1.2193665498750128,-0.034090925411168115,-10.19,-0.08321985597940883,-0.0489899675721619,0.0056152345445094586,37.49892948161892,0.0,0.0,71.0615156183248
0.11599999999999966,-0.011390411539752279,5.980634248585027,1.98024662692056,-1.253011373742855,-1.906133553380714,-0.06673724112115721,-0.021539679642608462,5.987042845342906,0.028007723443744695,0.0,0.07767891572313718,-0.04316928310921944,-0.5417264930476634,-0.5584700925597149,-1.2451556993749047,-0.0341807916336667,-10.19,-0.07557940528425035,-0.029745027694125403,0.004821847678486547,0.0,0.0,0.0,74.82826047812405
0.11999999999999034,-0.01102014273603982,5.980419275916123,1.9778262633691164,-1.3853407198542997,-2.1987583505314308,-0.06770470624351084,-0.021519874511339493,5.98705475908318,0.02982091502999899,0.0,0.07368458439383174,-0.04108825512003026,-0.5801799515166722,-0.5698125855241127,-1.2645282803244973,-0.03394641615292238,-10.19,-0.06820450222290929,-0.0116954975385834,0.0039017164015717953,0.0,0.0,0.0,75.87413742349689
0.12399999999999523,-0.010649978928433383,5.980204369037954,1.9752519722991217,-1.5195454673715363,-2.4936668594563973,-0.06773708271552913,-0.021499532326163272,5.987066995887244,0.03168327476428366,0.0,0.06925816444283046,-0.03880704146189936,-0.6188930384035135,-0.5793140757699918,-1.2782884448417993,-0.033345057677661015,-10.19,-0.061119951197942904,0.005384260849163713,0.0028538389039156438,0.0,0.0,0.0,74.59164783202074
0.1280000000000001,-0.010279905801820522,5.979989514906296,1.9725229881584876,-1.655217764898226,-2.789942945063586,-0.06683515702031737,-0.02147866026404542,5.987079551437808,0.03359414558386555,0.0,0.06440463262869993,-0.036325401250924996,-0.657802605016383,-0.5869140758127314,-1.2873808857064724,-0.032547426063065044,-10.19,-0.05432439230786132,0.02167198420864941,0.0017684846541377844,0.0,0.0,0.0,72.2201683610523
0.1319999999999908,-0.009909911688959565,5.979774703521745,1.9696388001969036,-1.792088423002984,-3.086945200891988,-0.06502860513461366,-0.021457265434903557,5.987092421457913,0.035552876564364455,0.0,0.0591296682414947,-0.033644010122294746,-0.6968453081255492,-0.5929084611555506,-1.2928320283580006,-0.031700778969447695,-10.19,-0.04766068108619993,0.0374800380103541,0.0006793682180123929,0.0,0.0,0.0,69.28763271696863
0.13599999999999568,-0.009539987664227471,5.979559927484383,1.9665990726324083,-1.9299858889227801,-3.3842363703809033,-0.06234702971872394,-0.02143535488215566,5.987105601710604,0.03755882286954807,0.0,0.053438802057069267,-0.030763583779948284,-0.7359619149140035,-0.5977690839726519,-1.2956688410800175,-0.030958395947256828,-10.19,-0.041035320309062887,0.053006391140926534,-0.00041244061334606147,0.0,0.0,0.0,65.87064985539988
0.14000000000000057,-0.009170127019172674,5.979345181377694,1.9634035816726851,-2.0687987930696683,-3.6815213554074693,-0.05881484474066771,-0.021412935583264982,5.987119087998601,0.039611345701446324,0.0,0.047336774894493464,-0.027684369119916518,-0.7751068547034272,-0.6018940916726734,-1.296727810882826,-0.030318561454491504,-10.19,-0.03439430796488624,0.0683831965673874,-0.0015118485607111317,0.0,0.0,0.0,61.925363100580036
0.14399999999999125,-0.008800324817105284,5.979130461286438,1.9600521762046295,-2.2084532026090526,-3.9786030485978836,-0.05445878785779757,-0.021390014450280076,5.987132876163974,0.04170981225090907,0.0,0.040827540382170416,-0.024406227697110584,-0.8142494769215552,-0.6055303271339041,-1.2965897126857953,-0.029780422505394515,-10.19,-0.027705083013775222,0.0837010690420123,-0.00261519805516725,0.0,57.592267813945796,0.0,57.488173185137185
0.14799999999999613,-0.008430576842606235,5.9789157641977955,1.9565447443048667,-2.348884317386629,-4.275362227635883,-0.04936503624010633,-0.021366598330370693,5.987146962087821,0.04385359564854474,0.0,0.033914391965869234,-0.02092880617635524,-0.8533694212283921,-0.608814991568888,-1.2956690415049497,-0.02945040494174387,-10.19,-0.02096736285908589,0.09902631735980372,-0.003652013929595086,0.0,94.94242953294669,0.0,53.75462293620616
0.15200000000000102,-0.008060880400713727,5.978701088357134,1.9528812136786757,-2.4900135526557707,-4.5717198050905274,-0.04367938275492512,-0.02134269400636033,5.987161341689947,0.046042074915965576,0.0,0.026600105884691777,-0.017251737746467967,-0.8924516097958201,-0.6117866089409809,-1.29424046266947,-0.029546393017960464,-10.19,-0.014196404312564498,0.11440710580627472,-0.0045491684114280515,0.0,120.2966093198996,0.0,52.281518863103024
0.1559999999999917,-0.007691236993585003,5.978486434751289,1.949061575967863,-2.6317241545503,-4.86758051635272,-0.03746263661232885,-0.02131830819725395,5.987176010928546,0.048274634917472435,0.0,0.01888725999984569,-0.013375035143372922,-0.931480040400071,-0.614364644577787,-1.2924055150634186,-0.03010478280804198,-10.19,-0.007423481631176426,0.12985109631975822,-0.005399990449058491,0.0,140.90785240610316,0.0,51.695243902750384
0.1599999999999966,-0.007321655242184822,5.978271808623842,1.9450859073546234,-2.7738366292086445,-5.16279726435582,-0.030768734113974055,-0.02129344755876166,5.987190965799889,0.050550666312112164,0.0,0.010778834484379057,-0.009299614786725075,-0.9704337644442564,-0.6163515786311129,-1.2900720966619124,-0.030954982465228063,-10.19,-0.0007096044663599671,0.14532828673828643,-0.006210048741670917,0.0,158.61842949945836,0.0,51.97929400333031
0.16399999999998727,-0.00695215381686224,5.978057221031121,1.940954385637022,-2.916089468538859,-5.457140996275409,-0.023628429786621576,-0.021268118683819247,5.987206202338006,0.052869565506020726,0.0,0.0022789800373251004,-0.005027880306116179,-1.0092867997334172,-0.6174497866754709,-1.2869864890422786,-0.031955515838005676,-10.19,0.005859097485393025,0.16077249757686257,-0.007004241781864039,0.0,174.369977281117,0.0,52.72219479132573
0.16799999999999216,-0.0065827616180200955,5.977842688762442,1.936667276354224,-3.05814956320559,-5.750308641050327,-0.016086297187922954,-0.021242328103103437,5.987221716614383,0.05523073460525244,0.0,-0.006606362916171724,-0.000564143250743133,-1.048011923152025,-0.6173319433949305,-1.28282270796154,-0.033076755776750795,-10.19,0.012185190576430818,0.17609161001293455,-0.007765195041136732,0.0,188.48301744887164,0.0,54.207206528178375
0.17199999999999704,-0.006213520013053494,5.977628235503543,1.9322249418511948,-3.199601668791158,-6.041907914387071,-0.008190158948206834,-0.021216082285544502,5.987237504737644,0.057633581368847726,0.0,-0.015868996522853833,0.004085041710588282,-1.0865822232159044,-0.6156640935095116,-1.277223778418484,-0.034281203611366176,-10.19,0.018168331110860678,0.19119477531816048,-0.008487310808104769,0.0,201.19518761152727,0.0,56.48087692753862
0.17599999999998772,-0.005844482714517641,5.977413891626419,1.9276278273765208,-3.3399610606521843,-6.331468432946576,-1.1323640621058796e-06,-0.02118938763883409,5.9872535628532555,0.06007751916234189,0.0,-0.025498171784593165,0.008910685131772967,-1.1249720861929167,-0.612124363623926,-1.269827463847225,-0.03558418834888892,-10.19,0.023702123236107403,0.2059723314100783,-0.00915311977346018,0.0,212.59513566690728,0.0,59.71602410850005
0.1799999999999926,-0.005475714866830918,5.977199693561342,1.922876443567425,-3.478692748075812,-6.6184561021025194,0.008425835466704544,-0.02116225050992911,5.987269887143217,0.062561966911633,0.0,-0.035480357434132484,0.01390121906858022,-1.163159387071798,-0.6064401701394324,-1.2603098626524294,-0.036950796716303476,-10.19,0.02869259226843665,0.22031663925366135,-0.00976734047956746,0.0,222.82570362271076,0.0,63.68032501469989
0.1839999999999975,-0.005107290279398488,5.976985682144974,1.9179713359878439,-3.6152388496108303,-6.902303998401856,0.01701973247192729,-0.021134677185552633,5.987286473825762,0.06508634905712393,0.0,-0.045799399076735976,0.01904270982878472,-1.2011279229753853,-0.5984305680811952,-1.248431311260457,-0.03837203844054732,-10.19,0.03306157451267423,0.23412923708938785,-0.010308966802900664,0.0,231.89324501761263,0.0,68.50203765177619
0.18799999999998818,-0.004739291840988621,5.976771902758576,1.9129130857033911,-3.7490221156541863,-7.182410243118546,0.02570117357230406,-0.02110667389269009,5.987303319155059,0.0676500955082938,0.0,-0.05643672544087395,0.02431913554383174,-1.2388668260527615,-0.5879978620738989,-1.2340274261048316,-0.03984579255744456,-10.19,0.03675263556457363,0.247341473123015,-0.010765313416761811,0.0,239.83639734463935,0.0,74.15606250174993
0.19199999999999307,-0.004371810345020877,5.976558404582751,1.907702297661897,-3.8794597917888445,-7.4581491334521655,0.03438376022711021,-0.021078246799081664,5.987320419420914,0.07025264159862046,0.0,-0.06737149927062566,0.029712637476128855,-1.2763678819843083,-0.5750880153965351,-1.2169621848414447,-0.0413749211129512,-10.19,0.039713704731463996,0.25987687352183186,-0.011124933793983962,0.0,246.67647020580722,0.0,80.57095498839327
0.19599999999999795,-0.004004942658342337,5.976345239507039,1.9023395861139594,-4.005979506623902,-7.728885572507202,0.042975975796477356,-0.02104940201371177,5.98733777094848,0.07289342804076579,0.0,-0.07858071786974422,0.035203741527994145,-1.3136266173625641,-0.559704839331501,-1.1971476244986836,-0.04295246637416264,-10.19,0.041905911827692446,0.27166527052751127,-0.011378301463412593,0.0,252.43142462195632,0.0,87.64827802666234
0.19999999999998863,-0.0036387888702056033,5.976132460516212,1.8968255545011983,-4.128037606469442,-7.993995479586159,0.051382390874776036,-0.021020145587293926,5.987355370097962,0.07557190088218638,0.0,-0.09003954228996561,0.04077175361030343,-1.350643537722466,-0.5419235271783776,-1.1745663982035524,-0.044570785199193684,-10.19,0.04330515847592609,0.28264595899397255,-0.011517081419090563,0.0,257.11607841883654,0.0,95.28732510211428
0.20399999999999352,-0.003273453589444401,5.975920122247861,1.8911608075862412,-4.245119696977527,-8.252852935591818,0.05950571647304579,-0.02099048351275185,5.987373213264326,0.0782875114610877,0.0,-0.10172155880114975,0.04639514123246436,-1.3874217963932411,-0.5218670232443252,-1.1492308291464834,-0.04621862002613812,-10.19,0.04391355364872496,0.2927895849265832,-0.011535169763725954,0.0,260.7577221161217,0.0,103.39136905602966
0.2079999999999984,-0.0029090461029985843,5.975708280918152,1.8853459547095948,-4.356748599492552,-8.504826782102416,0.06724570969771865,-0.020960421725697814,5.987391296877016,0.08103971636262973,0.0,-0.1135987927097217,0.05205182509556357,-1.4239645364906601,-0.49968466963774044,-1.1211359223083242,-0.04788456397364644,-10.19,0.04373727383671682,0.3020501577604025,-0.011425101107404623,0.0,263.36068965268214,0.0,111.88020118022408
0.21199999999998909,-0.0025456763944448233,5.975496992172122,1.8793815846060418,-4.462501267374096,-8.749306680243205,0.07449958138233291,-0.02092996610490641,5.987409617399666,0.0838279773755543,0.0,-0.12564175972336328,0.05771950900883194,-1.4602773362811616,-0.47556956947598594,-1.0903034462430063,-0.049560673325122546,-10.19,0.042780249323505326,0.31036330068096496,-0.01117975794330435,0.0,264.9113831790717,0.0,120.67777723808874
0.21599999999999397,-0.002183452822082672,5.975286309819651,1.8732682536544094,-4.562019706801454,-8.985714475275268,0.08117367054829747,-0.020899122472784623,5.987428171329818,0.08665176144914816,0.0,-0.13781987750907426,0.0633761561538407,-1.4963706242453667,-0.44976997661659757,-1.0568262671156554,-0.051228886496225604,-10.19,0.04107110673773352,0.3176949717383883,-0.010805548646577411,0.0,265.44855335071776,0.0,129.63449202867267
0.21999999999999886,-0.0018224837847014494,5.975076286484561,1.8670065015528932,-4.655019762896895,-9.213488548365161,0.08717626877920269,-0.020867896595839274,5.9874469551986405,0.08951054065044686,0.0,-0.15010176608662085,0.06900048213571684,-1.5322565379505,-0.42258017509167234,-1.0208138818098746,-0.052868460374181955,-10.19,0.03867415411073557,0.324039185475027,-0.010300867621063206,0.0,264.9917906158682,0.0,138.68643664471188
0.22399999999998954,-0.001462874812714286,5.974866972116488,1.8605968360025933,-4.741297461961116,-9.43209961045683,0.09242058026752474,-0.02083629418513993,5.9874659655706495,0.09240379212185629,0.0,-0.16245537801409057,0.07457240977206778,-1.5679479787381974,-0.3943290511156026,-0.9823770913578432,-0.05445802649389506,-10.19,0.03564157744482775,0.3293572276753953,-0.00966764084915942,0.0,263.5470106103907,0.0,147.75120833820904
0.22799999999999443,-0.0011047276704970275,5.97465841342998,1.8540397313907488,-4.820742164617137,-9.641051396886045,0.09683510967978876,-0.0208043208967782,5.987485199043435,0.0953309980391027,0.0,-0.17484816190833816,0.08007353883329026,-1.603459718465043,-0.36538291116998806,-0.941649545832955,-0.055970854335068654,-10.19,0.03205579668908412,0.33363402947944076,-0.008920124650390014,0.0,261.16993097639084,0.0,156.68987952312455
0.23199999999999932,-0.0007481390730823353,5.974450653295079,1.8473356247844772,-4.893333092141291,-9.839886685462139,0.10034170810112651,-0.020771982332324527,5.98750465224738,0.09829164556941286,0.0,-0.18724734473876056,0.08548764677706037,-1.6388083185617106,-0.3361321085613481,-0.898788306081383,-0.05740035817398759,-10.19,0.028000403210371817,0.3368581752866046,-0.008047552831441653,0.0,257.82072372620473,0.0,165.5328707306765
0.23599999999999,-0.00039319868316214994,5.974243729941933,1.8404849072167748,-4.959130927604019,-10.028194552269433,0.10288100904546132,-0.02073928403928045,5.987524321845397,0.10128522683010818,0.0,-0.19962021472906938,0.09080096393720677,-1.6740119260381743,-0.3069577656944481,-0.8539725610024551,-0.05873244298854511,-10.19,0.02355258080312165,0.33901955264569783,-0.00706859380772913,0.0,253.5509551544622,0.0,174.15364277152258
0.23999999999999488,-3.998892539583396e-05,5.974037676695648,1.833487927300309,-5.018301601710824,-10.20560649662051,0.10441486679091252,-0.02070623151152737,5.987544204532652,0.1043112388475199,0.0,-0.2119343667748756,0.09600243679313952,-1.7090899661735073,-0.2782468219944093,-0.807400374679605,-0.05992890466870874,-10.19,0.018828349491411978,0.34012581516907925,-0.00600553147837837,0.0,248.4380430663139,0.0,182.4209187594014
0.24399999999999977,0.00031141575192823474,5.973832521772299,1.8263449900952367,-5.071104273489037,-10.371800209412068,0.10489792412558956,-0.020672830189772912,5.987564297036297,0.10736918351612429,0.0,-0.22415786925244427,0.10108418159380754,-1.744061868518529,-0.2504142323841812,-0.7592683047254966,-0.0609783569022723,-10.19,0.013937422479855868,0.34018495774227236,-0.004848305103467474,0.0,242.4325534245022,0.0,190.38301773491474
0.24799999999999045,0.0006609496050602051,5.973628288303165,1.8190563552907657,-5.117869439996573,-10.526499108833168,0.10430676604392247,-0.020639085461992796,5.987584596115204,0.11045856755808788,0.0,-0.23625942577109513,0.10604165122702636,-1.778947281768728,-0.22383662327575266,-0.7097772263781177,-0.061869250628808506,-10.19,0.008972916357191404,0.339206751042639,-0.003620610776898232,0.0,235.59578919140534,0.0,197.93110017269498
0.25199999999999534,0.001008556788618001,5.973424993604201,1.8116222341633939,-5.159029252365159,-10.669475463099548,0.10264203029696153,-0.02060500266386929,5.987605098559705,0.11357890248312678,0.0,-0.2482085590645557,0.11087368225734533,-1.8137663198503167,-0.19886871467422218,-0.6591387134188937,-0.06256390453916541,-10.19,0.004059601028854538,0.3372013804354599,-0.0023495094320080123,0.0,228.01245705378972,0.0,204.94209515308953
0.2560000000000002,0.0013541914477560528,5.973222649404477,1.8040427911561177,-5.195097646643569,-10.800551759450546,0.09989549117736,-0.020570587079227366,5.9876258011913235,0.11672970454857595,0.0,-0.259975803193309,0.11558284991657046,-1.8485390869813216,-0.17588880902691267,-0.6075688621326547,-0.06305426903012448,-10.19,-0.0006832278172403316,0.33419550213903026,-0.001024598386054882,0.0,219.61920077551227,0.0,211.47664188099805
0.2599999999999909,0.0016978178826706773,5.973021262151215,1.7963181445452014,-5.226655114776099,-10.919596318991927,0.09609279357576829,-0.020535843940466415,5.98764670086252,0.11991049471986469,0.0,-0.27153283623386093,0.12017553547312829,-1.8832853517713883,-0.1552367941968133,-0.5552842387272442,-0.06331441182956601,-10.19,-0.005147115984929086,0.33021288247866865,0.00031496944469742733,0.0,210.5432646131158,0.0,217.3795816949994
0.2639999999999958,0.0020394122332628925,5.97282083215512,1.7884483594821285,-5.25436710298135,-11.026533558165095,0.09126112738713363,-0.020500778428988616,5.9876677944564305,0.12312079863129934,0.0,-0.282852682798009,0.1246619825233041,-1.9180247226794127,-0.13721638598530495,-0.5025068864613089,-0.06333027742926785,-10.19,-0.009210516859165376,0.32527429772439376,0.0016664099229105958,0.0,200.76581957039127,0.0,222.65072512734636
0.2680000000000007,0.0023789601138962803,5.972621355355011,1.780433460992762,-5.278930368420276,-11.12133071487335,0.08542595818460542,-0.020465395675625105,5.987689078886614,0.12636014654704616,0.0,-0.29390984667455705,0.12905619294803372,-1.9527760581661961,-0.12209619866873474,-0.4494552329514172,-0.06310991420875112,-10.19,-0.012778539238617981,0.31943440954297103,0.00303069266013326,0.0,190.24178536272453,0.0,227.3226746453982
0.27199999999999136,0.0027164561976927002,5.972422823815203,1.7722734367770279,-5.301061395913505,-11.20399301611887,0.07863236033951175,-0.02042970076105776,5.987710551096796,0.12962807332251675,0.0,-0.30468028195005414,0.13337537393562054,-1.9875559926025665,-0.11001771926285811,-0.39631814732675563,-0.06265544698790096,-10.19,-0.015780568406104506,0.31272422881385076,0.004383935838714327,0.0,179.01033484589107,0.0,231.32263953610163
0.27599999999999625,0.0030519061456057385,5.972225224801458,1.763968227776204,-5.321513926795778,-11.27457455828193,0.07093433361640879,-0.0203936987162377,5.987732208060615,0.13292411836605364,0.0,-0.31514140496027643,0.137639433577961,-2.0223805398274086,-0.10108374968168905,-0.3432839036553774,-0.061951485326689384,-10.19,-0.0181398887140191,0.3051629438572341,0.0057139292001181455,0.0,167.04505149929233,0.0,234.61630051516195
0.28000000000000114,0.0033853264368612513,5.972028541093703,1.7555177290630348,-5.341068183981983,-11.333177492590325,0.06239347528335996,-0.02035739452280169,5.987754046781379,0.13624782560080703,0.0,-0.3252723177418535,0.1418710734432304,-2.057266188759193,-0.09541899490366834,-0.29056124317962667,-0.060983623535938704,-10.19,-0.01977572875348749,0.2967948434455938,0.007009643395883006,0.0,154.31038885489852,0.0,237.17732994144328
0.2839999999999918,0.00371674413824278,5.971832751308226,1.7469217906731622,-5.360519856290258,-11.37995123826498,0.053077779523043565,-0.020320793113484226,5.9877760642918085,0.13959874342700987,0.0,-0.3350540350727089,0.14609583214556215,-2.092228753166882,-0.09311742140992707,-0.23836032402355714,-0.05974945177938353,-10.19,-0.02061753227311204,0.2876673253491329,0.008261135276907841,0.0,140.7342959562104,0.0,238.98290719163026
0.2879999999999967,0.004046195596986992,5.971637830748513,1.7381802236458135,-5.380660043413051,-11.415087055465534,0.043051200669259576,-0.020283899372526355,5.987798257653799,0.14297642468454677,0.0,-0.3444695652263034,0.1503417391704876,-2.1272825068031755,-0.09421367365103026,-0.18687784258502932,-0.058263843764746706,-10.19,-0.02061019413977773,0.2778373404131188,0.009470386059304899,0.0,126.10739770141454,0.0,240.05828509624985
0.2919999999999874,0.004373724645592172,5.971443752475622,1.7292928082950019,-5.402258402374036,-11.43880733392251,0.03239494644111339,-0.0202467181360827,5.987820623958171,0.1463804266156925,0.0,-0.35350377324663634,0.15463865692097598,-2.162439456566971,-0.0986651928067237,-0.13628350725893207,-0.056518855574338264,-10.19,-0.019714846295683194,0.2673589371556057,0.010614664519170702,0.0,110.27265841589438,0.0,240.3322755468652
0.29599999999999227,0.00469938775622783,5.97125048468371,1.7202592661719225,-5.4260920382432865,-11.451397141919932,0.02118384540602136,-0.02020925419262334,5.987843160324426,0.1498103108283184,0.0,-0.3621436571010145,0.15901812772422125,-2.197712229406613,-0.10642953245795891,-0.08677263058834765,-0.05452233927954436,-10.19,-0.017902022713190767,0.25624566278637767,0.011698131823611119,0.0,92.61154634914777,0.0,239.81776441420564
0.29999999999999716,0.005023247805996967,5.971057993960095,1.7110792906216308,-5.45290165726346,-11.453170149298531,0.00950676012898494,-0.020171512283334556,5.987865863900516,0.15326564325920305,0.0,-0.37037843606332577,0.16351309103033024,-2.2331127153011368,-0.11744040642336673,-0.038542346718506024,-0.05225554743109674,-10.19,-0.015126095859648693,0.2446039822632207,0.012701360078221754,0.0,72.21713878109642,0.0,238.4571753698355
0.30399999999998784,0.005345381466450149,5.970866241533782,1.7017525056448912,-5.483426565610104,-11.444512628470719,-0.0025433853144900815,-0.02013349710251517,5.987888731862592,0.15674599413774745,0.0,-0.3782000324291827,0.16815791160082721,-2.2686533454187634,-0.13161997976430562,0.008183744272998405,-0.04972201396815893,-10.19,-0.011381575145657078,0.2324402064230901,0.013615988345454863,0.0,45.74522460534926,0.0,236.20384045723668
0.3079999999999927,0.005665874402552245,5.9706751856414195,1.6922784876768953,-5.518374107420495,-11.425860293617129,-0.01486798966769514,-0.020095213297969792,5.987911761414776,0.16025093794997267,0.0,-0.3856033103841173,0.1729880712447616,-2.304347007639328,-0.14887937702145174,0.05315635517766241,-0.046900250374010855,-10.19,-0.006630156147140463,0.21987452430875326,0.01443159506273543,0.0,0.0,0.0,233.02126683547257
0.3119999999999976,0.005984822784091508,5.9704847806304295,1.6826567523710765,-5.558431194837472,-11.397709766594673,-0.02733935078491098,-0.02005666547140023,5.987934949788923,0.1637800534026851,0.0,-0.39258653223748413,0.17804012555448767,-2.3402059988159905,-0.16910798533915877,0.09611757107116628,-0.043753039238540174,-10.19,-0.0008578785476837641,0.2069744576133695,0.015110156066075584,0.0,0.0,0.0,228.73897850642933
0.3159999999999883,0.006302335453226899,5.970294975647774,1.6728867336480044,-5.604269812485519,-11.36064504254938,-0.03985060945628594,-0.02001785817879267,5.987958294244388,0.16733292338802988,0.0,-0.39915191161066127,0.18335171812137066,-2.376243946496268,-0.19221064558221113,0.13676474782715256,-0.0402786999600998,-10.19,0.00594908473624388,0.19383385675886156,0.015670785584971682,0.0,0.0,0.0,223.40280084343462
0.3199999999999932,0.0066185066597129446,5.9701057287917,1.6629679342700612,-5.656353652018075,-11.315187872889446,-0.05240337000995732,-0.01997879593080183,5.987981792067794,0.17090913494832113,0.0,-0.40530463397071265,0.1889598222617857,-2.4124613467770004,-0.21782520333742447,0.17501308269990576,-0.036666211702360764,-10.19,0.013757218321147405,0.18071919116096277,0.01623580098531626,0.0,0.0,0.0,217.56852137901896
0.32399999999999807,0.00693341107715443,5.969917009704993,1.6528999614698927,-5.714931015731123,-11.261750843366297,-0.06500545417949254,-0.019939483193133364,5.988005440572805,0.17450827924103088,0.0,-0.41104963943979883,0.19489668088968554,-2.448839763588274,-0.24523197654088486,0.21111402093669937,-0.033141487545586344,-10.19,0.02238798397493713,0.16760143669764344,0.016812533956213332,0.0,0.0,0.0,211.2875696785678
0.32799999999998875,0.007247110101803117,5.969728795961626,1.6426824962372453,-5.780106393472638,-11.200671117595764,-0.07768519612165219,-0.019899924386922112,5.988029237099895,0.17812995150416258,0.0,-0.4163888008450908,0.20118720436737525,-2.485351742079675,-0.273606181764914,0.2454911656882341,-0.029766938749149947,-10.19,0.03166188466531995,0.1543567702541938,0.01742527088056772,0.0,0.0,0.0,204.65073913239004
0.33199999999999363,0.007559662975064695,5.969541067637295,1.632315235906282,-5.851856254024379,-11.132268732041029,-0.0904706738101889,-0.019860123889107323,5.988053179016125,0.18177375102189539,0.0,-0.42132181495217014,0.20784977881736602,-2.521979770390859,-0.30231771868776847,0.27839980385858476,-0.026547575669030304,-10.19,0.04138407430386345,0.14086330298962021,0.018074881409153875,0.0,0.0,69.15961911507667,197.65800590671333
0.3359999999999985,0.007871127440400996,5.969353806351508,1.6217978953644852,-5.930089235863987,-11.056839883596233,-0.10332384573869934,-0.019820086032806303,5.988077263714915,0.18543928109037872,0.0,-0.42584746786250544,0.21489771874738142,-2.5587146812657116,-0.3308813285486953,0.30994833022538315,-0.023370218480521166,-10.19,0.05146886869498607,0.1271031243686816,0.01868528788754253,0.0,0.0,100.03952047339025,189.93509879586756
0.3399999999999892,0.008181570302040211,5.969166989613564,1.6111301937796685,-6.014628633010353,-10.974701474317774,-0.11616216279777394,-0.019779815107683858,5.988101488615826,0.18912614898390792,0.0,-0.4299639295492397,0.22233971422067073,-2.5955506883467994,-0.358893396872878,0.34013654320249004,-0.020034402527044286,-10.19,0.06174993566576087,0.11299300466131901,0.019202941016723124,0.0,0.0,123.11515918634909,181.15829278726727
0.3439999999999941,0.008491055428945302,5.968980597013353,1.600311901889009,-6.105193045168426,-10.886221609364322,-0.12898341252933926,-0.019739315360318862,5.9881258511643365,0.1928339659213644,0.0,-0.4336700972714529,0.23017998673882056,-2.632478855216471,-0.3859644920632404,0.3688511908140151,-0.016514447109868914,-10.19,0.07216565701942818,0.09874088114365154,0.019718295939786388,0.0,0.0,142.65431509288345,171.7831079872266
0.347999999999999,0.008799640044498675,5.968794612909442,1.5893428453455503,-6.201375752449879,-10.791862779425562,-0.14179726892660582,-0.019698590994569273,5.988150348831622,0.19656234703279832,0.0,-0.4369681750904501,0.23841758807664276,-2.6694844264403454,-0.4116457566289487,0.3958307455069461,-0.01303136358346132,-10.19,0.08258732051456825,0.08452230542905803,0.02024514586941661,0.0,0.0,159.87313473490744,161.94540456643946
0.35199999999998965,0.009107372928070113,5.96860902788706,1.5782229072337675,-6.302636571208402,-10.692202063776993,-0.15460692940913762,-0.01965764617193302,5.988174979114342,0.20031091132638856,0.0,-0.43986603969277926,0.2470456278832011,-2.7065493755059125,-0.4354025934062249,0.4206639691375152,-0.009676223095918344,-10.19,0.09285582187335795,0.07052409821949601,0.02077632187259455,0.0,0.0,175.24874745877943,151.70849808307196
0.35599999999999454,0.009414293801862619,5.968423839496826,1.566952028296791,-6.408299844625311,-10.587939634737861,-0.16741420570765894,-0.01961648501190607,5.988199739534422,0.20407928165566125,0.0,-0.44237846091901767,0.2560498827850324,-2.7436548580526905,-0.456652392005459,0.4428498410393682,-0.006508486439016685,-10.19,0.10279313715510632,0.05693906367961546,0.021310336248889214,0.0,0.0,189.0548701345975,141.20227692040444
0.35999999999999943,0.00972042795485518,5.968239054050124,1.5555302226935617,-6.517675061062221,-10.47978318196638,-0.1802089203122442,-0.01957511159233901,5.988224627638838,0.20786708468684317,0.0,-0.4445266405723526,0.26540950262474744,-2.7807800006449215,-0.4750059826984826,0.46205235321396343,-0.0035454658888488823,-10.19,0.11236539856366166,0.043890107327200695,0.021833257898564884,0.0,0.0,201.48399439483475,130.36759374902007
0.3639999999999901,0.010025794606661042,5.968054683761535,1.5439575440245896,-6.629950902398771,-10.368558040580531,-0.19295645922952262,-0.01953352994978958,5.988249640999405,0.2116739508665887,0.0,-0.4463371670804891,0.2750980480259386,-2.8179053530644698,-0.49011467686750193,0.47795732266493196,-0.0007817921984054506,-10.19,0.12136093323234665,0.03147432754789564,0.02231612234653973,0.0,0.0,212.52797170769188,119.1159657313888
0.367999999999995,0.010330406313904214,5.9678707470753904,1.5322340860798063,-6.744219644481242,-10.25518367230506,-0.20561052509319852,-0.019491744079872406,5.98827477721257,0.2154995143899595,0.0,-0.44784242510689287,0.28508309657223757,-2.855014424407252,-0.5015852665371942,0.49019382516102683,0.0018009598529952233,-10.19,0.12962257082140144,0.019867528180261218,0.02274385691015602,0.0,0.0,222.20222564599436,107.45521489509801
0.3719999999999999,0.010634269439413133,5.967687268351733,1.5203599776205974,-6.859501695594193,-10.140650593804036,-0.21810989514329826,-0.019449757937607358,5.988300033899198,0.21934341316853195,0.0,-0.44908195604649687,0.2953249584794084,-2.892093185633547,-0.5089797717936697,0.49833790281469764,0.004186621471762593,-10.075515048574637,0.1370074824426557,0.009213867368131928,0.023097118725107137,0.0,0.0,237.6470670045162,111.49846257518509
0.37599999999999056,0.010937383802246356,5.967504277408868,1.5083353809620315,-6.974809544110497,-10.025957361070763,-0.2303679241197127,-0.019407575437763887,5.988325408704365,0.22320528879887377,0.0,-0.4501013069126715,0.3057780036132276,-2.929128095759206,-0.5120777427063965,0.5021771209455809,0.006400462787090336,-9.237750690984203,0.14344008622965349,-0.0004012713899067266,0.023343685487834734,0.0,0.0,290.159204725025,186.05716661533864
0.37999999999999545,0.011239722639961766,5.967321822614728,1.4961606270465986,-7.089247790759001,-9.912016630025898,-0.24211321229044927,-0.019365200455202628,5.988350899297157,0.2270847865312684,0.0,-0.45094887176747533,0.3163930996641132,-2.9660929627434003,-0.5109108405664967,0.5017504494399986,0.008789898225321441,-8.395944005165276,0.14911798060581027,-0.008771133282159532,0.023264159977848992,0.0,151.7058031614603,333.29582608195983,238.0534329816308
0.38400000000000034,0.011541150291384436,5.967140029863789,1.4838367985284304,-7.202030617109369,-9.799609846846392,-0.25308161853131156,-0.019322636825215716,5.988376503370461,0.23098155523855926,0.0,-0.45167022644747323,0.32711984292494295,-3.002889487432807,-0.5057855594501027,0.4974003502505894,0.011705126399644255,-7.551634437525337,0.15481070715931106,-0.015004312268279224,0.022855841054594685,13.226957232741707,219.90769094332515,370.2518075244677,280.284592386768
0.387999999999991,0.011841422935367262,5.966959108066608,1.4713658540175472,-7.312293582830307,-9.68938877118527,-0.26324948708076057,-0.019279888343863093,5.988402218640763,0.23489524738536016,0.0,-0.45230381932662017,0.3379052715504029,-3.0393376598294912,-0.49690007595115204,0.48969730765754294,0.014982272001582022,-6.706637506692459,0.1605018985627323,-0.01911382144161805,0.022388752928414295,159.58630508815867,272.39191906198704,403.27800004367714,317.377336892614
0.3919999999999959,0.012140177724540794,5.966779366241677,1.458750658385525,-7.418894660069465,-9.581730891403941,-0.2726131436953729,-0.01923695876830617,5.988428042847951,0.23882551899750742,0.0,-0.45287996202955166,0.34868949602517707,-3.075212779442423,-0.4838163523233467,0.479524986295775,0.01805688336299622,-5.862858118342629,0.16607804338008986,-0.02115345314875966,0.021885209902252865,224.62142950214007,316.8646695929101,433.24488380937976,350.95807665792734
0.3960000000000008,0.012436925722164163,5.96660122530734,1.4459950559134749,-7.520383757151307,-9.47672095254349,-0.28126202326924055,-0.01919385181714027,5.98845397375511,0.2427720296316251,0.0,-0.45341859055650746,0.3593981252437134,-3.110284660478732,-0.46545106118101814,0.46803907783659443,0.020816647513768386,-5.022378483772094,0.1713243935883171,-0.021250323301340968,0.021453771151341144,273.74354870325993,355.89146817796296,460.88262295301485,382.15400968392413
0.3999999999999915,0.012731035324310448,5.966425239204269,1.4331039180727458,-7.6152239783209765,-9.374264561413826,-0.2891551962518197,-0.019150571170723097,5.988480009148328,0.2467344423450526,0.0,-0.45392873958318936,0.369941789506501,-3.1443112282173318,-0.4408289799235769,0.45631952782934304,0.023308077791508317,-4.187408973626141,0.17638293540187855,-0.01929993232215156,0.020945772973524006,314.761248304833,391.42494442195283,486.2491252584342,411.0910834759119
0.40399999999999636,0.0130216778619866,5.96625214707731,1.4200834935345688,-7.701861157104329,-9.274177294048322,-0.296203081837798,-0.019107120471500632,5.988506146836499,0.25071242366600854,0.0,-0.45441047809797813,0.38022034318778675,-3.177010919420606,-0.40949432543302616,0.44503448970854514,0.025985347172720125,-3.3609030242513,0.18185159485032268,-0.014649102267548467,0.020302649552594032,350.25306252150557,424.62188541070935,509.48448776171193,438.00712836227257
0.40800000000000125,0.013307882094217842,5.966082837404711,1.406941027805771,-7.7788340277006505,-9.176253081285282,-0.3023375011189893,-0.01906350332433186,5.9885323846511245,0.25470564356386116,0.0,-0.4548607301372563,0.3901311310206386,-3.2080975480119647,-0.3715005309475723,0.43448791574548784,0.028972684926712185,-2.545085994753599,0.18747507567553193,-0.007791470715284229,0.019545664200441477,381.79619869167067,455.7373205173253,530.8826103217315,463.1819282777023
0.41199999999999193,0.013588496996344297,5.965918384639525,1.3936850572304282,-7.844760155927798,-9.080241115031631,-0.30750139875865756,-0.019019723296809593,5.988558720446127,0.25871377541975704,0.0,-0.4552745797016279,0.39957213128373464,-3.2372874375276752,-0.32716932247151426,0.42485530687157713,0.03229219227291253,-1.7428116835598644,0.19380486810115982,0.001776730120676695,0.01868494759013175,409.95634899689765,485.25419970339743,550.6062141740559,486.8105146102655
0.4159999999999968,0.013862251791528358,5.965760002007073,1.3803250216640168,-7.8983718329755375,-8.985846036385533,-0.3116583566044497,-0.018975783919578753,5.988585152097654,0.2627364959974812,0.0,-0.4556454236322966,0.4084446193694026,-3.2643183144602355,-0.2769328777410779,0.416322088058087,0.035873568912821126,-0.9561889410450775,0.20049541963743436,0.013457109790946956,0.017742196585396386,435.4608520212415,513.1911409615824,568.8484613856242,509.0438058407848
0.4199999999999875,0.014127787508348033,5.965609013986974,1.3668710765844807,-7.93850786411154,-8.892705542881133,-0.31480066084722896,-0.018931688686653736,5.988611677503887,0.2667734854144025,0.0,-0.4559642489400474,0.41665472274776894,-3.2889785880855853,-0.22126948095595922,0.40913459979459665,0.03966320621612389,-0.18697408578871233,0.2073913127765044,0.0269061175574115,0.016749376654012965,458.72689794924395,539.6121335686544,585.7814774106571,530.0334916448472
0.4239999999999924,0.014383661942775613,5.9654668494955425,1.3533340861497953,-7.964083721823898,-8.80035127981461,-0.3169615499600386,-0.018887441055730942,5.988638294584856,0.27082442711286003,0.0,-0.45621809124681023,0.42411410312182063,-3.3110967296228644,-0.16062257092923332,0.4036551190577734,0.043567219832230844,0.563067846420779,0.21452922069248315,0.0420151414642762,0.015753938947276874,479.94884273310845,564.5965027549815,601.5658390426463,549.9311559546785
0.42799999999999727,0.014628385526407888,5.9653350046549445,1.339725398210546,-7.9740876667083125,-8.708196384032219,-0.31818831654531254,-0.018843044448501215,5.988665001282247,0.2748890078315601,0.0,-0.45638779560606013,0.4307393798818209,-3.3305338998700953,-0.09536083334193243,0.40035511407730107,0.04752927231330724,1.2926058479195035,0.2215876777021194,0.05829078971896583,0.014773597273693342,499.4565496755017,588.1473381768728,616.3085360239511,568.8196067985227
0.43199999999998795,0.014860492556897188,5.965214970686298,1.3260563688898348,-7.9675892219235935,-8.615564150896999,-0.3185627851118478,-0.018798502250958256,5.988691795559224,0.27896691757733943,0.0,-0.4564477073839224,0.4364527210827392,-3.3472182954836236,-0.025826936224284964,0.39972068575441877,0.05149361638318245,2.0012583652992646,0.22782346332602896,0.07482384140921444,0.0138505671327954,517.6337135943871,610.1249172735165,630.1577665665401,586.8281769420325
0.43599999999999284,0.015078520758124212,5.965108243612644,1.3123385235504321,-7.943706417225168,-8.521651199495965,-0.31819263464810355,-0.01875381781370462,5.988718675400237,0.283057849597151,0.0,-0.45636530668057523,0.44118189405973907,-3.361137822870424,0.04766082593741783,0.40223129128472834,0.05540679022042906,2.688316896250228,0.2333537097824021,0.09166444943472511,0.013018351121201453,534.5124457135468,630.6516070167468,643.2117206414024,604.0595546922057
0.4399999999999977,0.015281038994135767,5.965016289276153,1.2985833822800006,-7.9016103244082,-8.42554431838449,-0.317200806148339,-0.018708994452256735,5.988745638810843,0.2871615003501395,0.0,-0.45610029224590065,0.44485940948083263,-3.3722895674075337,0.12485246677521522,0.4084046962634268,0.05922863846559393,3.3534217240037023,0.23779116820936688,0.10832918048524813,0.012299147336627472,550.3021624320346,649.7101349584631,655.5534782556765,620.5893448469769
0.4439999999999884,0.015466690605068091,5.96494049300542,1.2848021732800066,-7.840538581937051,-8.326262208186884,-0.31572250835927107,-0.018664035447346104,5.988772683817524,0.2912775694800649,0.0,-0.4556054444106463,0.4474229230951024,-3.380715079627861,0.2054900527638778,0.4186718364586358,0.06293274702489368,3.9967949806163183,0.24055927365535323,0.12416987335560119,0.011712291405363442,565.2553511639237,667.2465406154976,667.2631594598656,636.495387923187
0.4479999999999933,0.015634151552036846,5.9648821899062305,1.2710061570171087,-7.759775336094366,-8.222714832084025,-0.3139070653703098,-0.018618944045218133,5.988799808467508,0.2954057597879444,0.0,-0.4548272545153208,0.4488152589847396,-3.38646452005151,0.28931918731814876,0.43343359489625605,0.06649396816479812,4.6180102319730345,0.24195869384587998,0.13944131669011223,0.011279790424023623,579.3086949339333,683.4094899068285,678.3997808313986,651.8385741643672
0.4519999999999982,0.01578211298443074,5.964842673019732,1.257206789132548,-7.658657114351159,-8.113691196724034,-0.3119080461255706,-0.018573723457930073,5.9888270108285875,0.29954577720477715,0.0,-0.4537052603202053,0.4489840029704807,-3.3895452445122194,0.37610950570107193,0.453161612376641,0.06989694851577881,5.216309387939059,0.2420661880584502,0.15412558229739406,0.011012711244579455,592.4818890807649,698.2712605836604,689.0015637084833,666.6440733350908
0.45599999999998886,0.015909336663033204,5.964823132779851,1.243415360502378,-7.53660267816574,-7.9979256347261165,-0.3098705091604261,-0.018528376863645144,5.988854288988944,0.3036973307646138,0.0,-0.452172603336564,0.4478823173532591,-3.389965692649718,0.46558990824599844,0.4782676560245121,0.07314608271308712,5.791658637922772,0.24020217774344263,0.16743843083624055,0.010907405582851732,605.0456344488667,711.7401491647838,699.1002637397329,680.9280923272739
0.45999999999999375,0.016014669484828332,5.964824636163819,1.2296429344684348,-7.393123712767662,-7.874119587417424,-0.30792441731022513,-0.018482907406924383,5.988881641056973,0.30786013257783956,0.0,-0.4501583262121797,0.44547037993473637,-3.3877762511886003,0.5574110608101042,0.5089938113422107,0.07625573141968299,6.344156812555944,0.23611560310319177,0.17904608681644507,0.01095219315536776,617.1384603468007,723.8410385079054,708.714419638028,694.6992529116263
0.46399999999999864,0.01609705399606354,5.964848110834322,1.215900317902291,-7.227839470785434,-7.74096478636876,-0.30617728331611394,-0.01843731819901762,5.988909065161107,0.3120338978045339,0.0,-0.4475896387879251,0.4417162525808543,-3.3830509293848188,0.6511615995845272,0.5454488584038037,0.07924048745739594,6.87396872144901,0.2296174942776781,0.18867214478087418,0.011126191778352775,628.8854851550321,734.6162090612315,717.8507653045876,707.9532879271238
0.4679999999999893,0.016155538628880573,5.964894330862046,1.202198038710812,-7.040495285014155,-7.5971703742925705,-0.30470695510679846,-0.018391612318150733,5.988936559449646,0.3162183446281721,0.0,-0.4443934989399202,0.4365965376724458,-3.375868270706524,0.7463680461434286,0.587635460215435,0.08211927855493674,7.381313002032183,0.2205506668775679,0.19606335623907517,0.01139917696898848,640.4090968585267,744.1171476927327,726.5050984363627,720.6733499602512
0.4719999999999942,0.016189287665596526,5.964963904112966,1.1885463286952314,-6.83098155298271,-7.441490724749313,-0.3035552842589985,-0.018345792809810635,5.988964122090583,0.32041319422953485,0.0,-0.4404984388213675,0.43009731297297565,-3.366309198659741,0.8424806421117674,0.6354365115061695,0.08491366958708872,7.866451972295998,0.2087936589174981,0.20099230759820547,0.011732315307229216,651.82760573373,752.404444382231,734.6637907985022,732.8315908225303
0.4759999999999991,0.016197600924513278,5.965057252257762,1.1749550287732429,-6.599341295682411,-7.272758368067361,-0.3027232924362127,-0.018299862687029465,5.988991751271433,0.32461817076068905,0.0,-0.4358365417641886,0.4222150813067933,-3.354463441665048,0.9388893313080592,0.6886038334098004,0.08764454289524745,8.329849744403262,0.1941445595902594,0.20314890122807067,0.012079651804884524,663.2865200232925,759.5239766064556,742.3083047300302,744.3957121833585
0.47999999999998977,0.016179957673216443,5.965174570536863,1.1614332907977147,-6.345748457831844,-7.089928862637197,-0.30216514209067974,-0.0182538249306651,5.989019445199067,0.3288330013193071,0.0,-0.43034582233168966,0.41295674715344066,-3.3404572627560354,1.0349938994284178,0.7467287383737317,0.0903308821911189,8.77258805684022,0.17613105723997408,0.20197916660126813,0.012386511763963626,675.0122816159189,765.4787510487887,749.4181924375814,755.3384729804458
0.48399999999999466,0.016135922931276817,5.965315913639986,1.1479904093507196,-6.070638494233082,-6.89205870793994,-0.30178994926231195,-0.01820768248967944,5.989047202099542,0.3330574159231891,0.0,-0.42397132563247253,0.4023403816830119,-3.3243671408601165,1.130006705494568,0.809330467461724,0.09299175315720722,9.194082478917416,0.15587490100165782,0.19847527192251047,0.012598410732220972,686.7861119176933,770.5857328772938,755.9461332936273,765.5957320307433
0.48799999999999955,0.01606520478422176,5.9654811451908465,1.1346354236298795,-5.774674706569149,-6.678358716692661,-0.3014605540817556,-0.018161438281415976,5.9890750202179355,0.33729114748485134,0.0,-0.41666647963539355,0.3903975938806615,-3.306226202506803,1.2229662548672509,0.8758460783321798,0.09564394601163288,9.594552012159419,0.13295615872893402,0.19201452525013926,0.012657571915006638,698.8143115711748,774.8180266808527,761.8649112791862,775.1081726069577
0.4919999999999902,0.01596767210926847,5.965669925342513,1.1213770296008858,-5.458743296250759,-6.448217771946325,-0.3009957266441608,-0.01811509519187371,5.989102897818181,0.3415339317864492,0.0,-0.4083947525937865,0.3771753787541788,-3.2860714625221084,1.3128649827040124,0.9455975807883767,0.0982945911640429,9.974402091035603,0.10736418328616366,0.1824234470082019,0.012506885513741428,711.1880149940118,778.2442057746111,767.1466050942893,783.8259871593389
0.4959999999999951,0.015843360691746553,5.965881710311777,1.1082235798047837,-5.123957114618561,-6.201220002577863,-0.3001750785379626,-0.01806865607597888,5.989130833182902,0.3457855074548985,0.0,-0.39913149904720235,0.36273511815728915,-3.263971256508042,1.3987401409775138,1.017784994404072,0.10094215859471015,10.19,0.07923396029436096,0.16967828893131215,0.012093156862419857,721.0364730663168,778.255419501133,769.032836707502,789.0394472260574
0.5,0.015692480788618478,5.9661157520557335,1.0951830584486935,-4.771660491894062,-5.9371639343853815,-0.2987452852304465,-0.01802212375785605,5.989158824613251,0.35004561593705813,0.0,-0.3888647362533447,0.347151955962692,-3.2399913461741257,1.479604596540919,1.0915354973265419,0.10357635276173074,10.19,0.04872017372748397,0.15376600233293558,0.011368836665000548,727.4736909689967,773.9541796877319,766.5320064157609,789.7945850156548
0.5039999999999907,0.015515447213446457,5.9663710811678206,1.0822628091483717,-4.403435361020754,-5.6560809989262735,-0.2964279990059507,-0.017975501031095575,5.9891868704287505,0.354314001475243,0.0,-0.3775960046295069,0.3305146374531479,-3.2142226292235163,1.5544405309489187,1.165898204872632,0.10617796302560692,10.19,0.01580209284574341,0.13443801794877816,0.010294249040021674,734.973148637092,769.3932427185548,763.7179921153837,790.0336600732531
0.5079999999999956,0.015312914614095844,5.966646489688752,1.0694691381540398,-4.021079437215493,-5.3582374240668695,-0.29292795738305444,-0.017928790659018944,5.989214968967128,0.3585904110829316,0.0,-0.36534085814530226,0.31292491268782135,-3.1868215001974414,1.6222456663282028,1.2398734022677065,0.10872354925107444,10.19,-0.019568151055905286,0.11137499799024228,0.008838143054763999,743.5836686043998,764.5639352663305,760.580518892503,789.6913559385611
0.5120000000000005,0.015085768521724153,5.966940552980841,1.0568073040360995,-3.6265595354186595,-5.044125901552446,-0.28795365363041175,-0.017881995374943508,5.989243118584163,0.36287459452052906,0.0,-0.35212797637914806,0.2944949830398972,-3.1579991454349283,1.682122326916159,1.3124606585981975,0.11117030843726883,10.19,-0.057040136693952914,0.08474616663083578,0.006992699019648609,753.2171966543301,759.5295000709766,757.1267469655268,788.7380610212186
0.5159999999999911,0.014835099655181136,5.96725166367264,1.0442816815224216,-3.222183619616989,-4.7145832371949385,-0.28121877271706763,-0.017835117882443643,5.989271317653524,0.3671663042714574,0.0,-0.337999669806495,0.275347441350674,-3.1279665112098205,1.7329903268881843,1.3824830995020696,0.11346161345761877,10.19,-0.09589464242638646,0.055072517117206954,0.0047519085343173,763.7023048833291,754.4347662225349,753.3677086190442,787.1428811395797
0.519999999999996,0.014562178321512796,5.96757806642964,1.0318959059836614,-2.810487824555029,-4.370742439570685,-0.27245941324415524,-0.017788160855609844,5.989299564566617,0.371465295518436,0.0,-0.3230130827850034,0.2556162532958989,-3.0968954916979463,1.7736361162355159,1.4486117973966484,0.11553013503970136,10.19,-0.13548496014426512,0.022859802330735896,0.0021300743373996317,774.8594229640206,749.3935754177393,749.3324628955303,784.9030835111993
0.5240000000000009,0.014268431384817532,5.967917889303705,1.0196529930695086,-2.3942097014101344,-4.0140296321369755,-0.2614494629741136,-0.01774112693930725,5.989327857732429,0.37577132611981223,0.0,-0.3072407485553647,0.2354466429148022,-3.0649218969252034,1.8029919563953687,1.5095362372864902,0.11731192816189248,10.19,-0.17519202283876262,-0.011380678056985033,-0.0008396378311144228,786.4976005319604,744.4971273045918,745.0696691706439,782.0400159599342
0.5279999999999916,0.013955420688291571,5.968269172977944,1.007555438866993,-1.976263252726089,-3.646156776818908,-0.24801440412369033,-0.017694018749430634,5.989356195577373,0.3800841565862164,0.0,-0.29076914050382674,0.2149918744740405,-3.0321526393565597,1.8201724009223832,1.5640028192641515,0.11873410755599771,10.19,-0.21441098779812445,-0.04712574570871214,-0.004106399506969307,798.4159102847096,739.8168826101213,740.6476232384123,778.5974308258146
0.5319999999999965,0.0136248220801877,5.9686298987185396,0.9956053053222237,-1.5596770572409715,-3.2690775252350077,-0.23203507379388552,-0.017646838873157395,5.989384576545136,0.38440355005740184,0.0,-0.27369756902100745,0.19441122819873755,-2.9986718507551227,1.824461960753584,1.6108439185837327,0.11973806011927539,10.19,-0.25258773233691123,-0.0838746644178463,-0.007612882998227086,810.4252143977612,735.4093168123477,736.1408818810185,774.6293031672395
0.5360000000000014,0.013278404673872054,5.968998015312618,0.9838042939507065,-1.14747759193217,-2.884890906631181,-0.21346882413153423,-0.0175995898692,5.9894129990965315,0.38872927227913107,0.0,-0.25613519363370335,0.17386616763923393,-2.9645461037446017,1.8154829988037045,1.6491406326673943,0.12026462585238784,10.19,-0.28928435965497873,-0.12120875922755464,-0.011274777467954042,822.3380951866288,731.2749151735161,731.6554677273012,770.2254078356061
