Time_s,X,Y,Z,Roll_deg,Pitch_deg,Yaw_deg,Ref_X,Ref_Y,Ref_Z,Ref_Yaw,vx,vy,vz,p,q,r,T_pert,tau_x,tau_y,tau_z,RPM_0,RPM_1,RPM_2,RPM_3
0.0040000000000000036,2.463424419293038e-22,-6.0,0.010010999365392528,-6.049892775711399e-19,8.292770768298355e-19,2.077115276712925e-20,3.54011234567732e-22,-6.0,0.010078639342052604,-8.985805826604334e-23,-1.1455661949243686e-19,-666.6666666666666,1.1123332628213918,0.0,0.0,0.0,0.1372764413302538,7.064655788861421e-19,2.8628440795970466e-19,-3.027823849359628e-20,539.3554952302569,539.355495230257,539.3554952302569,539.3554952302569
0.008000000000000007,6.944924159782689e-23,-6.0,0.010014999136747069,-2.642857620575492e-18,4.738092339809717e-19,2.5760769906112803e-20,3.5398589823838717e-22,-6.0,0.01022105658207473,-8.985162718946665e-23,-5.2084766230488e-22,-9.875066055938383e-24,0.0009999428386350817,0.0,0.0,0.0,0.2830770502332129,2.421055485608827e-18,1.2550691360318155e-18,-6.89257522790941e-21,543.2938745170997,543.2938745170998,543.2938745170997,543.2938745170998
0.01200000000000001,9.770068342059041e-23,-6.0,0.010018998908101609,-3.186739240730533e-18,7.427051817927724e-19,2.823001062887228e-20,3.539481224526579e-22,-6.0,0.010433396857179636,-8.984203862723004e-23,-1.4987640938721627e-20,-4.145990654376319e-23,0.0009999428386350817,0.0,0.0,0.0,0.4294003558121097,8.158330609470457e-19,-2.5876473276629744e-18,-4.153040300252577e-21,547.2178761771249,547.217876177125,547.2178761771249,547.2178761771249
0.015999999999999986,2.4589728772809283e-22,-6.0,0.01002299867945615,-5.063949781549841e-18,1.6169073788539785e-18,3.352880732903776e-20,3.5389805784394905e-22,-6.0,0.010714813446696421,-8.98293308143497e-23,5.7547959499198746e-21,-6.446702576448229e-23,0.0009999428386350817,0.0,0.0,0.0,0.5762350998434445,2.4099963519887748e-18,-2.4903561300090968e-18,-7.559572756534028e-21,551.1275086153626,551.1275086153627,551.1275086153626,551.1275086153626
0.01999999999999999,2.2233151384588597e-23,-6.0,0.01002699845081069,-7.019584553287862e-18,6.471031976854668e-19,3.88161519671545e-20,3.5383585368046233e-22,-6.0,0.011064467303854927,-8.981354163931461e-23,1.9726229342265974e-21,-8.639905289043304e-23,0.0009999428386350817,0.0,0.0,0.0,0.7235701407900479,2.629942976860152e-18,5.233267109821504e-18,-7.76354444548799e-21,555.0227819577019,555.022781957702,555.0227819577019,555.0227819577019
0.023999999999999994,-8.915660360452168e-23,-6.0,0.01003099822216523,-9.020124882490104e-18,3.9839219622921083e-19,5.395286220196234e-20,3.5376165787620495e-22,-6.0,0.011481526993904591,-8.979470864688092e-23,-3.5028945298430005e-20,-1.231954347063224e-22,0.0009999428386350817,0.0,0.0,0.0,0.8713944528019201,2.81611159579742e-18,-8.736180712493694e-19,-1.948603545412977e-20,558.9037079671652,558.9037079671654,558.9037079671652,558.9037079671654
0.027999999999999997,-1.6913658346424275e-22,-6.0,0.010034997994170193,-1.059273347486704e-17,-2.4312477894015496e-19,1.8635241211981795e-20,3.5367561700191515e-22,-6.0,0.011965168632701879,-8.977286904084515e-23,-2.4294786467061997e-20,-1.5940980299495246e-22,0.0009999429036773241,0.0,0.0,0.0,1.0196971234048944,2.4532035365143394e-18,4.524501842429659e-19,3.883128526400617e-20,562.7702999301949,562.770299930195,562.7702999301949,562.770299930195
0.032,-3.910108095059963e-22,-6.0,0.010038997775311522,-1.2899137225839437e-17,-1.8686685338817953e-18,4.483725443395808e-20,3.5357787629590474e-22,-6.0,0.012514575825762823,-8.974805968679635e-23,-4.3514895464126047e-20,-1.9181527372303901e-22,0.0009999438823562676,0.0,0.0,0.0,1.1684673392341027,3.4176186214941244e-18,3.6396754809993526e-18,-3.1582870267305034e-20,566.6225722396811,566.6225722396812,566.6225722396811,566.6225722396812
0.036000000000000004,-1.4522242713390601e-22,-6.0,0.010042997575203973,-1.4976497130374355e-17,-6.193483609741796e-19,9.479366871887782e-20,3.534685796748198e-22,-6.0,0.013128939607777307,-8.97203171148474e-23,1.036072098622067e-20,-2.237685385222506e-22,0.0009999467361472558,0.0,0.0,0.0,1.317694413022712,3.3078740613938275e-18,-6.589533252019234e-18,-6.040745127659327e-20,570.4605410528663,570.4605410528665,570.4605410528663,570.4605410528665
0.04000000000000001,-1.8541498603846162e-22,-6.0,0.010046997398702566,-1.5113764781512148e-17,-1.5869955932193546e-18,-1.364764383350806e-19,3.533478697443196e-22,-6.0,0.013807458382581739,-8.968967752234569e-23,4.632786246850529e-21,-2.5248838073826637e-22,0.0009999515842362,0.0,0.0,0.0,1.4673677811870594,1.1844202831607995e-18,4.305983447625862e-18,2.6605848399583966e-19,574.2842241747097,574.2842241747098,574.2842241747097,574.2842241747097
0.04400000000000001,-8.434878834010173e-23,-6.0,0.01005099724754369,-1.571495441220373e-17,-1.4673120425387234e-18,-1.2404344864748746e-19,3.532158878096746e-22,-6.0,0.014549337863586745,-8.965617677656321e-23,1.491781360043537e-20,-2.66300089618063e-22,0.0009999575014140588,0.0,0.0,0.0,1.6174769877722424,1.7355436956827196e-18,-1.638706369534301e-18,-9.128311331537339e-21,578.093640601512,578.0936406015121,578.093640601512,578.093640601512
0.048000000000000015,-6.193732009788848e-23,-6.0,0.010054997121240868,-1.5712490386766594e-17,-1.5657594860962556e-18,-1.636111120590275e-21,3.530727738862842e-22,-6.0,0.015353791014656601,-8.961985041736616e-23,1.5067183334771047e-20,-2.6853564167803173e-22,0.0009999637425294958,0.0,0.0,0.0,1.7680116849594327,1.0717485382699795e-18,1.052396338463636e-18,-1.3810601046138553e-19,581.8888104991823,581.8888104991825,581.8888104991823,581.8888104991825
0.05200000000000002,6.520102072401406e-23,-6.0,0.010058997018320899,-1.6879039600267555e-17,-6.916138822485026e-19,9.428933376218688e-20,3.5291866671011453e-22,-6.0,0.016220037991437092,-8.958073365986446e-23,1.94522845748871e-20,-2.777368484899301e-22,0.0009999698377611069,0.0,0.0,0.0,1.9189616314009714,2.4366746732780522e-18,-2.1485526836037672e-18,-1.1219713922689294e-19,585.6697551285415,585.6697551285416,585.6697551285415,585.6697551285415
0.05600000000000002,1.3602369329961682e-22,-6.0,0.01006299693680413,-1.7049073476726822e-17,-2.999168435961817e-19,-1.5941588867306698e-19,3.5275370374805736e-22,-6.0,0.017147306083128526,-8.953886139704102e-23,1.790341885735695e-20,-2.887984333435408e-22,0.000999975543024452,0.0,0.0,0.0,2.0703166927768493,1.3527828331425786e-18,1.4360430402616985e-19,2.922880362522244e-19,589.4364968290124,589.4364968290125,589.4364968290124,589.4364968290125
0.060000000000000026,1.4119439221598138e-22,-6.0,0.010066996874571313,-1.7068294435686732e-17,-4.71887974406059e-19,-1.3378641277235419e-19,3.5257802120820997e-22,-6.0,0.01813482965470067,-8.949426820236116e-23,1.5833223813294795e-20,-2.97700091444357e-22,0.0009999807611378933,0.0,0.0,0.0,2.2220668410788122,1.1883010233995444e-18,9.29805368814257e-19,-2.3600829081633538e-20,593.1890589719518,593.1890589719519,593.1890589719518,593.1890589719518
0.06400000000000003,1.1972430749154685e-22,-6.0,0.010070996829591988,-1.7146320256228628e-17,-4.5858733576402775e-19,-2.6871962989289086e-19,3.5239175405007725e-22,-6.0,0.019181850089546378,-8.944698833236218e-23,1.4389744936826459e-21,-2.9872433485885116e-22,0.0009999854557548107,0.0,0.0,0.0,2.3742021539562304,1.258283740102102e-18,3.249879317768209e-19,1.629096421031833e-19,596.9274659176233,596.9274659176234,596.9274659176233,596.9274659176233
0.06799999999999998,1.0352407605191607e-22,-6.0,0.010074996799910448,-1.7124435491846563e-17,-5.15923062916207e-19,-2.960539392804179e-19,3.5219503599469632e-22,-6.0,0.020287615732570697,-8.939705572922322e-23,-3.6163073882625305e-21,-2.9927483317888887e-22,0.0009999896516801887,0.0,0.0,0.0,2.526712814284629,1.1469505040404239e-18,5.700632713337335e-20,4.275818416381959e-20,600.6517429795491,600.6517429795491,600.6517429795491,600.6517429795491
0.07199999999999998,9.074428342145258e-23,-6.0,0.010078996783689773,-1.713436240075692e-17,-6.305970009554952e-19,2.0272908946563192e-19,3.5198799953468416e-22,-6.0,0.02145138183371237,-8.934450402331568e-23,-4.680368537270974e-21,-2.9927620743728226e-22,0.0009999933647610731,0.0,0.0,0.0,2.6795891091392785,1.1826014934253228e-18,1.4522972004493758e-19,-5.707073341489711e-19,604.3619163761163,604.3619163761164,604.3619163761163,604.3619163761163
0.07599999999999998,6.964463545838226e-23,-6.0,0.010082996779391867,-1.715951837752242e-17,-7.899076186268907e-19,1.2480643489615948e-19,3.5177077594420886e-22,-6.0,0.022672410491894324,-8.928936653573418e-23,-5.0234445885055736e-21,-2.98807747917343e-22,0.000999996644726782,0.0,0.0,0.0,2.8328214286159072,1.2010637949057293e-18,3.3929950205180377e-19,8.249475882786472e-20,608.058013180594,608.0580131805942,608.058013180594,608.0580131805941
0.07999999999999999,-1.3044461612596684e-22,-6.0,0.010089178531430001,-2.1885330674144306e-18,1.56752736144811e-17,-3.1509068332315417e-18,3.515434952888853e-22,-6.0,0.02394997059940039,-8.923167628080838e-23,-2.3079309454568404e-20,-2.6999014860669074e-22,0.0012181741192794637,0.0,0.0,0.0,2.9819723767324655,-1.630869598119761e-17,-1.7066849793746883e-17,3.8212199171337984e-18,611.634213115455,611.6342131154552,611.634213115455,611.634213115455
0.08399999999999999,-6.13967553453404e-22,-6.0,0.010103819224973819,4.197331335473834e-17,6.280898512512323e-17,-1.2690848019679747e-17,3.5130628643559517e-22,-6.0,0.025283337786674805,-8.917146596859558e-23,-7.087028961493852e-20,5.133842085230189e-22,0.002282244485391806,0.0,0.0,0.0,3.118651224714904,-5.1419561668751075e-17,-5.263798135262148e-17,1.1273340319442252e-17,614.8931061949784,614.8931061949784,614.8931061949784,614.8931061949784
0.088,-1.2552935736703848e-21,-6.0,0.010132912980675104,1.1495619482696478e-16,1.3987202863071383e-16,-2.5292475630677646e-17,3.510592770622329e-22,-6.0,0.026671794367541607,-8.910876800735447e-23,-1.3304901535398175e-19,5.177874535419545e-21,0.004747883297113661,0.0,0.0,0.0,3.2432230112917853,-8.809470981002945e-17,-9.203476070809842e-17,1.5241615199770123e-17,617.848352746368,617.8483527463682,617.848352746368,617.8483527463682
0.092,-1.722070603792529e-21,-6.0,0.010181870752106916,2.1528152463104662e-16,2.3577869058039065e-16,-3.899217538291205e-17,3.508025936673767e-22,-6.0,0.028114629284840775,-8.904361450599998e-23,-1.617048258073036e-19,2.0433437552076798e-20,0.008681693544176743,0.0,0.0,0.0,3.3566709377947013,-1.2501411508350185e-16,-1.2304447874697983e-16,1.7041800791851796e-17,620.5274601833461,620.5274601833461,620.5274601833461,620.5274601833461
0.096,-1.7153602275142437e-21,-6.0,0.010255488278903208,3.3703647956596246e-16,3.5052819833557373e-16,-5.121637114826614e-17,3.505363615798868e-22,-6.0,0.0296111380564781,-8.897603727653953e-23,-1.3872722593125158e-19,5.608927525552422e-20,0.013928191876814123,0.0,0.0,0.0,3.4600619129933037,-1.5689866662777172e-16,-1.5522967397321788e-16,1.5880732886417776e-17,622.9590347218051,622.9590347218051,622.9590347218051,622.9590347218051
0.1,-8.455315221365765e-22,-6.0,0.010358111896032507,4.809591436276494e-16,4.826416387539898e-16,-6.370397763416191e-17,3.5026070496842986e-22,-6.0,0.03116062272188574,-8.890606783649066e-23,-6.040326037660352e-20,1.241752810177877e-19,0.02035130667004687,0.0,0.0,0.0,3.5541460240334106,-1.9111051136562354e-16,-1.882857128628981e-16,1.6690403395342966e-17,625.1635092574155,625.1635092574154,625.1635092574155,625.1635092574155
0.10400000000000001,1.3693418892694043e-21,-6.0,0.010493631291238493,6.341285174673198e-16,6.284523085644107e-16,-7.461085666555066e-17,3.4997574685093154e-22,-6.0,0.0327623917888905,-8.883373741128025e-23,7.952762895102686e-20,2.368305873333274e-19,0.027831697849776616,0.0,0.0,0.0,3.6397024631691406,-2.1174996710495443e-16,-2.1965446243366315e-16,1.535664539789467e-17,627.1614458191335,627.1614458191335,627.1614458191335,627.1614458191335
0.10800000000000001,5.507522486969311e-21,-6.0,0.010665524657528687,7.850930789188831e-16,7.813073420698818e-16,-8.675903834750331e-17,3.4968160910395655e-22,-6.0,0.03441576018098681,-8.875907693662557e-23,2.932475163972652e-19,4.0096140989488385e-19,0.036260362446914426,0.0,0.0,0.0,3.7174334230157866,-2.1964942137200854e-16,-2.4572657142391896e-16,1.7254555057836304e-17,628.9711374495554,628.9711374495554,628.9711374495554,628.9711374495554
0.11200000000000002,1.2203672386765966e-20,-6.0,0.010876893438693351,9.360756293413006e-16,9.323306839827017e-16,-1.0189218826765448e-16,3.4937841247201756e-22,-6.0,0.036120049185011445,-8.868211706089702e-23,5.9870962265404675e-19,6.219561625079521e-19,0.04553602676941951,0.0,0.0,0.0,3.7879837790797932,-2.299937424954561e-16,-2.6307130513107044e-16,2.1240313734435093e-17,630.6091581289422,630.6091581289421,630.6091581289422,630.6091581289422
0.11600000000000002,2.165914359813006e-20,-6.0,0.011130485829325102,1.1184458816732852e-15,1.116930424626656e-15,-1.20068021091505e-16,3.4906627657681284e-22,-6.0,0.037874586399217126,-8.860288814746302e-23,9.415674324033352e-19,9.10328315120256e-19,0.055565716857780376,0.0,0.0,0.0,3.851962805724381,-2.7697072381127527e-16,-3.1714033122010424e-16,2.5416064671504663e-17,632.0909371566482,632.0909371566481,632.0909371566482,632.0909371566482
0.12000000000000002,3.462510156487557e-20,-6.0,0.011428803157490928,1.3233493291634132e-15,1.3248244704011603e-15,-1.3822009951429256e-16,3.4874531992639383e-22,-6.0,0.03967870568174196,-8.852142027701691e-23,1.3238351797629276e-18,1.2913452642130784e-18,0.06627058714100789,0.0,0.0,0.0,3.9097752159097467,-3.1575437625167594e-16,-3.6810029492649675e-16,2.6134674295943184e-17,633.4269136853875,633.4269136853874,633.4269136853875,633.4269136853875
0.12400000000000003,5.1897521324392873e-20,-6.0,0.011774090133134605,1.5556118963577995e-15,1.5533967001890294e-15,-1.590224722515481e-16,3.484156599242625e-22,-6.0,0.04153174709947196,-8.84377432498862e-23,1.7431009147835564e-18,1.7871087281297018e-18,0.07758409846512372,0.0,0.0,0.0,3.9618534664487273,-3.617142904636398e-16,-4.1877843387976787e-16,2.9976020238159126e-17,634.6279727437651,634.627972743765,634.6279727437651,634.6279727437651
0.12800000000000003,7.430094888224732e-20,-6.0,0.012168351719907291,1.7974517702304426e-15,1.8041142552196726e-15,-1.8454635249431786e-16,3.480774128783994e-22,-6.0,0.04343305687729362,-8.835188658832405e-23,2.25434629778003e-18,2.4110560600407217e-18,0.08944438773727056,0.0,0.0,0.0,4.00860403640172,-3.887806870433848e-16,-4.736200205571941e-16,3.634570032446262e-17,635.7042288565334,635.7042288565333,635.7042288565334,635.7042288565334
0.13200000000000003,1.0284927529428116e-19,-6.0,0.012613366160155882,2.0459170570669478e-15,2.069256107483184e-15,-2.121034388864331e-16,3.477306940102231e-22,-6.0,0.04538198734773383,-8.826387953878348e-23,2.8311039359006783e-18,3.168750421174074e-18,0.1017921612384263,0.0,0.0,0.0,4.050414696609883,-4.130549806514034e-16,-5.239016532200082e-16,3.9768899621062817e-17,636.6652209636899,636.6652209636896,636.6652209636899,636.6652209636898
0.13599999999999998,1.3849175951712592e-19,-6.0,0.013110754346981578,2.3150923236505397e-15,2.3536418296675706e-15,-2.400291594667168e-16,3.473756174634805e-22,-6.0,0.04737789690098422,-8.817375107417399e-23,3.500308302474576e-18,4.066743885943226e-18,0.11457698937410199,0.0,0.0,0.0,4.087539737282301,-4.542293406360641e-16,-5.80947121470328e-16,4.133110563889409e-17,637.5173028288505,637.5173028288502,637.5173028288505,637.5173028288505
0.13999999999999999,1.823086616826322e-19,-6.0,0.013661980746123804,2.5979445818062317e-15,2.656488681072183e-15,-2.6943108813683057e-16,3.470122963130702e-22,-6.0,0.049420149935307196,-8.808152989610114e-23,4.2444599551928935e-18,5.125415208349775e-18,0.12775712173508716,0.0,0.0,0.0,4.120236677108014,-4.886072500272226e-16,-6.407798845095239e-16,4.420227042344356e-17,638.2668102661788,638.2668102661786,638.2668102661788,638.2668102661788
0.144,2.353865017875528e-19,-6.0,0.01426835659673304,2.897805456318467e-15,2.9844688776639355e-15,-3.0238756440813937e-16,3.466408425737975e-22,-6.0,0.05150811680782062,-8.798724443708892e-23,5.055281125477452e-18,6.362453864939777e-18,0.14129376981281674,0.0,0.0,0.0,4.148761608663001,-5.278108707390653e-16,-7.107178946829038e-16,4.956188226234704e-17,638.9199652219153,638.919965221915,638.9199652219153,638.9199652219153
0.148,2.9900616384680966e-19,-6.0,0.014931024934943428,3.22648103861221e-15,3.33387129625349e-15,-3.368273750895972e-16,3.462613672090634e-22,-6.0,0.05364117378565881,-8.789092286278509e-23,5.945098705802763e-18,7.800115754505567e-18,0.15514739652811774,0.0,0.0,0.0,4.173405987131409,-5.819639364156221e-16,-7.813008300839708e-16,5.2647950739363213e-17,639.4837273290162,639.483727329016,639.4837273290162,639.4837273290162
0.152,3.744102772793303e-19,-6.0,0.01565102274355196,3.585430509082955e-15,3.713565653071295e-15,-3.7007409602556667e-16,3.458739801394866e-22,-6.0,0.05581870299750665,-8.779259307414986e-23,6.893102106357848e-18,9.475108510693616e-18,0.16928215471176591,0.0,0.0,0.0,4.194340578930586,-6.397913523824598e-16,-8.644295877603134e-16,5.2668443067173233e-17,639.9622346398165,639.9622346398162,639.9622346398165,639.9622346398164
0.156,4.630949440881215e-19,-6.0,0.016429274263674496,3.969511280445491e-15,4.1183752657583436e-15,-4.04016998753116e-16,3.454787902514597e-22,-6.0,0.05804009238550441,-8.769228270962758e-23,7.909179061616296e-18,1.141476149351725e-17,0.18366875587762976,0.0,0.0,0.0,4.211753188026277,-6.936838028622094e-16,-9.476889317834591e-16,5.484691119910354e-17,640.3599667023956,640.3599667023952,640.3599667023956,640.3599667023955
0.16,5.665369499897527e-19,-6.0,0.017266599210686163,4.385331008303536e-15,4.554936804794949e-15,-4.4124628748110644e-16,3.450759054056401e-22,-6.0,0.060304735657520314,-8.759001914730202e-23,8.98690413699696e-18,1.3645467548609626e-17,0.19828018632263336,0.0,0.0,0.0,4.225818620344729,-7.570107648242418e-16,-1.0415664800141815e-15,6.007973490305413e-17,640.6810635735648,640.6810635735644,640.6810635735648,640.6810635735648
0.164,6.8639426846627225e-19,-6.0,0.01816372139083236,4.827739899621005e-15,5.02401266751162e-15,-4.814439163665513e-16,3.446654324453757e-22,-6.0,0.06261203223978835,-8.748582950703507e-23,1.0114606684805593e-17,1.619384356224751e-17,0.21309081613265746,0.0,0.0,0.0,4.236697608354596,-8.164945317573994e-16,-1.14199229740533e-15,6.507598035728193e-17,640.9293074322891,640.9293074322887,640.9293074322891,640.929307432289
0.168,8.246741191092263e-19,-6.0,0.019121274771543566,5.281244425820087e-15,5.504216524219697e-15,-5.200750704381271e-16,3.4424747720506646e-22,-6.0,0.06496138722990855,-8.737974065258906e-23,1.1341301624644631e-17,1.906677481175652e-17,0.22807695893321372,0.0,0.0,0.0,4.2445417037647175,-8.597042335061812e-16,-1.2252805217568066e-15,6.489673443701562e-17,641.1082394879469,641.1082394879463,641.1082394879468,641.1082394879468
0.17200000000000001,9.83369051636213e-19,-6.0,0.020139807805244492,5.7325514663760055e-15,5.9822224323131366e-15,-5.57392954553e-16,3.4382214451846153e-22,-6.0,0.06735221135020703,-8.727177919373291e-23,1.2729389694470043e-17,2.223997605303948e-17,0.24321638485574545,0.0,0.0,0.0,4.249496628187805,-8.881498736025912e-16,-1.2954506581160521e-15,6.494894733513728e-17,641.2212407870591,641.2212407870585,641.221240787059,641.221240787059
0.17600000000000002,1.1648744975962216e-18,-6.0,0.02121979955794595,6.134329761652449e-15,6.405506106734963e-15,-5.877646815986102e-16,3.433895382268932e-22,-6.0,0.06978392090145331,-8.716197148833206e-23,1.44425993862362e-17,2.5622870891351337e-17,0.25848912467445506,0.0,0.0,0.0,4.251678176906681,-8.611749991789115e-16,-1.3106925698103818e-15,5.836713027038092e-17,641.270986562247,641.2709865622465,641.2709865622469,641.2709865622468
0.18000000000000002,1.3710475895463652e-18,-6.0,0.022361659064395537,6.461457146953129e-15,6.7578440566309875e-15,-6.168801492500688e-16,3.429497611874475e-22,-6.0,0.0722559377169322,-8.705034364442245e-23,1.662627730273136e-17,2.905952630683501e-17,0.27387718386048976,0.0,0.0,0.0,4.25120574623759,-8.014772660812661e-16,-1.2991953987901285e-15,5.814678187365767e-17,641.2602140704403,641.2602140704398,641.2602140704402,641.26021407044
0.18400000000000002,1.6031738439744235e-18,-6.0,0.023565729545507622,6.735340440086568e-15,7.053977912920774e-15,-6.41144427424374e-16,3.4250291528107244e-22,-6.0,0.07476768911686753,-8.693692152226855e-23,1.930356269679139e-17,3.241504541923866e-17,0.2893635348195415,0.0,0.0,0.0,4.24819248556377,-7.616721613364698e-16,-1.295193930120549e-15,5.3675400623478035e-17,641.1915006275492,641.1915006275487,641.1915006275491,641.191500627549
0.18800000000000003,1.862357275273038e-18,-6.0,0.024832292653154012,6.9611209905534865e-15,7.302763440341184e-15,-6.61992637626599e-16,3.4204910142062375e-22,-6.0,0.07731860786319542,-8.68217307364057e-23,2.2423630281437137e-17,3.5647696225943107e-17,0.30493197371003167,0.0,0.0,0.0,4.242745106902848,-7.242298196405849e-16,-1.2969093282649927e-15,5.068126277839563e-17,641.0672616358412,641.0672616358407,641.0672616358411,641.067261635841
0.19200000000000003,2.149537602556161e-18,-6.0,0.026161572280894406,7.138051283502163e-15,7.509336967029581e-15,-6.796810642569664e-16,3.415884195588493e-22,-6.0,0.0799081321146843,-8.670479665766668e-23,2.5915339698571495e-17,3.875666777576135e-17,0.32056733314074354,0.0,0.0,0.0,4.234964630051932,-6.826252009861391e-16,-1.300666214947948e-15,4.784623089773608e-17,640.8897696393354,640.8897696393349,640.8897696393353,640.8897696393352
0.19600000000000004,2.4651974577941114e-18,-6.0,0.027553737999562868,7.294217306931542e-15,7.706961145202418e-15,-6.969676005376772e-16,3.41120968696312e-22,-6.0,0.08253570538239918,-8.658614441519286e-23,2.965847290494989e-17,4.175510914705935e-17,0.33625537675067674,0.0,0.0,0.0,4.224947021988774,-6.704770039143885e-16,-1.336122478831045e-15,4.8103103526732264e-17,640.6611707106605,640.66117071066,640.6611707106605,640.6611707106603
0.20000000000000004,2.81001513625114e-18,-6.0,0.029008909579994323,7.437756958307434e-15,7.903069918514003e-15,-7.154139704023884e-16,3.406468468892521e-22,-6.0,0.08520077648550772,-8.646579889842978e-23,3.354125927888978e-17,4.469160014093507e-17,0.35198284951581427,0.0,0.0,0.0,4.212780880494726,-6.664117833466872e-16,-1.382625478470516e-15,5.0167813756756886e-17,640.3834331351638,640.3834331351634,640.3834331351638,640.3834331351637
0.204,3.1847675586192295e-18,-6.0,0.030527162030878775,7.574617446926667e-15,8.094000902745443e-15,-7.361895091955253e-16,3.4016615125738893e-22,-6.0,0.08790279950742545,-8.634378475910751e-23,3.7511223524205465e-17,4.763327842954741e-17,0.3677376198893418,0.0,0.0,0.0,4.198546244016999,-6.684278904705916e-16,-1.4267655861961373e-15,5.3646119077483146e-17,640.0583214484877,640.0583214484873,640.0583214484877,640.0583214484876
0.208,3.590134496963234e-18,-6.0,0.03210851876060537,7.702571071716863e-15,8.28270513457939e-15,-7.587657241388472e-16,3.396789779916628e-22,-6.0,0.09064123375229793,-8.622012641320578e-23,4.1590088275687573e-17,5.058330240637436e-17,0.3835076692680385,0.0,0.0,0.0,4.182338533112682,-6.673859018896755e-16,-1.4738246473534185e-15,5.660270443641347e-17,639.6879445940896,639.6879445940891,639.6879445940896,639.6879445940895
0.212,4.026346040753471e-18,-6.0,0.0337529617323745,7.873954445606146e-15,8.514095126895713e-15,-7.820602039376557e-16,3.391854223619177e-22,-6.0,0.09341554370181686,-8.6094848042904e-23,4.5638547789341574e-17,5.36399739466062e-17,0.3992813552716134,0.0,0.0,0.0,4.1642342798405965,-7.268499992652078e-16,-1.568823908275132e-15,5.836880380108972e-17,639.2739744396442,639.2739744396437,639.2739744396442,639.273974439644
0.216,4.494605103828708e-18,-6.0,0.035460437688026036,8.051183934851538e-15,8.749859091847063e-15,-8.03264467024568e-16,3.386855787245245e-22,-6.0,0.0962251989723683,-8.596797359851629e-23,4.959221745864375e-17,5.691499761853262e-17,0.4150485027494925,0.0,0.0,0.0,4.144298782120635,-7.453962992094886e-16,-1.6338583604776888e-15,5.688364685882858e-17,638.8178208840566,638.817820884056,638.8178208840566,638.8178208840563
0.22,4.9958805405679255e-18,-6.0,0.03723084488251369,8.221725722259924e-15,8.980393108624839e-15,-8.24585830779638e-16,3.3817954052994597e-22,-6.0,0.09906967427251011,-8.58395268004117e-23,5.3561009687730586e-17,6.038310752660907e-17,0.4307988358066332,0.0,0.0,0.0,4.122625458754545,-7.497062260027759e-16,-1.6865873416642415e-15,5.789115463696606e-17,638.3215334815553,638.3215334815548,638.3215334815553,638.3215334815551
0.224,5.530996009443974e-18,-6.0,0.03906404691674432,8.38628038908808e-15,9.206440289501359e-15,-8.459166962951333e-16,3.376674003302433e-22,-6.0,0.1019484493607764,-8.570953114091954e-23,5.767851774152561e-17,6.391812170357801e-17,0.44652208891006195,0.0,0.0,0.0,4.0992812752569945,-7.543769233101967e-16,-1.7392894348709422e-15,5.877777840866067e-17,637.7865538396557,637.7865538396552,637.7865538396557,637.7865538396554
0.228,6.1005815587276286e-18,-6.0,0.04095988001355994,8.564086659683698e-15,9.446497053882517e-15,-8.689121337718061e-16,3.3714924978652516e-22,-6.0,0.10486100900380653,-8.557800988622021e-23,6.185392756966223e-17,6.753076301013471e-17,0.4622097244680433,0.0,0.0,0.0,4.07431960960753,-7.811038887960699e-16,-1.812071890073073e-15,6.159817606577643e-17,637.2140093839797,637.2140093839793,637.2140093839797,637.2140093839795
0.232,6.705588854430729e-18,-6.0,0.04291813417599029,8.748482704856186e-15,9.68946700712053e-15,-8.91398081991089e-16,3.3662517967633935e-22,-6.0,0.10780684293479616,-8.544498607822137e-23,6.607405010542627e-17,7.127323133546495e-17,0.4778528651279368,0.0,0.0,0.0,4.047833026112463,-8.00957796617021e-16,-1.8774944459821674e-15,6.194727911894282e-17,636.6059248892686,636.6059248892681,636.6059248892686,636.6059248892683
0.23600000000000002,7.346830784886951e-18,-6.0,0.044938566622948546,8.936503801912387e-15,9.939730068933625e-15,-9.113033277619364e-16,3.360952799010074e-22,-6.0,0.11078544581226825,-8.531048253641971e-23,7.030935082324005e-17,7.517561716420124e-17,0.49344197249159427,0.0,0.0,0.0,4.01988836797942,-8.178003261202317e-16,-1.9477832931085613e-15,5.985595637792574e-17,635.9637352945688,635.9637352945681,635.9637352945687,635.9637352945684
0.24000000000000002,8.02515450109077e-18,-6.0,0.047020904216286415,9.1215229212274e-15,1.0200286545199353e-14,-9.310938483047314e-16,3.35559639492903e-22,-6.0,0.11379631717916143,-8.517452185974834e-23,7.457594375593985e-17,7.919351164142257e-17,0.508968529071107,0.0,0.0,0.0,3.990548670706194,-8.271521480855301e-16,-2.023538172859282e-15,6.053931302974781e-17,635.2887880497167,635.2887880497161,635.2887880497167,635.2887880497163
0.24400000000000002,8.741491395268998e-18,-6.0,0.04916484892128276,9.312381938558838e-15,1.0468196696310657e-14,-9.492269232066687e-16,3.3501834662267413e-22,-6.0,0.11683896142223345,-8.503712642841009e-23,7.886889002942677e-17,8.33128447424842e-17,0.5244254414768612,0.0,0.0,0.0,3.959866927782521,-8.466236324587964e-16,-2.0986488956390626e-15,5.941581730415564e-17,634.5821997301273,634.5821997301266,634.5821997301273,634.582199730127
0.24800000000000003,9.496797952219604e-18,-6.0,0.05137008989754409,9.50614952318743e-15,1.0740478941308932e-14,-9.694217095392267e-16,3.3447148860640958e-22,-6.0,0.1199128877317774,-8.489831840569648e-23,8.319400103248812e-17,8.754553451543063e-17,0.5398074382869773,0.0,0.0,0.0,3.9278724595485004,-8.630714530659971e-16,-2.1722572536074586e-15,6.25688250980675e-17,633.8445409168269,633.8445409168262,633.8445409168269,633.8445409168266
0.252,1.0292020980491372e-17,-6.0,0.05363628378115958,9.696892954370192e-15,1.1016370977536839e-14,-9.88489918449273e-16,3.3391915191275035e-22,-6.0,0.12301761006164848,-8.475811973979282e-23,8.757643602737543e-17,9.188640850769361e-17,0.5551089654730959,0.0,0.0,0.0,3.8946350835418446,-8.72790338194183e-16,-2.2463779279553818e-15,6.208206785559991e-17,633.0773155914375,633.0773155914367,633.0773155914374,633.0773155914371
0.256,1.1128625479060854e-17,-6.0,0.0559630430327511,9.841727571048887e-15,1.1244144817006356e-14,-1.000865175147223e-15,3.3336142216994616e-22,-6.0,0.1261526470895989,-8.461655216556936e-23,9.218471563294329e-17,9.622189942776537e-17,0.5703215527070642,0.0,0.0,0.0,3.860249372706768,-8.322246165103116e-16,-2.267599045746288e-15,5.504664375647252e-17,632.2826032429068,632.282603242906,632.2826032429067,632.2826032429064
0.26,1.200781519206377e-17,-6.0,0.058349955332881606,9.89927066690623e-15,1.1384631115366582e-14,-1.0114145930880248e-15,3.3279838417285752e-22,-6.0,0.12931752217791867,-8.447363720635863e-23,9.739651076858637e-17,1.0021327537958383e-16,0.5854364018607533,0.0,0.0,0.0,3.8247720152693354,-7.401956143722107e-16,-2.2384116945618226e-15,5.342194365490776e-17,631.4616127820972,631.4616127820964,631.4616127820971,631.4616127820967
0.264,1.2930749741394726e-17,-6.0,0.06079659103515402,9.853267087827605e-15,1.1371317256913567e-14,-1.026177700614108e-15,3.3223012188990375e-22,-6.0,0.1325117633343802,-8.432939617571901e-23,1.0375000251707759e-16,1.0344879728720141e-16,0.6004473046308195,0.0,0.0,0.0,3.7882454330341364,-6.232157409057469e-16,-2.1265354860930998e-15,5.87773928738835e-17,630.6152252264186,630.6152252264179,630.6152252264186,630.6152252264183
0.268,1.3898131351497817e-17,-6.0,0.06330251711501293,9.69927826333596e-15,1.1131742573902644e-14,-1.0451243211070406e-15,3.3165671846995735e-22,-6.0,0.1357349031734841,-8.418385017918473e-23,1.1188228346894948e-16,1.0564102635911806e-16,0.6153510391639416,0.0,0.0,0.0,3.750684360110344,-4.939720376414406e-16,-1.9156376101697378e-15,6.427061868628213e-17,629.7436802915092,629.7436802915087,629.7436802915093,629.7436802915089
0.272,1.4909530344270467e-17,-6.0,0.06586727260565838,9.427715443564515e-15,1.0623753805001311e-14,-1.0680107514700804e-15,3.310782562491854e-22,-6.0,0.13898647887800458,-8.40370201160024e-23,1.2246525405010794e-16,1.065994707115213e-16,0.6301438700065907,0.0,0.0,0.0,3.7121535601864464,-3.4614695328063025e-16,-1.6279240527583353e-15,6.965094925143099e-17,628.8483792983891,628.8483792983886,628.8483792983891,628.8483792983889
0.276,1.5962852163736058e-17,-6.0,0.06849035452058001,9.058544281586341e-15,9.871642737210686e-15,-1.0912943213025644e-15,3.3049481675783774e-22,-6.0,0.1422660321608312,-8.388892668085409e-23,1.3575983864912497e-16,1.0621837881592708e-16,0.644818426728503,0.0,0.0,0.0,3.672747326334064,-2.135964201303888e-16,-1.3309513286652588e-15,7.105466185974337e-17,627.9314163903996,627.9314163903992,627.9314163903997,627.9314163903995
0.28,1.705502492627007e-17,-6.0,0.07117124613694882,8.609434468702672e-15,8.900460232936545e-15,-1.1134441873922174e-15,3.29906480726983e-22,-6.0,0.1455731092271061,-8.373959036556705e-23,1.5160604731687056e-16,1.0453104554636912e-16,0.6593674029523655,0.0,0.0,0.0,3.6325039572898943,-9.500466796711069e-17,-1.033880344224918e-15,7.068641535031253e-17,626.9935897046654,626.9935897046652,626.9935897046656,626.9935897046654
0.28400000000000003,1.8182376170643376e-17,-6.0,0.07390943389935574,8.120190207801938e-15,7.713208376573852e-15,-1.136914449758892e-15,3.293133280951923e-22,-6.0,0.14890726073665353,-8.35890314608103e-23,1.696847696503093e-16,1.0175592126661945e-16,0.6737878880216291,0.0,0.0,0.0,3.591427950476633,-1.7427178455310837e-17,-7.162287482446116e-16,7.313839220819787e-17,626.0349105231346,626.0349105231345,626.0349105231347,626.0349105231346
0.28800000000000003,1.9339866948415334e-17,-6.0,0.07670437971367527,7.592339081057106e-15,6.3674901165472975e-15,-1.1648356825902202e-15,3.2871543801517166e-22,-6.0,0.15226804176669986,-8.343727005777804e-23,1.896974101565251e-16,9.809307933422995e-17,0.6880774365755209,0.0,0.0,0.0,3.549579999007271,6.111099262445192e-17,-4.325035031932129e-16,7.930159447610496e-17,625.0567027287738,625.0567027287739,625.0567027287741,625.056702728774
0.29200000000000004,2.0522304164512152e-17,-6.0,0.0795555053174926,7.052411239843629e-15,4.872140775495647e-15,-1.1941889573835655e-15,3.2811288886034276e-22,-6.0,0.15565501177488206,-8.328432604986009e-23,2.1123906295407295e-16,9.377308524694513e-17,0.7022295013705089,0.0,0.0,0.0,3.5070533648435127,1.1130907552892926e-16,-1.4264239743551304e-16,8.212098204206547e-17,624.0610597041233,624.0610597041235,624.0610597041236,624.0610597041236
0.29600000000000004,2.1724196006237735e-17,-6.0,0.08246222309498867,6.541442571121238e-15,3.2142298141961576e-15,-1.2167749372185699e-15,3.275057582313728e-22,-6.0,0.15906773456254217,-8.313021913429935e-23,2.340045442261978e-16,8.901865259459477e-17,0.7162375329643257,0.0,0.0,0.0,3.4638801168329167,1.1441405819897383e-16,1.800297409686387e-16,7.542105177784243e-17,623.0486504869974,623.0486504869976,623.0486504869978,623.0486504869978
0.30000000000000004,2.293941016426031e-17,-6.0,0.08542395410099109,6.071322511759086e-15,1.3888470792553561e-15,-1.2369495749556354e-15,3.2689412296265415e-22,-6.0,0.1625057782383061,-8.297496881383652e-23,2.5814305723393224e-16,8.421080635003529e-17,0.7300997247077279,0.0,0.0,0.0,3.4200561070472464,1.0165506335229717e-16,5.313152311636755e-16,7.353167635426446e-17,622.0192957018895,622.0192957018899,622.0192957018899,622.01929570189
0.30400000000000005,2.416051249643896e-17,-6.0,0.0884401040864274,5.623217398255131e-15,-5.41592402631148e-16,-1.25461714888756e-15,3.262780591287335e-22,-6.0,0.16596871518194428,-8.281859439834193e-23,2.834319393505373e-16,7.958298912972666e-17,0.7438153535217151,0.0,0.0,0.0,3.375625632439471,1.0809542271338851e-16,8.412295224768958e-16,7.14314653754627e-17,620.9739541576159,620.9739541576163,620.9739541576162,620.9739541576164
0.30800000000000005,2.5380667711779918e-17,-6.0,0.09151005638322945,5.1753638786457876e-15,-2.612856128149862e-15,-1.2752435612165142e-15,3.2565764205069125e-22,-6.0,0.16945612200851226,-8.266111500643494e-23,3.0959192705989777e-16,7.501976185449721e-17,0.7573808222019724,0.0,0.0,0.0,3.3306479820770543,1.384441189962485e-16,1.1991592581265434e-15,7.561334438495933e-17,619.9139434712773,619.9139434712778,619.9139434712775,619.9139434712779
0.31200000000000006,2.6591552887123196e-17,-6.0,0.09463315678800795,4.72958369917917e-15,-4.758474935232945e-15,-1.2979411867365141e-15,3.250329463024717e-22,-6.0,0.17296757953276912,-8.250254956709061e-23,3.3633622607702637e-16,7.032087650875381e-17,0.770789282377961,0.0,0.0,0.0,3.2852139021151148,1.6664829857986456e-16,1.5120503170641943e-15,7.887983622117647e-17,618.8413324645284,618.8413324645289,618.8413324645286,618.8413324645289
0.31600000000000006,2.7784166428545625e-17,-6.0,0.09780874028863172,4.3061817423527514e-15,-6.873812169958327e-15,-1.3211625541545414e-15,3.2440404571716386e-22,-6.0,0.1765026727338717,-8.234291682123399e-23,3.6293487643253036e-16,6.549502393091886e-17,0.7840344778125091,0.0,0.0,0.0,3.239361156412577,1.7100002914917418e-16,1.722677115229425e-15,8.042368756576202e-17,617.7569493749576,617.7569493749583,617.7569493749579,617.7569493749584
0.32000000000000006,2.894952905365749e-17,-6.0,0.10103612063979342,3.9010642715720116e-15,-8.848655049081405e-15,-1.3453333082213162e-15,3.237710133932339e-22,-6.0,0.18006099072034265,-8.218223532332209e-23,3.8798353077272007e-16,6.065625393224864e-17,0.7971116187456593,0.0,0.0,0.0,3.193149072611253,1.786018726140222e-16,1.8098570120944493e-15,8.248626581531167e-17,616.6621388802596,616.6621388802602,616.6621388802598,616.6621388802603
0.32400000000000007,3.0080390718716587e-17,-6.0,0.10431459867515934,3.514960179749022e-15,-1.0694461562845804e-14,-1.3687074079090963e-15,3.2313392170070897e-22,-6.0,0.18364212669531002,-8.202052344291348e-23,4.1042678672918787e-16,5.588980435774316e-17,0.8100168612138761,0.0,0.0,0.0,3.146620847782232,1.8410222768299179e-16,1.888313389111643e-15,8.254817691538594e-17,615.5578714714829,615.5578714714837,615.5578714714833,615.5578714714837
0.32800000000000007,3.117036942954336e-17,-6.0,0.1076434907795462,3.137600441299402e-15,-1.2452967140794737e-14,-1.387821980546626e-15,3.2249284228731308e-22,-6.0,0.18724567792201674,-8.185779936622584e-23,4.3017133069250125e-16,5.1145199755679323e-17,0.8227489894487668,0.0,0.0,0.0,3.0997623678493875,2.002938766508524e-16,2.0028613590835343e-15,7.853219196071108e-17,614.4437602796502,614.443760279651,614.4437602796505,614.4437602796511
0.3320000000000001,3.2212654014619896e-17,-6.0,0.11102210509337364,2.827414644753389e-15,-1.4083535597592082e-14,-1.3960797956290105e-15,3.218478460845556e-22,-6.0,0.1908712456895978,-8.169408109768125e-23,4.474584732817197e-16,4.658645158187974e-17,0.8353090104988137,0.0,0.0,0.0,3.0526073775416442,1.4765744255803421e-16,2.0746291630495182e-15,6.663468867076727e-17,613.3205561764056,613.3205561764063,613.320556176406,613.3205561764065
0.3360000000000001,3.320091417744082e-17,-6.0,0.11444974879764759,2.6324076646086344e-15,-1.5546547296464228e-14,-1.392451668778096e-15,3.2119900331377217e-22,-6.0,0.19451843527912305,-8.15293864614397e-23,4.620320920209245e-16,4.2716123842494276e-17,0.8476962756822317,0.0,0.0,0.0,3.005175160008611,3.437064783725752e-17,2.091845833488169e-15,5.3089121881662714e-17,612.1886696964937,612.1886696964943,612.1886696964939,612.1886696964945
0.3400000000000001,3.412926494190661e-17,-6.0,0.11792574585963937,2.5577884008692872e-15,-1.6784347328825333e-14,-1.3759685057213356e-15,3.2054638349211885e-22,-6.0,0.19818685592990395,-8.136373310292043e-23,4.732044791835746e-16,4.022103591536798e-17,0.8599119635797431,0.0,0.0,0.0,2.9574490739059374,-9.287494885237584e-17,2.0308228460320892e-15,3.7923424716312394e-17,611.0476543653814,611.0476543653821,611.0476543653815,611.0476543653822
0.3440000000000001,3.499277489392949e-17,-6.0,0.12144938998558094,2.6035951573308205e-15,-1.7752500657964424e-14,-1.3551619418627114e-15,3.1989005543851967e-22,-6.0,0.20187612080606201,-8.119713849031168e-23,4.802612482265606e-16,3.9439728506064326e-17,0.8719550207314505,0.0,0.0,0.0,2.909507485519058,-2.2839767174782916e-16,1.896824549642794e-15,3.219615765645598e-17,609.8993377788103,609.8993377788108,609.8993377788103,609.899337778811
0.3480000000000001,3.493746801507018e-11,-5.999999999965063,0.12501993125965713,3.41872273539288e-06,-3.4186850556271297e-06,-9.93312735463202e-07,3.192300872795679e-22,-6.0,0.20558584696335716,-8.102961991606859e-23,1.2473385352805732e-08,1.2473454445094603e-08,0.8838186076597095,0.0,0.0,0.0,2.8614569012653255,-3.5850299789833715e-06,3.5849854271648065e-06,1.1603463458838524e-06,608.7444948614743,608.7444948488625,608.7469641825985,608.7489938848853
0.3520000000000001,1.4417854488172255e-10,-5.999999999855817,0.12863663653317073,1.4956938121697741e-05,-1.4956452239140976e-05,-2.3224418986008497e-06,3.1856654645538146e-22,-6.0,0.20931565531627408,-8.086119449839944e-23,8.696995782712278e-08,8.697220500323548e-08,0.8954976497039449,0.0,0.0,0.0,2.813282716093809,-1.2812109368849108e-05,1.2811640651325533e-05,1.593421654896568e-06,607.5855763570681,607.5855762241289,607.5867362570073,607.5940036992931
0.3560000000000001,2.769970959155185e-10,-5.999999999722986,0.13229877418863867,3.30761632589327e-05,-3.307440744522883e-05,-3.899459495193851e-06,3.178994997254129e-22,-6.0,0.2130651706053646,-8.069187918274037e-23,2.638904495231411e-07,2.6390161198024777e-07,0.9069929593425995,0.0,0.0,0.0,2.76500077010749,-2.1814380563299093e-05,2.1812952563681996e-05,1.9375728642588267e-06,606.4219788077354,606.421978401944,606.421620124506,606.4340174880014
0.3600000000000001,3.592317405068201e-10,-5.999999999640734,0.1360055947605533,5.6374457319060604e-05,-5.637035840535269e-05,-5.651531015237771e-06,3.1722901317421384e-22,-6.0,0.21683402136484423,-8.052169074321864e-23,5.405792685205351e-07,5.40611838893521e-07,0.9183035729146933,0.0,0.0,0.0,2.7166662427105486,-2.99445208808074e-05,2.994174128483807e-05,2.206820945399442e-06,605.2549871116272,605.2549863202327,605.2531260919158,605.270176462923
0.3640000000000001,2.982883315532257e-10,-5.99999999970166,0.1397563398484299,8.354259535280972e-05,-8.353497401213815e-05,-7.519265987577473e-06,3.165551522171549e-22,-6.0,0.22062183989044098,-8.035064578410442e-23,8.912707741770702e-07,8.913408644427966e-07,0.9294267618752091,0.0,0.0,0.0,2.6683168502952843,-3.717681397646231e-05,3.717242679256192e-05,2.413879842238671e-06,604.0854752954356,604.0854740439173,604.0821740667875,604.1033831882095
0.3680000000000001,-1.1580537885553992e-11,-6.000000000011523,0.14355027221023942,0.00011339131102534135,-0.00011337900811249626,-9.451421630552688e-06,3.158779816061008e-22,-6.0,0.2244282622074945,-8.017876074125133e-23,1.293036997173646e-06,1.2931623309333175e-06,0.9403624190043857,0.0,0.0,0.0,2.6199295757030487,-4.351648789200251e-05,4.3510381571612315e-05,2.565828580637458e-06,602.9128597124662,602.9128579671473,602.9082007095884,602.9330745587379
0.372,-6.850390866806108e-10,-6.000000000685006,0.14738665072640664,0.00014482073737959828,-0.00014480272651402591,-1.1404810720692378e-05,3.1519756543504157e-22,-6.0,0.22825292803930383,-8.000605188352579e-23,1.7248165785412373e-06,1.72501398962139e-06,0.951112799293775,0.0,0.0,0.0,2.571531594400979,-4.894925031822096e-05,4.894140306122676e-05,2.66997313287273e-06,601.7377714761576,601.7377692288612,601.7318638879465,601.7598974242783
0.376,-1.8415465588907211e-09,-6.000000001841589,0.1512647310245148,0.00017681949040083356,-0.0001767949730022165,-1.3343346897816644e-05,3.145139671456794e-22,-6.0,0.23209548077572212,-7.983253531422516e-23,2.1673115301030827e-06,2.1675951614370477e-06,0.9616777151676044,0.0,0.0,0.0,2.5231489932891966,-5.3569486442584525e-05,5.356002158663078e-05,2.7336312297467566e-06,600.5608200730123,600.5608173571561,600.553768911149,600.5845083463572
0.38,-3.601592258304597e-09,-6.0000000036017855,0.1551837729129574,0.00020846795248788717,-0.0002084364331673863,-1.523743718778718e-05,3.138272495329723e-22,-6.0,0.23595556744199547,-7.965822697248482e-23,2.6028836929387673e-06,2.6032637299704445e-06,0.9720570744952669,0.0,0.0,0.0,2.474792931438163,-5.729644640541301e-05,5.728562667638222e-05,2.7622454802461497e-06,599.3822584411497,599.3822553304201,599.3742091437024,599.4071516375911
0.384,-6.083328536256067e-09,-6.000000006083777,0.1591430380984972,0.00023893664755682574,-0.0002388979902438107,-1.7062447243300063e-05,3.131374747506345e-22,-6.0,0.23983283866784563,-7.948314263467435e-23,3.0156215704170084e-06,3.01610266291936e-06,0.9822513295219363,0.0,0.0,0.0,2.426479121584544,-6.013605040517581e-05,6.0124161874822997e-05,2.760390058964835e-06,598.202454149757,598.2024507250002,598.1935652842872,598.2282084393886
0.388,-9.399676415444403e-09,-6.000000009400512,0.1631417532021498,0.00026746267755155435,-0.0002674171509791852,-1.8798787502757342e-05,3.1244470431659375e-22,-6.0,0.24372694865679354,-7.930729791578276e-23,3.391195245754943e-06,3.3917757073384074e-06,0.9922577216391986,0.0,0.0,0.0,2.378298330020711,-6.207483035247885e-05,6.206232633900624e-05,2.7329416850557005e-06,597.0236153957452,597.0236117865722,597.0140653193348,597.0498959112975
0.392,-1.365552304932124e-08,-6.000000013656908,0.16717916678122163,0.00029337914253741,-0.0002933274369302155,-2.0431007660107515e-05,3.117489991184061e-22,-6.0,0.24763755515572244,-7.913070827079291e-23,3.716861523906852e-06,3.717532497792506e-06,1.0020739413619437,0.0,0.0,0.0,2.330226768223342,-6.313641656852501e-05,6.312376378387043e-05,2.683925062779594e-06,595.8451579536825,595.8451542943449,595.8351315885898,595.8716470485839
0.396,-1.8945435147571875e-08,-6.000000018947554,0.171254533339396,0.00031610511064200593,-0.00031604833952264376,-2.194712174339086e-05,3.1105041941862842e-22,-6.0,0.2515643194246786,-7.895338899604518e-23,3.981539215514921e-06,3.982284896679796e-06,1.0117021977252065,0.0,0.0,0.0,2.28227245347006,-6.334229592956501e-05,6.333005876038862e-05,2.616745373930959e-06,594.6672759803282,594.6672724341815,594.6569635932838,594.6936708319329
0.4,-2.5351713241391475e-08,-6.000000025354775,0.1753671245106971,0.00033514673048501393,-0.0003350864149636153,-2.3338493220161157e-05,3.10349024860149e-22,-6.0,0.25550690620690797,-7.877535523059057e-23,4.175892779616613e-06,4.17668983917493e-06,1.0211454806892266,0.0,0.0,0.0,2.234420568249051,-6.272275633386739e-05,6.2711465277212e-05,2.534815005195746e-06,593.4896025804406,593.4895993019704,593.4791972811528,593.5156178728743
0.404,-3.2942555089587e-08,-6.000000032946785,0.1795161838383622,0.0003500902132173146,-0.0003500282510853241,-2.459923405123381e-05,3.0964487447147635e-22,-6.0,0.2594649836991271,-7.85966219575331e-23,4.292253327116064e-06,4.293071795562272e-06,1.0304033410957163,0.0,0.0,0.0,2.1867475782558126,-6.130482588121057e-05,6.129509922622472e-05,2.4409812788312685e-06,592.314022284851,592.3140194550151,592.3037192913054,592.3393875948092
0.40800000000000003,-4.177081584674949e-08,-6.000000041776447,0.18370095387206747,0.0003606045430389156,-0.00036054316338723284,-2.572574845894834e-05,3.0893802667198683e-22,-6.0,0.2634382235220265,-7.841720400536187e-23,4.324589280859136e-06,4.32539307282298e-06,1.0394730849862237,0.0,0.0,0.0,2.139275902338345,-5.9129207626083165e-05,5.9121614307229155e-05,2.3376710171967504e-06,591.1410983831884,591.1410961696338,591.1310897248968,591.1655610111663
0.41200000000000003,-5.187299177488767e-08,-6.00000005188026,0.1879206787950829,0.0003664404377102784,-0.00036638214265457023,-2.6716436944159677e-05,3.08228539277131e-22,-6.0,0.2674263006910043,-7.823711604927249e-23,4.268488379620562e-06,4.269236261083476e-06,1.0483535750004003,0.0,0.0,0.0,2.0920227106353413,-5.624210143160155e-05,5.623718956196496e-05,2.227059164295472e-06,589.9712689111493,589.971267476434,589.9617410096251,589.9945948705073
0.41600000000000004,-6.326856954779649e-08,-6.000000063277703,0.19217461141720285,0.00036742612675059924,-0.00036737362472084493,-2.7570990270704523e-05,3.0751646950359944e-22,-6.0,0.2714288935871295,-7.80563726124784e-23,4.121148044965381e-06,4.1217945397861404e-06,1.0570459106502248,0.0,0.0,0.0,2.044990979952044,-5.269334403609029e-05,5.269162476099553e-05,2.110577788298979e-06,588.8046240208776,588.804623517697,588.7957542619425,588.8265969635036
0.42000000000000004,-7.595977691835586e-08,-6.000000075970986,0.19646203064357937,0.0003634582711086805,-0.0003634144084179781,-2.8290600507207388e-05,3.0680187397444815e-22,-6.0,0.2754456839283321,-7.78749880675118e-23,3.881273695807432e-06,3.881770691926943e-06,1.0655536489864166,0.0,0.0,0.0,1.998148009334797,-4.853119460848991e-05,4.853314610199163e-05,1.9899584483415513e-06,587.6403662908233,587.640366863099,587.6323243285893,587.6607881560526
0.42400000000000004,-8.993106206994684e-08,-6.00000008994453,0.20078220730951168,0.0003545109653020958,-0.00035447864034564384,-2.8878249223072105e-05,3.060848087241836e-22,-6.0,0.2794763567408188,-7.769297663751437e-23,3.5490223129823285e-06,3.5493202217575863e-06,1.07387936375004,0.0,0.0,0.0,1.9515296547779166,-4.3815419294621335e-05,4.382141744187528e-05,1.8673310936757984e-06,586.4794006085216,586.4794023709609,586.4723461847093,586.4980963134681
0.42800000000000005,-1.0514895538156069e-07,-6.000000105164826,0.20513438599971712,0.0003406433037268825,-0.0003406253667350031,-2.933785862104419e-05,3.053653292038081e-22,-6.0,0.28352060033071297,-7.751035239751796e-23,3.126077658480848e-06,3.126127466138667e-06,1.082020629299474,0.0,0.0,0.0,1.905208977179905,-3.8623555045628314e-05,3.863391716778761e-05,1.7439077529692142e-06,585.3235698590998,585.3235729098209,585.3176446241819,585.3403898485116
0.43200000000000005,-1.2156276236588157e-07,-6.000000121581133,0.209517813613938,0.0003219832721278913,-0.00032198243404570916,-2.9674029597588422e-05,3.046434902858258e-22,-6.0,0.2875781062559165,-7.732712927571519e-23,2.6156606332754352e-06,2.615415233853018e-06,1.0899742127147682,0.0,0.0,0.0,1.8592019491267375,-3.302955031277956e-05,3.304443697876092e-05,1.6206333672431978e-06,584.1733028732542,584.1733072646799,584.1686304338159,584.1881214653027
0.43600000000000005,-1.3910521552444753e-07,-6.000000139126123,0.21393174168891094,0.00029872275432409143,-0.00029874149677039423,-2.9891994704537433e-05,3.03919346269209e-22,-6.0,0.2916485692981924,-7.714332105472014e-23,2.022391366486841e-06,2.0218077436441276e-06,1.0977398097332116,0.0,0.0,0.0,1.8135198057119248,-2.7106015958839106e-05,2.7125532972587974e-05,1.4984261198378025e-06,583.0289129254631,583.0289186940983,583.0255990017805,583.0416280671308
0.44000000000000006,-1.5769331656784942e-07,-6.000000157716732,0.21837542643855043,0.00027111304541218347,-0.0002711535333971535,-2.9997479463895274e-05,3.031929508843259e-22,-6.0,0.29573168743546624,-7.695894137281905e-23,1.352117642841675e-06,1.3511583690743442e-06,1.1053185846814315,0.0,0.0,0.0,1.7681736009854718,-2.0927394679248303e-05,2.0951493754505645e-05,1.3780684909564777e-06,581.8907112611412,581.8907183980268,581.8888425682306,581.9012448122626
0.44400000000000006,-1.7722937447756314e-07,-6.000000177255194,0.22284812882306596,0.00023945992782438218,-0.00023952392703735829,-2.9996580077804525e-05,3.0246435729782957e-22,-6.0,0.2998271618143451,-7.677400372521136e-23,6.118121244780595e-07,6.10447052673352e-07,1.1127117119988061,0.0,0.0,0.0,1.7231741475041522,-1.4569268869392705e-05,1.459780032775404e-05,1.2602207493649814e-06,580.7590054785366,580.7590139445276,580.7586488455463,580.7673033788698
0.44800000000000006,-1.9760221856054499e-07,-6.000000197630254,0.22734911463725754,0.00020411837612264755,-0.00020420717688309395,-2.9895656770622795e-05,3.0173361811750845e-22,-6.0,0.3039346967228521,-7.658852146524084e-23,-1.9053934152251544e-07,-1.9233137770165604e-07,1.1199203843584038,0.0,0.0,0.0,1.6785319747609249,-8.10763636363709e-06,8.140331239207195e-06,1.1454342174231527e-06,579.6340984001616,579.6341081203694,579.6353001401252,579.6401306413106
0.45200000000000007,-2.1868856505495067e-07,-6.0000002187185455,0.23187765461383114,0.00016548693631967824,-0.00016560128596762572,-2.9701241118042208e-05,3.0100078539709897e-22,-6.0,0.30805399956337504,-7.640250780561723e-23,-1.0460580726463285e-06,-1.0482882431060758e-06,1.1269458173186468,0.0,0.0,0.0,1.634257295445202,-1.6181398140832477e-06,1.6545708027716682e-06,1.0341632488775275e-06,578.5162871227363,578.5162979746206,578.5190726657123,578.5200475191841
0.45600000000000007,-2.403545151680083e-07,-6.000000240386078,0.2364330245382024,0.00012400182948958685,-0.00012414187472374122,-2.9419955879649357e-05,3.0026591064106013e-22,-6.0,0.3121847808258274,-7.62159758196281e-23,-1.945100304022554e-06,-1.9477684146516337e-06,1.1337892528768927,0.0,0.0,0.0,1.5903599783954376,4.824840618852101e-06,-4.785173833850318e-06,9.267760414550237e-07,577.4058622050542,577.4058740435248,577.4102360351333,577.4073679606514
0.4600000000000001,-2.624571619350998e-07,-6.0000002624898565,0.2410145053718006,8.013083349760951e-05,-8.029607438935373e-05,-2.905844600397729e-05,2.9952904480931065e-22,-6.0,0.3163267540610206,-7.602893844234133e-23,-2.877391089067628e-06,-2.8804846625555463e-06,1.1404519621714102,0.0,0.0,0.0,1.5468495272526213,1.11487794853994e-05,-1.1106537020630122e-05,8.23564402533076e-07,576.3031070367149,576.3031196680156,576.3090528391302,576.3023981062845
0.4640000000000001,-2.8484615990681447e-07,-6.000000284879447,0.2456213711850093,3.437772093798569e-05,-3.456697293857501e-05,-2.8623872701883984e-05,2.9879023832192906e-22,-6.0,0.3204796358542453,-7.584140847179808e-23,-3.832115328379444e-06,-3.835608919310878e-06,1.146934027828938,0.0,0.0,0.0,1.5037598166394242,1.7272826014234178e-05,-1.7228753106986483e-05,7.253986703774181e-07,575.2089254826155,575.2089386863222,575.2164053183483,575.2060691066448
0.4680000000000001,-3.073655953176378e-07,-6.00000030739885,0.2502528969030384,-1.273085029917147e-05,1.2519478744621447e-05,-2.8122383331534663e-05,2.9804954106381642e-22,-6.0,0.32464314579906056,-7.565339857019636e-23,-4.797957926053235e-06,-4.801812496037405e-06,1.1532351066122501,0.0,0.0,0.0,1.4611092657889384,2.312395090246005e-05,-2.3078880003672903e-05,6.313834662954448e-07,574.1238371188332,574.1238506470459,574.1327879850629,574.1189200670226
0.4720000000000001,-3.298561408781882e-07,-6.000000329888662,0.25490839123710624,-6.0680368569022404e-05,6.0449472700122816e-05,-2.7559958948126383e-05,2.9730700238932285e-22,-6.0,0.32881700647128925,-7.546492126506534e-23,-5.763447940447078e-06,-5.76761097052561e-06,1.1593579199668285,0.0,0.0,0.0,1.418849477211565,2.866327966830429e-05,-2.8618171197057364e-05,5.415722808082665e-07,573.0466585869507,573.0466721518917,573.0570055553818,573.0397800292661
0.4760000000000001,-3.52156675468673e-07,-6.0000003521876915,0.25958718331587866,-0.00010896265723940364,0.00010871552396674515,-2.6942882459293153e-05,2.965626711268372e-22,-6.0,0.33300094340321823,-7.527598895043034e-23,-6.7173643719552955e-06,-6.7217699517163244e-06,1.1653088054492173,0.0,0.0,0.0,1.376958152448543,3.3850255700537576e-05,-3.3806085121563784e-05,4.5655907260089796e-07,571.976863579811,571.9768768875543,571.9885209316155,571.9681374336103
0.4800000000000001,-3.7410575040142754e-07,-6.000000374134431,0.2642885884459881,-0.0001570531664428224,0.0001567937543326556,-2.6276965835798492e-05,2.958165955833408e-22,-6.0,0.33719468505800154,-7.508661388796875e-23,-7.64869291637646e-06,-7.653262414775278e-06,1.1710899320051509,0.0,0.0,0.0,1.3354818756368851,3.861830381663889e-05,-3.857613032809273e-05,3.760478939083009e-07,570.9156872058734,570.915699935549,570.9285476200969,570.9052472469763
0.4840000000000001,-3.955435697959505e-07,-6.000000395569039,0.2690119442759301,-0.00020444364301978757,0.0002041765387139159,-2.6867794194883373e-05,2.9506882354892533e-22,-6.0,0.3413979628042654,-7.489680820815673e-23,-8.546629924070822e-06,-8.551272671129633e-06,1.176702602718891,0.0,0.0,0.0,1.2943943198624093,4.293037089020578e-05,-4.2891273233547434e-05,1.8186145612817151e-06,569.8600665935434,569.8600784166687,569.8788818182146,569.8529296325017
0.4880000000000001,-4.163134753323325e-07,-6.000000416334828,0.2737565778141707,-0.00025061979406888643,0.00025035016795812195,-2.8367314923694566e-05,2.943194023012751e-22,-6.0,0.3456105108909131,-7.470658391140697e-23,-9.400589608664697e-06,-9.405204217360618e-06,1.1821477734754686,0.0,0.0,0.0,1.2537354263413745,4.672816685488171e-05,-4.6693282668744614e-05,2.90624798008029e-06,568.8140769512614,568.8140875196323,568.8375722800779,568.8092701634679
0.4920000000000001,-4.3626381558153856e-07,-6.000000436280133,0.27852180908099705,-0.0002950842786483551,0.00029481781766598956,-3.0282660777433135e-05,2.9356837861011385e-22,-6.0,0.34983206642212894,-7.451595286919739e-23,-1.0200355621448393e-05,-1.020483126498103e-05,1.1874244894697044,0.0,0.0,0.0,1.2135381067044035,4.997381414902372e-05,-4.994423207859524e-05,3.455553039066824e-06,567.7789142991284,567.7789232775312,567.805205834519,567.7748804758893
0.4960000000000001,-4.5524952556405727e-07,-6.000000455259894,0.28330697038168845,-0.00033736630084779966,0.0003371091336322606,-3.249189712000234e-05,2.9281579874161654e-22,-6.0,0.354062369332579,-7.432492682519103e-23,-1.0936202762890825e-05,-1.0940420415059008e-05,1.1925326425740872,0.0,0.0,0.0,1.1737964224989101,5.264314124762094e-05,-5.26199611504198e-05,3.879627995692212e-06,566.7538185930898,566.7538256411659,566.7823369233013,566.7503316231121
0.5000000000000001,-4.731335937531957e-07,-6.000000473137124,0.2881114218521431,-0.0003770332698308962,0.0003767918952051343,-3.489384878124338e-05,2.920617084627865e-22,-6.0,0.35830116236280773,-7.413351739634705e-23,-1.1599219892456337e-05,-1.1603054232540807e-05,1.197476084432365,0.0,0.0,0.0,1.134472535469276,5.472702212905303e-05,-5.4711323939861574e-05,4.19773667775055e-06,565.7378354488316,565.7378402305515,565.7680674637811,565.7347329850605
0.5040000000000001,-4.897883983235946e-07,-6.0000004897842505,0.29293452767976275,-0.0004136820324701079,0.0004134632223229132,-3.7402281315679754e-05,2.913061530457978e-22,-6.0,0.3625481910348286,-7.394173607402292e-23,-1.2181407286285428e-05,-1.2184728867745234e-05,1.2022589543659248,0.0,0.0,0.0,1.0955760217059756,5.620857177881954e-05,-5.620140522731297e-05,4.423191090247949e-06,564.7312404491701,564.7312426360161,564.7627081089113,564.7284075007682
0.508,-5.05096960691517e-07,-6.000000505084361,0.29777565216019464,-0.000446941232755794,0.0004467519058836367,-4.1174750791940583e-05,2.905491772723033e-22,-6.0,0.36680320362790786,-7.374959422506802e-23,-1.267567399187194e-05,-1.2678351383582204e-05,1.2068828007680032,0.0,0.0,0.0,1.0571243720971968,5.707519825369831e-05,-5.707745359451057e-05,6.005401603999586e-06,563.732187711794,563.7321870223658,563.7691059991248,563.7342122241114
0.512,-5.189541223036254e-07,-6.0000005189323895,0.30263415059145626,-0.00047647267587065293,0.0004763197968393626,-4.580823506719582e-05,2.8979082543770892e-22,-6.0,0.37106595115453966,-7.355710309290847e-23,-1.3075795489124275e-05,-1.307769771590415e-05,1.211346847030467,0.0,0.0,0.0,1.019153595278009,5.731737646964756e-05,-5.7329940385435754e-05,7.1689873176041885e-06,562.7445364285485,562.7445325811824,562.7853729162931,562.7502666676718
0.516,-5.312675958785526e-07,-6.000000531236163,0.3075093743696635,-0.0005019822113890561,0.0005018726461923599,-5.0781675615295514e-05,2.890311413554139e-22,-6.0,0.37533618733661034,-7.336427379862348e-23,-1.3376506058044379e-05,-1.3377505409803404e-05,1.2156496796084382,0.0,0.0,0.0,0.9816896851887624,5.6940751006650904e-05,-5.6964324756527895e-05,7.7595737943471e-06,561.7692744559553,561.7692672245871,561.8119878184211,561.7770484246973
0.52,-5.419586629961538e-07,-6.000000541917096,0.31240068877408206,-0.0005232225584609647,0.0005231629573886171,-5.593653035935596e-05,2.882701683610177e-22,-6.0,0.37961366858175205,-7.317111734201318e-23,-1.3573616883283781e-05,-1.3573591509081449e-05,1.2197918427352346,0.0,0.0,0.0,0.9447227050933522,5.596008980761208e-05,-5.599524094025762e-05,8.17926496523605e-06,560.8055520148739,560.8055412135546,560.8494052896923,560.8150050382184
0.524,-5.509627556507379e-07,-6.000000550910782,0.3173074819634611,-0.0005399948276755392,0.0005399915288233987,-6.114025110911336e-05,2.875079493164932e-22,-6.0,0.38389815395988314,-7.297764460265788e-23,-1.3664105289639588e-05,-1.3662941844149476e-05,1.2237769918447374,0.0,0.0,0.0,0.9082240570453797,5.439545020249076e-05,-5.4442706941199446e-05,8.45192821749316e-06,559.8526428036081,559.8526282577348,559.8969793070765,559.8634799993579
0.528,-5.582302284687734e-07,-6.000000558167749,0.3222291361350872,-0.0005521502077656536,0.0005522090919115418,-6.628435710532558e-05,2.8674452661432763e-22,-6.0,0.3881894051799341,-7.278386634096915e-23,-1.3646144066118567e-05,-1.364373997729381e-05,1.2276078241069341,0.0,0.0,0.0,0.8722229860271851,5.2269286351077883e-05,-5.232888580387328e-05,8.60023867259433e-06,558.911330117737,558.9113117418145,558.955570793746,558.9233223234023
0.532,-5.637262039187795e-07,-6.000000563653317,0.32716507215113183,-0.0005595834799814712,0.0005597099135780316,-7.127887125421884e-05,2.859799421816299e-22,-6.0,0.39248718656675796,-7.258979319923241e-23,-1.3519055749108848e-05,-1.3515321549217242e-05,1.231288246222211,0.0,0.0,0.0,0.8366583959442631,4.960952415851442e-05,-4.968170016582743e-05,8.641352806831903e-06,557.9800434757344,557.9800211850205,558.0236712884915,557.9930079130295
0.536,-5.674316301736778e-07,-6.0000005673486445,0.3321146800675109,-0.0005622513768831314,0.0005624500198567844,-7.604975859191009e-05,2.85214237484206e-22,-6.0,0.39679126503822354,-7.239543570264135e-23,-1.3283363279718691e-05,-1.3278224771620989e-05,1.2348192451712887,0.0,0.0,0.0,0.8016089892196163,4.6454322736918576e-05,-4.653901157046147e-05,8.590188356350484e-06,557.0608745077069,557.0608483093962,557.1034304497564,557.074664614815
0.54,-5.693427993957313e-07,-6.000000569250252,0.33707735802686933,-0.0005601609331121585,0.0005604356321003359,-8.053868702433954e-05,2.844474535306018e-22,-6.0,0.4011014100824902,-7.220080426032408e-23,-1.294083029044554e-05,-1.29342314669955e-05,1.2382001194571641,0.0,0.0,0.0,0.7670755544294636,4.2849183851902136e-05,-4.294617253524216e-05,8.462033030240558e-06,556.1538788824603,556.1538488302867,556.1949660734879,556.1683835080473
