Time_s,X,Y,Z,Roll_deg,Pitch_deg,Yaw_deg,Ref_X,Ref_Y,Ref_Z,Ref_Yaw,vx,vy,vz,p,q,r,T_pert,tau_x,tau_y,tau_z,RPM_0,RPM_1,RPM_2,RPM_3
0.0040000000000000036,3.907672823421635e-23,-2.0,0.010006999594037988,3.1588276933026285e-18,-1.2404722931936249e-18,-1.2671305083394822e-20,-1.7036304823775595e-23,-2.0,0.010074639714689831,2.7486720655859e-22,-7.173352330779748e-20,-400.0,2.0013999188075973,0.0,0.0,0.0,0.13727673356390743,-3.688665432071574e-18,7.946578054346201e-19,3.319909604055624e-20,539.3555031529193,539.3555031529194,539.3555031529193,539.3555031529194
0.007999999999999993,-2.2845147947142647e-22,-2.0,0.010010999365392528,4.225032291713385e-18,-3.0182454625789816e-18,-5.043015736345434e-21,-1.703508554769708e-23,-2.0,0.01021705724096241,2.748475345103852e-22,-6.955654838364261e-20,-222.22222222222223,1.1123332628213918,0.0,0.0,0.0,0.28307763577401,-1.4610497815536265e-18,5.885108487282193e-18,-7.745346747652771e-21,543.2938902764524,543.2938902764525,543.2938902764524,543.2938902764524
0.011999999999999997,-2.24147877360317e-22,-2.0,0.010014999136882368,6.012014591245666e-18,-2.452799752729305e-18,6.156081095853364e-22,-1.703326763985179e-23,-2.0,0.010429397942859043,2.7481820401551646e-22,-2.188608795346117e-20,7.973307112623403e-23,0.0009999428521650575,0.0,0.0,0.0,0.42940123543607783,-2.375634853359733e-18,-3.397684251064374e-18,-5.758400815937436e-21,547.2178996817215,547.2178996817216,547.2178996817215,547.2178996817216
0.016,-1.6620090216032535e-22,-2.0,0.010018998914602242,8.535820850314872e-18,-2.501225253821737e-18,-7.031807936114371e-20,-1.7030858349265608e-23,-2.0,0.010710815098006973,2.747793320312416e-22,4.393895230450062e-21,1.0728962026745202e-22,0.0009999434886984182,0.0,0.0,0.0,0.5762362622049031,-3.3582461499383445e-18,-4.023156861064879e-19,8.348046140374233e-20,551.1275394547067,551.1275394547068,551.1275394547067,551.1275394547067
0.020000000000000004,7.92012136061387e-15,-1.999999999999992,0.010022998708918611,-1.049097290537187e-11,1.0490975510792741e-11,3.3429460748852515e-12,-1.7027864859265888e-23,-2.0,0.0110604696579496,2.747310344548249e-22,7.919755369344012e-13,7.993239592648407e-13,0.0009999457848812801,0.0,0.0,0.0,0.7235715656570622,1.0539967689382786e-10,-1.0454336501893911e-10,-3.90508971362702e-12,555.0228195027264,555.0228195029923,555.0228195225905,555.0228194574065
0.024000000000000007,3.778832026512848e-14,-1.9999999999999623,0.010026998525246602,-3.33085933141063e-11,3.330860059504371e-11,3.612834738243578e-12,-1.702429428801123e-23,-2.0,0.011477530186265229,2.7467342613208483e-22,3.778603355794074e-12,3.774529595763705e-12,0.0009999501053287521,0.0,0.0,0.0,0.8713961296386821,2.8763967095239573e-10,-2.897653657875756e-10,-4.5254475892346756e-13,558.9037518384529,558.9037518377976,558.9037519256602,558.9037517476303
0.02800000000000001,6.814708518228799e-14,-1.999999999999932,0.010030998365529802,-5.65009796627943e-11,5.650098929080858e-11,4.045912037774498e-12,-1.7020153689017258e-23,-2.0,0.011961172797154364,2.746066208658769e-22,6.814125664383309e-12,6.793982025810473e-12,0.0009999556282122915,0.0,0.0,0.0,1.0196990498465315,5.957290973122057e-11,-6.020957893689972e-11,-6.542573879769178e-13,562.7703499855752,562.7703499853803,562.7703500016919,562.7703499650135
0.032000000000000015,9.703096004541645e-14,-1.9999999999999032,0.010034998229719632,-7.856663286143951e-11,7.85666432363534e-11,4.545188287476887e-12,-1.701545005167841e-23,-2.0,0.012510581094492133,2.745307314245123e-22,7.440519351854652e-12,7.41530867113022e-12,0.0009999615577785045,0.0,0.0,0.0,1.168469532798182,3.981396105845459e-11,-3.828719052065802e-11,-7.493717773531172e-13,566.6226288479609,566.6226288484253,566.622628857652,566.6226288338993
0.03599999999999999,1.2342144543244722e-13,-1.9999999999998768,0.01003899811651232,-9.87274764412549e-11,9.872748675414721e-11,5.052473342739201e-12,-1.701019030178577e-23,-2.0,0.013124946111342442,2.7444586955011277e-22,7.035084323888072e-12,7.037451116284004e-12,0.0009999674151876803,0.0,0.0,0.0,1.3176968963157119,2.534769912379585e-11,-2.4771755051606358e-11,-7.79229218144217e-13,570.4606047069525,570.4606047071265,570.4606047121127,570.4606046969726
0.039999999999999994,1.4690327788574607e-13,-1.9999999999998532,0.010042998024084425,-1.1666627102396962e-10,1.1666628309234205e-10,5.5351616235769025e-12,-1.7004381302040974e-23,-2.0,0.013803466249930544,2.743521459669022e-22,6.403339384981979e-12,6.4153757220167845e-12,0.00099997293977281,0.0,0.0,0.0,1.467370568536964,1.7200056023492885e-11,-1.6917515565103284e-11,-7.7132705292636e-13,574.2842951468435,574.2842951469283,574.2842951495496,574.284295139312
0.044,1.6741758925974242e-13,-1.9999999999998326,0.010046997950439453,-1.3233804733499775e-10,1.3233805988936562e-10,5.976657706425048e-12,-1.6998029852566243e-23,-2.0,0.014545347222070591,2.742496703894354e-22,5.682348084452938e-12,5.704520082828078e-12,0.0009999780048642118,0.0,0.0,0.0,1.6174800877208297,1.3627385484254241e-11,-1.2640024106617104e-11,-7.430287860435102e-13,578.0937190126928,578.0937190129872,578.0937190144056,578.0937190065755
0.048,1.8510350281398457e-13,-1.9999999999998148,0.010050997893586974,-1.4584908691808623e-10,1.4584909954583552e-10,6.370103135817799e-12,-1.699114269141052e-23,-2.0,0.015349801990044964,2.7413855153076414e-22,4.954544697465806e-12,4.971498889882008e-12,0.0009999825771028065,0.0,0.0,0.0,1.768015101623047,9.996226901627861e-12,-1.0561626401845264e-11,-7.050272744456546e-13,581.8888963578693,581.8888963577019,581.8888963586149,581.8888963525268
0.052000000000000005,2.0020556459029e-13,-1.9999999999997997,0.010054997851756873,-1.573862104168153e-10,1.5738622241797743e-10,6.7145741642468816e-12,-1.698372649505177e-23,-2.0,0.016216050707932004,2.7401889711054185e-22,4.2654779255223e-12,4.282923977051641e-12,0.0009999866725153572,0.0,0.0,0.0,1.918965366473634,8.995225856628549e-12,-9.870283218217111e-12,-6.639735652300109e-13,585.6698483825869,585.6698483823296,585.6698483831614,585.6698483776106
0.05600000000000001,2.1300229359746233e-13,-1.9999999999997868,0.010058997823166013,-1.6716218928820364e-10,1.6716220109495058e-10,7.0121295515521754e-12,-1.6975787878895505e-23,-2.0,0.01714332066337891,2.7389081386306625e-22,3.637474944134957e-12,3.660996787397417e-12,0.0009999903140210306,0.0,0.0,0.0,2.0703207469402765,1.085357009246255e-11,-9.866148553353046e-12,-6.233137665573718e-13,589.4365974025611,589.4365974028499,589.4365974038013,589.4365973977439
0.06000000000000001,2.2378063096877949e-13,-1.9999999999997762,0.010062997806204751,-1.7539623033519382e-10,1.7539624211956932e-10,7.266568942854322e-12,-1.6967333397769475e-23,-2.0,0.018130846219816574,2.7375440754526127e-22,3.0791591571241656e-12,3.0835092241061332e-12,0.0009999935312246175,0.0,0.0,0.0,2.2220712143529275,8.019236555328727e-12,-1.0304346288761856e-11,-5.851660470256267e-13,593.189166775866,593.1891667752024,593.1891667763925,593.1891667710695
0.06400000000000002,2.328172702024341e-13,-1.999999999999767,0.010066997799511817,-1.8229971207955923e-10,1.8229972385663205e-10,7.482504245813347e-12,-1.6958369546414636e-23,-2.0,0.01917786875911307,2.7360978294459834e-22,2.5912994425659475e-12,2.594866450298097e-12,0.0009999963611923013,0.0,0.0,0.0,2.37420684600092,1.3067244881514298e-11,-1.098289066071748e-11,-5.506352833794968e-13,596.9275808542951,596.9275808548971,596.9275808563813,596.9275808494384
0.06799999999999999,-9.810136875199113e-12,-2.0000000000098104,0.010071748964042906,-9.809348158265942e-07,9.809248680862229e-07,3.996356287984113e-08,-1.6948902759972386e-23,-2.0,0.020283636624662676,2.7345704388695737e-22,-1.00706163222944e-09,-1.0070942025250732e-09,0.001075115070751549,0.0,0.0,0.0,2.5251933286357344,1.0281388237485728e-06,-1.0281319583419229e-06,-4.6675327383247986e-08,600.6148223906006,600.6148223925705,600.6149753296061,600.6143853538765
0.072,-4.217931532205997e-11,-2.00000000004218,0.010081880358356178,-4.317080670082158e-06,4.316946295147311e-06,1.757836624598302e-07,-1.6938939414468084e-23,-2.0,0.021447405064907207,2.7329629324442815e-22,-4.300260032253439e-09,-4.300332060288627e-09,0.0016882556698994994,0.0,0.0,0.0,2.667126743886393,3.6942144875129008e-06,-3.6940704142640925e-06,-1.6030038601400468e-07,604.0605613490274,604.0605613901286,604.0611301606634,604.059022438873
0.076,-8.462765817642944e-11,-2.000000000084632,0.010102767067686445,-9.598918711907714e-06,9.598409225415717e-06,3.8991527848024376e-07,-1.6928485827290913e-23,-2.0,0.022668436177286467,2.731276329430525e-22,-8.655161719297716e-09,-8.655591308189552e-09,0.003370803283469404,0.0,0.0,0.0,2.798335820236788,6.318248939454385e-06,-6.3178370054466635e-06,-2.573578309572519e-07,607.2285394512718,607.2285395681748,607.229557806978,607.2259718032662
0.08,-1.1856543436434385e-10,-2.0000000001185763,0.010139260832715737,-1.644723657213652e-05,1.6445986661282437e-05,6.659361385844498e-07,-1.6917548257670085e-23,-2.0,0.02394599885261479,2.7295116397050736e-22,-1.0692732886675286e-08,-1.0693866126828248e-08,0.0063467649861562265,0.0,0.0,0.0,2.919701794701792,8.716504684314707e-06,-8.715644853618287e-06,-3.38447187805132e-07,610.1442038137071,610.1442040565528,610.1456517219887,610.1407282784821
0.084,-1.1975521079322632e-10,-2.0000000001197735,0.010195746484717267,-2.4502144123622264e-05,2.4499696799388944e-05,9.892403211333563e-07,-1.690613290714743e-23,-2.0,0.02527936871988048,2.7276698638372987e-22,-8.875931940384851e-09,-8.877845179875866e-09,0.01050819489086233,0.0,0.0,0.0,3.032008133864616,1.0882956037541109e-05,-1.0881487945947334e-05,-4.0501589006576796e-07,612.8298520644811,612.8298524773033,612.8317042705658,612.825584173575
0.08800000000000001,-5.919221779366644e-11,-2.0000000000592166,0.010276220611816855,-3.342007272516917e-05,3.341590485107259e-05,1.3466231668290504e-06,-1.6894245920046392e-23,-2.0,0.02666782809146507,2.7257519931648386e-22,-2.4530868324087454e-09,-2.455542283561945e-09,0.015744192101856243,0.0,0.0,0.0,3.135893617381061,1.2806689061771367e-05,-1.2804502782446485e-05,-4.581010675912439e-07,615.3036781139641,615.3036787262665,615.3059039436463,615.2987311056341
0.09200000000000001,9.585431168436147e-11,-1.99999999990417,0.010384317489001767,-4.287680170158056e-05,4.2870350312842395e-05,1.7270551572254448e-06,-1.6881893383937445e-23,-2.0,0.02811066590877935,2.723759009868694e-22,9.111243206881338e-09,9.108590484278868e-09,0.02195699828931077,0.0,0.0,0.0,3.231956859988669,1.4478940550972876e-05,-1.4475921910395337e-05,-4.997014030483072e-07,617.5824038296945,617.5824046719936,617.5849649315477,617.5768855630407
0.09600000000000002,3.8066819998151167e-10,-1.999999999619343,0.0105232829278371,-5.257565793003458e-05,5.256634425046463e-05,2.1207943334938704e-06,-1.6869081330099983e-23,-2.0,0.029607177688313144,2.721691887047748e-22,2.6171739795909166e-08,2.6169454224029617e-08,0.029053679793963245,0.0,0.0,0.0,3.320861183287505,1.589945229981787e-05,-1.589551683144178e-05,-5.308680621517309e-07,619.6838353197177,619.6838364141178,619.6866908275828,619.6778490594493
0.10000000000000002,8.321187157943171e-10,-1.9999999991678565,0.01069606496450926,-6.224208657175854e-05,6.222934094910401e-05,2.5194662606254675e-06,-1.6855815733980685e-23,-2.0,0.031156665468095753,2.71955158879272e-22,4.894210135813758e-08,4.8941050671608305e-08,0.03694589670069017,0.0,0.0,0.0,3.4030983247648683,1.706497327705408e-05,-1.706005318114887e-05,-5.527984927906186e-07,621.6213396266162,621.6213409905631,621.6244448515514,621.6149847020084
0.104,1.4876110414272438e-09,-1.9999999985122936,0.010905333278088267,-7.162521672805639e-05,7.160850163261985e-05,2.9160161252513715e-06,-1.6842102515648395e-23,-2.0,0.03275843775456411,2.7173390702595555e-22,7.753778935839763e-08,7.753913004351558e-08,0.04555824794574355,0.0,0.0,0.0,3.4791301903271017,1.797383916339982e-05,-1.7967897685668136e-05,-5.666903404619719e-07,623.4072812749353,623.4072829173106,623.4105881044133,623.4006528697047
0.108,2.3841038770391976e-09,-1.9999999976156815,0.011153509162758788,-8.04984140935461e-05,8.047724572070276e-05,3.3043626273050307e-06,-1.6827947540245532e-23,-2.0,0.034411809469835686,2.7150552777422596e-22,1.1199589988426127e-07,1.1200104803911435e-07,0.054823576071215366,0.0,0.0,0.0,3.5493668160898384,1.8626571414092246e-05,-1.8619601531550596e-05,-5.7339112930534e-07,625.0525530423506,625.0525549639318,625.056011527952,625.0457428136473
0.112,3.557315773462191e-09,-1.9999999964422854,0.011442852073639865,-8.865434182680548e-05,8.862831399622581e-05,3.6795326451790596e-06,-1.6813356618436053e-23,-2.0,0.03611610189938309,2.712701148745173e-22,1.5229784119996244e-07,1.5230842007590665e-07,0.06468673910862557,0.0,0.0,0.0,3.6140505960375267,1.9020971234905103e-05,-1.9012992233488864e-05,-5.739456692469986e-07,626.5639214547004,626.5639236491872,626.5674784524472,626.5570178391994
0.116,5.0406811435183066e-09,-1.9999999949586527,0.01177539190511079,-9.591197517327405e-05,9.588077415188502e-05,4.037443958500954e-06,-1.6798335506850022e-23,-2.0,0.03787064264010755,2.710277612054696e-22,1.983784842418993e-07,1.9839638709917035e-07,0.0750982314898032,0.0,0.0,0.0,3.6735666112977516,1.9160761311988633e-05,-1.9151813823907393e-05,-5.691904614308405e-07,627.9513215556929,627.9513240111081,627.9549228980381,627.9444089386668
0.12000000000000001,6.86462742722728e-09,-1.9999999931343357,0.01215298237680634,-0.00010211446109388504,0.00010207788021582695,4.374822108222691e-06,-1.6782889908524778e-23,-2.0,0.03967476554880828,2.707785587810471e-22,2.50129875851179e-07,2.5015730206501816e-07,0.08600788244963217,0.0,0.0,0.0,3.728198999095382,1.905181423381822e-05,-1.904196712227234e-05,-5.599014697101078e-07,629.2221775323814,629.222180229218,629.2257687480954,629.2153359459849
0.12400000000000001,9.055897277409245e-09,-1.9999999909425712,0.012577332146238697,-0.00010712943112404499,0.00010708738376626105,4.689160263611833e-06,-1.676702547334273e-23,-2.0,0.04152781069104484,2.7052259875760155e-22,3.0741060835966163e-07,3.074499828688061e-07,0.0973729546552912,0.0,0.0,0.0,3.7781744549502267,1.8701915643054585e-05,-1.8691267501642034e-05,-5.468409455167521e-07,630.3824537987296,630.3824567095774,630.3859806251144,630.3757585469797
0.128,1.1636922942101444e-08,-1.9999999883609052,0.013050009943832794,-0.00011084885932659825,0.00011080138770329449,4.978495251628946e-06,-1.6750747798465828e-23,-2.0,0.04342912429038968,2.702599714408821e-22,3.7004907194060317e-07,3.7010304606981605e-07,0.10915635531819168,0.0,0.0,0.0,3.8237139625590104,1.8120377842668746e-05,-1.8109046043618136e-05,-5.305410284679472e-07,631.4378780850365,631.4378811775957,631.4412874947337,631.4314001053568
0.132,1.4625266960717801e-08,-1.999999985371753,0.013572436901550581,-0.00011318944314518379,0.00011313672157609514,5.241534591458224e-06,-1.6734062428766703e-23,-2.0,0.04537805867806793,2.699907662929914e-22,4.3784287114833764e-07,4.379144319765539e-07,0.12132275778242219,0.0,0.0,0.0,3.8650586206721878,1.73188359155506e-05,-1.7306949931677433e-05,-5.117045789349331e-07,632.394551128634,632.3945543675287,632.3977914090592,632.388355965554
0.136,1.803323533776288e-08,-1.9999999819627872,0.014145912158219646,-0.00011409141320521774,0.000114033749392915,5.477256367189115e-06,-1.6716974857256532e-23,-2.0,0.047373972242981614,2.697150719392888e-22,5.105582013252894e-07,5.106505299729226e-07,0.13383731021009662,0.0,0.0,0.0,3.9024023518182727,1.6310704557655014e-05,-1.629842397901808e-05,-4.905945860899831e-07,633.2573986811564,633.2574020230172,633.2604211427985,633.2515473420126
0.14,2.1867517502239447e-08,-1.999999978127298,0.014771586048982783,-0.00011351492475465439,0.0001134527547137458,5.685195946690768e-06,-1.669949052550962e-23,-2.0,0.0494162293821156,2.6943297617524084e-22,5.879332770891599e-07,5.880498457986782e-07,0.14666669844499003,0.0,0.0,0.0,3.9359974646247284,1.5106756714461067e-05,-1.5094241144653333e-05,-4.6782008235520326e-07,634.0326235504007,634.0326269520443,634.0353807510132,634.0271723154149
0.14400000000000002,2.61290098197513e-08,-1.9999999738643697,0.015450530422207433,-0.00011144576024563161,0.00011137964493571112,5.8652609040012325e-06,-1.6681614824084755e-23,-2.0,0.05150420045132223,2.6914456597321917e-22,6.696691170871634e-07,6.698135882768123e-07,0.15978104234820703,0.0,0.0,0.0,3.9659583865322565,1.3727560354631824e-05,-1.3714982813600253e-05,-4.437967841023221e-07,634.723183499777,634.7231869145447,634.7256324365809,634.7181818467967
0.14800000000000002,3.081267114354271e-08,-1.9999999691790267,0.016183719455605983,-0.00010789083754488009,0.0001078214543719934,6.017561874375344e-06,-1.666335309294332e-23,-2.0,0.05363726171648213,2.688499274892467e-22,7.554207702396986e-07,7.555970504162162e-07,0.17315643565811156,0.0,0.0,0.0,3.992441065050768,1.219035906141777e-05,-1.2177901111094699e-05,-4.187581036351596e-07,635.3329441138393,635.3329474928922,635.3350457937537,635.328436215415
0.15200000000000002,3.590749275358717e-08,-1.9999999640822632,0.016972027782523054,-0.00010287528719014999,0.00010280341850397307,6.142578986671547e-06,-1.6644710621864237e-23,-2.0,0.055814795305038314,2.6854914606969233e-22,8.448018045448583e-07,8.450139746657228e-07,0.18676916482307337,0.0,0.0,0.0,4.015608447659402,1.0511586995619344e-05,-1.0499430541877688e-05,-3.931402109502812e-07,635.8658856032017,635.8658888977143,635.8676042021134,635.8619100100059
0.15600000000000003,4.139652973110841e-08,-1.9999999585910124,0.017816261111212546,-9.644771310680176e-05,9.637423249337017e-05,6.2409323439219945e-06,-1.6625692650855717e-23,-2.0,0.05803618915790085,2.6824230625791405e-22,9.373735209031916e-07,9.376258802037136e-07,0.20059727789136422,0.0,0.0,0.0,4.035564596110903,8.715701269119973e-06,-8.704022109208642e-06,-3.6712633365263647e-07,636.3245925197692,636.3245956826491,636.3258982564739,636.3211807440841
0.16000000000000003,4.725707350046578e-08,-1.999999952727975,0.01871714016308412,-8.867233787797112e-05,8.859819427779914e-05,6.31351340622692e-06,-1.6606304370563867e-23,-2.0,0.06030083698171934,2.679294918008518e-22,1.0326431621597302e-06,1.0329400967864062e-06,0.21462088025727488,0.0,0.0,0.0,4.052448449765252,6.821188323190123e-06,-6.810167656346097e-06,-3.410589231333672e-07,636.7124165955811,636.712419578314,636.7132836244476,636.7095943055901
0.16400000000000003,5.34607916987224e-08,-1.9999999465214786,0.019675330322540405,-7.963982661283286e-05,7.95660235311099e-05,6.361505605268109e-06,-1.658655092267818e-23,-2.0,0.06260813820152067,2.676107856555695e-22,1.1300453285853198e-06,1.1303913359349745e-06,0.22882228119353507,0.0,0.0,0.0,4.066341564773722,4.859971172071763e-06,-4.849763691480149e-06,-3.153156545895454e-07,637.0313598585484,637.0313626198099,637.0317697852937,637.0291431670329
0.16800000000000004,5.997409871450408e-08,-1.9999999400051087,0.02069143045954374,-6.945844688378854e-05,6.938602102418739e-05,6.385967509496158e-06,-1.6566437400333906e-23,-2.0,0.06495749791370913,2.67286269995747e-22,1.2289339729240306e-06,1.2293335166677068e-06,0.2431853425746628,0.0,0.0,0.0,4.077350027972271,2.8581750757509764e-06,-2.8489367934171602e-06,-2.89799263535633e-07,637.2839597276558,637.2839622257454,637.2839013810319,637.2823581400485
0.17200000000000004,6.675864211151523e-08,-1.9999999332172211,0.02176596398927022,-5.82434380129069e-05,5.817344031973086e-05,6.388030132685019e-06,-1.6545968848511347e-23,-2.0,0.06734832683942643,2.669560262181225e-22,1.3286047248711895e-06,1.3290622237737476e-06,0.25769321722867267,0.0,0.0,0.0,4.085600272516487,8.323539889571534e-07,-8.242085737901709e-07,-2.6463784579209226e-07,637.4731953692824,637.4731975712002,637.472661555274,637.472213742771
0.17600000000000005,7.377170529196401e-08,-1.999999926200541,0.022899391052710306,-4.612186342670913e-05,4.605533720125084e-05,6.3691306963161086e-06,-1.6525150264432114e-23,-2.0,0.06978004127826891,2.6662013494888564e-22,1.4283156503474364e-06,1.4288353142823963e-06,0.2723283687566299,0.0,0.0,0.0,4.09119649714098,-1.1954542440454538e-06,1.202383075231812e-06,-2.4023554344693616e-07,637.6015134072172,637.6015152798838,637.6005015979546,637.6011496660312
0.18000000000000005,8.096662835814428e-08,-1.9999999190017406,0.024092120582204554,-3.3239923211858786e-05,3.317787729331171e-05,6.3305610824187825e-06,-1.6503986597952313e-23,-2.0,0.07225206306235926,2.662786760500215e-22,1.5272474024963185e-06,1.527833170833998e-06,0.28707573044008694,0.0,0.0,0.0,4.094220510906451,-3.193326333773092e-06,3.1989593941821325e-06,-2.1648159397660818e-07,637.6708264031859,637.6708279254768,637.6693428843477,637.6710703516574
0.18400000000000005,8.829353666213015e-08,-1.999999911670711,0.025344501771291356,-1.974548114387247e-05,1.968887143680833e-05,6.273603891675524e-06,-1.6482482751952743e-23,-2.0,0.07476381951077028,2.659317286256059e-22,1.6245157412719434e-06,1.6251711665422946e-06,0.3019213057584456,0.0,0.0,0.0,4.094773147332452,-5.144562553158074e-06,5.148835930090849e-06,-1.934182041336546e-07,637.6834658094548,637.683466964279,637.6815211327797,637.6843027911501
0.188,9.569992095785797e-08,-1.9999999042599825,0.02665682985845599,-5.789201798124985e-06,5.738912564668442e-06,6.199659599988521e-06,-1.6460643582726098e-23,-2.0,0.07731474338429795,2.6557937102805276e-22,1.7192068320658528e-06,1.7199349493171904e-06,0.31685099550343476,0.0,0.0,0.0,4.092945485545194,-7.0321783010142e-06,7.035047889676118e-06,-1.7123573852566355e-07,637.6415238843457,637.6415246598655,637.63913253034,637.6429342667165
0.192,1.031311465358773e-07,-1.999999896824214,0.028029351412303106,8.46623051194292e-06,-8.50941155861871e-06,6.110143532718174e-06,-1.6438473900361193e-23,-2.0,0.07990427284058148,2.6522168086431326e-22,1.810360009170842e-06,1.8111632901821313e-06,0.33185162756515674,0.0,0.0,0.0,4.088819677269864,-8.828592695141802e-06,8.830057623819648e-06,-1.5000905171519746e-07,637.5468741321799,637.5468745281427,637.5440577182012,637.5488307624807
0.196,1.1053118220923549e-07,-1.9999998894194648,0.02946226494729194,2.285464632788935e-05,-2.2890047487332825e-05,6.0064369288911955e-06,-1.6415978469124257e-23,-2.0,0.08253185138956735,2.648587350020275e-22,1.8969559627095217e-06,1.897836068133192e-06,0.3469109036887078,0.0,0.0,0.0,4.082478254530625,-1.0512426420532733e-05,1.0512506869199682e-05,-1.2975644328820003e-07,637.401386425389,637.401386447139,637.3981722100536,637.4038564402954
0.2,1.1784330719858188e-07,-1.9999998821024858,0.030955723787008768,3.721037956086251e-05,-3.723746104510829e-05,5.889826740483788e-06,-1.6393162007837272e-23,-2.0,0.08519692784931537,2.6449060957562913e-22,1.9779359318233196e-06,1.9788937286982833e-06,0.3620170831372876,0.0,0.0,0.0,4.07399954809636,-1.2066367627407577e-05,1.20651236583532e-05,-1.1042448917929198e-07,637.20682335857,637.2068230221523,637.2032433689984,637.2097694693007
0.20400000000000001,1.2501082194076463e-07,-1.9999998749300099,0.03250983943636759,5.1372498546375395e-05,-5.139086394464159e-05,5.761657147112259e-06,-1.637002919025345e-23,-2.0,0.08789895630214384,2.641173799924028e-22,2.0522390452192304e-06,2.053274409673383e-06,0.3771590822273211,0.0,0.0,0.0,4.063456562807031,-1.3477481502601405e-05,1.3474985115212193e-05,-9.213288671102191e-08,636.9648160492171,636.96481537384,636.9609054233445,636.9681971946288
0.20800000000000002,1.3197762807596453e-07,-1.9999998679581703,0.03412467746855965,6.517725470709983e-05,-6.518666758084345e-05,5.623247250347292e-06,-1.6346584645429785e-23,-2.0,0.09063739605111149,2.6373912093849547e-22,2.1187937142089853e-06,2.119905406430329e-06,0.3923259365868773,0.0,0.0,0.0,4.050932060986942,-1.4725253844487823e-05,1.4721618850859324e-05,-7.490753710107772e-08,636.6772111987409,636.6772102148791,636.6730105310404,636.6809807417889
0.21200000000000002,1.3868895917188119e-07,-1.9999998612417695,0.0358002627414948,7.846550296133225e-05,-7.846589622068202e-05,5.475853330241536e-06,-1.632283295809677e-23,-2.0,0.09341171157683369,2.6335590638488124e-22,2.1765191334385523e-06,2.1777047149967857e-06,0.40750682998353643,0.0,0.0,0.0,4.03649975870153,-1.5795408766800418e-05,1.579077717903095e-05,-5.8729221437749304e-08,636.3456408421911,636.3456395879339,636.3411946525121,636.3497483525141
0.21600000000000003,1.4509204727440355e-07,-1.999999854833612,0.037536581330904935,9.108498881066263e-05,-9.107647049509806e-05,5.3206827165687345e-06,-1.6298778669025258e-23,-2.0,0.09622137249463045,2.629678095932805e-22,2.224343951408741e-06,2.2255997568307e-06,0.42269156417600023,0.0,0.0,0.0,4.020230822533702,-1.667678955384335e-05,1.6671326030364304e-05,-4.359234495640151e-08,635.9716724725523,635.9716709921328,635.9670283501365,635.9760644994187
0.22000000000000003,1.511367595196618e-07,-1.9999998487838668,0.039333584368879265,0.00010289282851076304,-0.00010287568341444069,5.158836395333654e-06,-1.627442627539052e-23,-2.0,0.09906585351200384,2.6257490312203366e-22,2.261236947362454e-06,2.2625579621383488e-06,0.43787076733346836,0.0,0.0,0.0,4.0021899403324905,-1.7361383545768925e-05,1.735527346960595e-05,-2.942225816439514e-08,635.556719418162,635.5567177614689,635.5519273946264,635.5613405109852
0.22400000000000003,1.5677619687554892e-07,-1.9999998431394683,0.0411911931045047,0.00011375830101009454,-0.00011373298755702386,4.991425757903816e-06,-1.6249780231133486e-23,-2.0,0.10194463438644231,2.6217725883192933e-22,2.2862294104373366e-06,2.287609253672939e-06,0.45303603742907594,0.0,0.0,0.0,3.9824327180322436,-1.7844964579448223e-05,1.7838413185865247e-05,-1.627632619911341e-08,635.1019816730293,635.1019798954051,635.0970928403116,635.106775001469
0.22800000000000004,1.6196721138030658e-07,-1.9999998379435977,0.04310928777171164,0.0001235597356816874,-0.00012352688362330262,4.819467362369439e-06,-1.6224844947319213e-23,-2.0,0.10485719988354962,2.6177494789198833e-22,2.2984217718869047e-06,2.2998527748754155e-06,0.4681786711348129,0.0,0.0,0.0,3.9610383813224557,-1.812092928256629e-05,1.8114160803827095e-05,-4.089406102664438e-09,634.6091990925701,634.6091972546169,634.6042666285532,634.6141061227856
0.23200000000000004,1.6667091708463314e-07,-1.9999998332351723,0.045087722242266606,0.00013218939353302345,-0.00013214979484972561,4.643961545706807e-06,-1.619962479249261e-23,-2.0,0.10780303973549583,2.613680407852025e-22,2.2969969913993582e-06,2.2984701097670802e-06,0.48329023732108584,0.0,0.0,0.0,3.938057798648799,-1.8188611511190774e-05,1.8181852329988412e-05,7.115707804639046e-09,634.0794560708501,634.0794542338881,634.0745333933086,634.0844178983787
0.23600000000000004,1.7085313786236223e-07,-1.9999998290483958,0.04712631068853954,0.00013955217644472397,-0.0001395067750639531,4.465816402958238e-06,-1.6174124093031394e-23,-2.0,0.11078164859978822,2.6095660731422985e-22,2.2812323973168487e-06,2.2827373608783445e-06,0.49836230198585596,0.0,0.0,0.0,3.9135698201690254,-1.804704088766931e-05,1.8040539060225714e-05,1.7405691632585177e-08,633.5144797533173,633.5144779847213,633.5096208853315,633.5194372563404
0.24000000000000005,1.7448476517650188e-07,-1.9999998254124012,0.04922484820331291,0.00014556819408513444,-0.00014551807121326234,4.285878848385245e-06,-1.6148347133496365e-23,-2.0,0.1137925260183595,2.6054071660704558e-22,2.250519829634207e-06,2.2520451594369604e-06,0.5133874612523845,0.0,0.0,0.0,3.8876127860591714,-1.7699767622062056e-05,1.7693761501554188e-05,2.6814724902998873e-08,632.9150615162671,632.9150598809637,632.9103197742384,632.9199564704854
0.24400000000000005,1.775421107363217e-07,-1.9999998223508966,0.051383096611605894,0.00015017311777015886,-0.0001501194742818373,4.104986855692486e-06,-1.612229815697895e-23,-2.0,0.11683517637697126,2.6012043712254963e-22,2.2043780945448696e-06,2.205911278817748e-06,0.5283587536125913,0.0,0.0,0.0,3.8602545119924887,-1.7151488982142035e-05,1.714622312137384e-05,3.53184745751476e-08,632.2826717611274,632.2826703259426,632.2780992922629,632.287446966861
0.24800000000000005,1.800072000822529e-07,-1.9999998198818716,0.053600775099473516,0.00015331981279091111,-0.00015326394740238595,3.923913821102593e-06,-1.6095981365446091e-23,-2.0,0.11990910886493011,2.596958366561312e-22,2.142472631793631e-06,2.1440002445435412e-06,0.5432675633813399,0.0,0.0,0.0,3.831582964800617,-1.6410227777967922e-05,1.640593506796965e-05,4.2957967462778826e-08,631.6192478754245,631.6192467042384,631.6148949532197,631.6238482327032
0.25200000000000006,1.8186791415001152e-07,-1.9999998180174552,0.0558775758234624,0.00015497832032412023,-0.0001549216061539248,3.7433635760550487e-06,-1.6069400920082472e-23,-2.0,0.12301383743511432,2.5926698234519023e-22,2.064628662268263e-06,2.0661366028112306e-06,0.558105040113505,0.0,0.0,0.0,3.8016558620961813,-1.548662945901204e-05,1.5483532193821344e-05,4.978270809521909e-08,630.9260295528204,630.9260287068607,630.921943885528,630.9304028015375
0.256,1.8311809438814492e-07,-1.99999981676381,0.0582131660181548,0.00015513603740777718,-0.0001550798965448365,3.5639814220184635e-06,-1.6042560941630095e-23,-2.0,0.1261488807643086,2.588339406746161e-22,1.9708423414996563e-06,1.972316082079025e-06,0.5728640260221816,0.0,0.0,0.0,3.7705275764971167,-1.4392973267949307e-05,1.4391280082019612e-05,5.583216714997784e-08,630.2041799988488,630.2041795358573,630.2004062537409,630.2082771350301
0.26,1.8375757818272838e-07,-1.9999998161210975,0.060607188901107605,0.00015379772722604634,-0.00015374360366876116,3.386355947807702e-06,-1.6015465510725245e-23,-2.0,0.1293137622138451,2.5839677748222453e-22,1.8612877916737573e-06,1.8627125685103486e-06,0.5875383477924297,0.0,0.0,0.0,3.7382515086233217,-1.3143416292760676e-05,1.3143305777153692e-05,6.114609581972544e-08,629.4548411621282,629.4548411318724,629.45142044848,629.4586169515899
0.264,1.8379216166359696e-07,-1.9999998160835144,0.0630592645716551,0.00015098532283923805,-0.00015093465424858554,3.2110209442677666e-06,-1.598811866823287e-23,-2.0,0.13250800979054747,2.579555579641523e-22,1.736323429952463e-06,1.7376845420336297e-06,0.6021220571164682,0.0,0.0,0.0,3.704880070177877,-1.1753818797964225e-05,1.1755448902404105e-05,6.576433744767151e-08,628.6791337254416,628.6791341722654,628.6761031195708,628.6825471815323
0.268,1.8323349129344405e-07,-1.9999998166394013,0.06556899089984834,0.000146737531118763,-0.00014669171996782799,3.0384574649733693e-06,-1.5960524415578344e-23,-2.0,0.13573115610797692,2.5751034668021026e-22,1.5964957140832479e-06,1.5977788820594984e-06,0.6166094296845193,0.0,0.0,0.0,3.6704646747908343,-1.0241556824729885e-05,1.0245059463218782e-05,6.972657833503282e-08,627.8781572488356,627.8781582101595,627.8755493646559,627.8811720593454
0.272,1.82098886486886e-07,-1.9999998177714207,0.06813594440448444,0.00014110924329419162,-0.00014106962791601146,2.8690960031510745e-06,-1.5932686715076714e-23,-2.0,0.13898273834797734,2.57061207559195e-22,1.442540310017194e-06,1.4437319088294388e-06,0.6309949627076985,0.0,0.0,0.0,3.635055731302633,-8.62531638662714e-06,8.63077910983213e-06,7.30721273557556e-08,627.0529903373691,627.0529918386252,627.0508329478284,627.0555752358674
0.276,1.804110963413371e-07,-1.9999998194567987,0.07075968111933792,0.00013417076054304068,-0.0001341385865566622,2.703318756972152e-06,-1.5904609490259358e-23,-2.0,0.14226229822251724,2.5660820390415986e-22,1.2753805732282509e-06,1.2764680965472376e-06,0.6452733721399444,0.0,0.0,0.0,3.598702639198162,-6.924811622465485e-06,6.932308131123906e-06,7.583972333411953e-08,626.2046908201777,626.2046928831459,626.2030065509201,626.2068198975496
0.28,1.78197994345168e-07,-1.9999998216676336,0.07343973744684726,0.00012600684506249536,-0.00012598323779907023,2.5414619579267596e-06,-1.5876296626198164e-23,-2.0,0.14556938193582664,2.561513983976446e-22,1.0961232726375317e-06,1.0970955377301348e-06,0.6594395896861655,0.0,0.0,0.0,3.561453785934662,-5.160623841000039e-06,5.170161168221336e-06,7.806736833555617e-08,625.3342959630792,625.3342985913146,625.3331020256612,625.3359489157538
0.28400000000000003,1.7549221564981078e-07,-1.9999998243712562,0.07617563099863146,0.00011671560948611999,-0.00011670154778418572,2.383818239498347e-06,-1.584775196982716e-23,-2.0,0.14890354014682664,2.5569085310686515e-22,9.060515311695118e-07,9.068990948304813e-07,0.6734887596307054,0.0,0.0,0.0,3.523356545939713,-3.3538454492463197e-06,3.3654147838917655e-06,7.979218497908058e-08,624.4428226671572,624.4428258599115,624.4421306860868,624.4439849792807
0.28800000000000003,1.7233071567296472e-07,-1.999999827530674,0.07896686682898552,0.00010640571306302174,-0.00010640200688950691,2.2306324159205887e-06,-1.5818979330261694e-23,-2.0,0.15226432793184935,2.5522662948886325e-22,7.066108356178601e-07,7.073262508326285e-07,0.6874167761824559,0.0,0.0,0.0,3.484446308162472,-1.5244180359370222e-06,1.537955620328641e-06,8.105801723756559e-08,623.5310103672961,623.5310141086854,623.5308266852898,623.5316730347871
0.29200000000000004,1.6875427395741157e-07,-1.999999831105067,0.08181294669171527,9.519256316173382e-05,-9.519983663811779e-05,2.0821187916531857e-06,-1.5789982479115123e-23,-2.0,0.15565130474764624,2.5475878839561575e-22,4.993725701765955e-07,4.999506769947338e-07,0.7012211244410816,0.0,0.0,0.0,3.444740140907184,3.10492551035248e-07,-2.9508016910518656e-07,8.189045249128222e-08,622.5991705339104,622.5991747998137,622.5994968950755,622.5993292821986
0.29600000000000004,1.6480716117364337e-07,-1.9999998350501216,0.08471333941517786,8.320556456264407e-05,-8.322423174814559e-05,1.938452656267298e-06,-1.5760765150813064e-23,-2.0,0.15906403439468267,2.54287390079105e-22,2.860430109694667e-07,2.864811360050156e-07,0.7148978345279611,0.0,0.0,0.0,3.4043154074112136,2.1263164143424613e-06,-2.109169147627494e-06,8.232626626872471e-08,621.6490327826349,621.6490375359809,621.649864283072,621.6486901763967
0.30000000000000004,1.6053644571961836e-07,-1.9999998393187244,0.08766751729316583,7.057653539397524e-05,-7.060679017493049e-05,1.7997757828366794e-06,-1.57313310429052e-23,-2.0,0.16250208498071644,2.538124941963495e-22,6.844134540842979e-08,6.873964411648696e-08,0.7284432942130453,0.0,0.0,0.0,3.3631767295615766,3.906614290815175e-06,-3.887903993764683e-06,8.239741318495521e-08,620.6806219242844,620.6806271190062,620.6819492121296,620.6797851451095
0.30400000000000005,1.5599155046201483e-07,-1.9999998438614073,0.09067493582363535,5.7444099439435054e-05,-5.748590265841231e-05,1.6662003411760445e-06,-1.5701683816374688e-23,-2.0,0.1659650288846585,2.53334159814396e-22,-1.5152067160061745e-07,-1.5135909979835996e-07,0.7418549719729529,0.0,0.0,0.0,3.3213698037033144,5.632015921623618e-06,-5.611957439152958e-06,8.213265286906071e-08,619.6949305060778,619.6949360839675,619.6967389249387,619.6936121870413
0.30800000000000005,1.5122369748337467e-07,-1.9999998486269024,0.09373503310809364,4.395242832797562e-05,-4.4005498224688485e-05,1.5378095666389209e-06,-1.567182709594515e-23,-2.0,0.16945244272071341,2.5285244541527264e-22,-3.7186050043119457e-07,-3.71829379739852e-07,0.7551294787479617,0.0,0.0,0.0,3.2789421444080236,7.282520628671756e-06,-7.261355945967956e-06,8.156117929355909e-08,618.6929988649334,618.693004759968,618.6952682403405,618.6912173117072
0.31200000000000006,1.4628538242137374e-07,-1.99999985356267,0.09684721315212813,3.025365571933023e-05,-3.0317459597107725e-05,1.4146556271236942e-06,-1.5641764470385314e-23,-2.0,0.1729639073027977,2.523674089009038e-22,-5.905068019666665e-07,-5.905966639816838e-07,0.7682607456939266,0.0,0.0,0.0,3.2359757760239214,8.834810164939923e-06,-8.812831678812681e-06,8.071586624728511e-08,617.6766897015924,617.6766958333694,617.6793933808872,617.6744698679457
0.31600000000000006,1.412297882761943e-07,-1.999999858615485,0.10001083884989112,1.6507868563464467e-05,-1.6581617235377453e-05,1.2967683878619045e-06,-1.561149949281126e-23,-2.0,0.1764990076092341,2.5187910759798695e-22,-8.052792539605781e-07,-8.054773049490498e-07,0.7812403978850204,0.0,0.0,0.0,3.1925681108620836,1.0263924084665538e-05,-1.0241454020788329e-05,7.962062459004911e-08,616.6482417970442,616.6482480764219,616.6513461105114,616.6456157769828
0.32,1.361099951573681e-07,-1.9999998637322278,0.10322528351048885,2.8690137785748162e-06,-2.9516696054182532e-06,1.1841535097858366e-06,-1.5581035680986355e-23,-2.0,0.18005733274771926,2.513875982628316e-22,-1.013950093033879e-06,-1.0142401546194688e-06,0.7940629848458035,0.0,0.0,0.0,3.1487133606961972,1.1557963194876473e-05,-1.1535335901917872e-05,7.830250240829241e-08,615.6074567893422,615.607463123349,615.6109246728198,615.6044602206416
0.324,1.3097843302686037e-07,-1.9999998688604335,0.1064899170696918,-1.0513171473540544e-05,1.042288489297138e-05,1.0767997246851326e-06,-1.5550376517618833e-23,-2.0,0.18363847592056373,2.5089293708616065e-22,-1.2143262663901325e-06,-1.2146888988778041e-06,0.8067282822533379,0.0,0.0,0.0,3.10443345080222,1.2705347938371278e-05,-1.2682931830321316e-05,7.678104316152312e-08,614.5547936490804,614.5547999347187,614.5585846803806,614.5514656264031
0.328,1.2588628978768003e-07,-1.9999998739488833,0.10980411630536349,-2.349660377257796e-05,2.3400187164080458e-05,9.746711496197963e-07,-1.5519525450657088e-23,-2.0,0.18724203439020093,2.5039517969787463e-22,-1.404308282756447e-06,-1.4047208920026536e-06,0.819236792951688,0.0,0.0,0.0,3.0597297430358803,1.3697859862825117e-05,-1.3676021843047473e-05,7.508546345526554e-08,613.4902236482209,613.490229782385,613.4942949946587,613.486605844116
0.332,1.2088303942730284e-07,-1.9999998789480788,0.11316722372032595,-3.5941020800135764e-05,3.584018149737138e-05,8.777132699820348e-07,-1.548848589358266e-23,-2.0,0.19086760944496445,2.498943811717789e-22,-1.5818754903971266e-06,-1.5823126360278985e-06,0.831585923351682,0.0,0.0,0.0,3.0146868898927695,1.4521866788365539e-05,-1.4500992198731843e-05,7.323900149271371e-08,612.4157058651499,612.4157117389806,612.4200107067702,612.4118440651204
0.336,1.1601587187683738e-07,-1.9999998838108124,0.11657857230727162,-4.7713812985399706e-05,4.7610442817058385e-05,7.858568460717425e-07,-1.5457261225700957e-23,-2.0,0.19451480636513077,2.4939059603027417e-22,-1.7450921168053318e-06,-1.7455258013062428e-06,0.8437710530774909,0.0,0.0,0.0,2.9693404361670703,1.5169127821846342e-05,-1.5149606218795478e-05,7.126109705538643e-08,611.3320380050945,611.3320435079501,611.3365270158073,611.3279806094536
0.34,1.1132919725114067e-07,-1.9999998884926629,0.12003748806286076,-5.869178595866829e-05,5.8587935300282366e-05,6.990184478774773e-07,-1.5425854792429708e-23,-2.0,0.19818323438922597,2.488838782490104e-22,-1.8921323536156369e-06,-1.8925323473775355e-06,0.8557890036429352,0.0,0.0,0.0,2.923721187384412,1.5634372074613737e-05,-1.5616576529407986e-05,6.91711698757349e-08,610.2399094397625,610.2399144650451,610.2445316035388,610.2357066539527
0.34400000000000003,1.0686419855823501e-07,-1.9999998929524436,0.12354329685856033,-6.876284745943492e-05,6.866069726258558e-05,6.171093359022218e-07,-1.5394269905585186e-23,-2.0,0.201872506680594,2.4837428126150484e-22,-2.0213288948290034e-06,-2.0216631188597176e-06,0.86763870095552,0.0,0.0,0.0,2.877846287078684,1.5915057482393726e-05,-1.589935387452083e-05,6.697884817724278e-08,609.1396861742139,609.1396906167641,609.1443895131291,609.135389220362
0.34800000000000003,1.0265843569534371e-07,-1.9999998971526,0.12709533497332967,-7.782778687256405e-05,7.77296199903171e-05,5.400207844182756e-07,-1.5362509843666197e-23,-2.0,0.20558224029422512,2.4786185796372393e-22,-2.1312033219522663e-06,-2.131438333222382e-06,0.879320828006307,0.0,0.0,0.0,2.8317115654605356,1.6011667738533296e-05,-1.599842044994097e-05,6.471112296707555e-08,608.0312239482942,608.0312277027839,608.0359564248778,608.0268842662981
0.35200000000000004,9.874547306424578e-08,-1.9999999010595813,0.1306929062362749,-8.579857034496794e-05,8.570673052527263e-05,4.676328425547114e-07,-1.5330577852135865e-23,-2.0,0.20931205614384207,2.4734666071862966e-22,-2.220478044166081e-06,-2.2205795644320067e-06,0.8908335036902679,0.0,0.0,0.0,2.7853995590349423,1.592351316042096e-05,-1.5913045096724676e-05,6.238557161580705e-08,606.9164661250129,606.9164690972758,606.9211752599033,606.9121357093018
0.35600000000000004,9.51545667431698e-08,-1.9999999046441537,0.13433529477132367,-9.260088841017324e-05,9.251773829562115e-05,3.9980740780153923e-07,-1.529847714370122e-23,-2.0,0.21306157896924244,2.468287413606907e-22,-2.288086702635015e-06,-2.2880203014260993e-06,0.9021714242928611,0.0,0.0,0.0,2.738968031231136,1.5653972548409598e-05,-1.5646579369479847e-05,6.002832367693615e-08,605.7967721625118,605.7967742655835,605.8014062154793,605.7925024298648
0.36000000000000004,9.191044461302664e-08,-1.9999999078816202,0.13802178224265885,-9.817465033330415e-05,9.810253408219351e-05,3.36426712008601e-07,-1.5266210898590617e-23,-2.0,0.21683043730389512,2.46308151200358e-22,-2.3331898318157194e-06,-2.3329214629982223e-06,0.9133309435727277,0.0,0.0,0.0,2.6924404313274803,1.5208743950476914e-05,-1.520467579008916e-05,5.7621296336179157e-08,604.6726817155784,604.672682874963,604.6771902222983,604.6685227080026
0.36400000000000005,8.903318939461329e-08,-1.999999910751938,0.14175168690913253,-0.00010247382552210909,0.00010241504511151809,2.7735043195069406e-07,-1.5233782264828992e-23,-2.0,0.220618263442789,2.457849410285061e-22,-2.355191339325309e-06,-2.3546880278407738e-06,0.9243141820270651,0.0,0.0,0.0,2.6457610825137565,1.4595264655737289e-05,-1.4594760763059136e-05,5.5195673427037376e-08,603.5428212639441,603.5428214078174,603.5471557031582,603.5388212703667
0.36800000000000005,8.65379758436308e-08,-1.9999999132399804,0.14552429547469795,-0.00010546852740531628,0.00010542529225023324,2.2243154191125876e-07,-1.5201194358510974e-23,-2.0,0.22442469341053226,2.4525916112083936e-22,-2.3537522212751515e-06,-2.3529826353611176e-06,0.9351227828668252,0.0,0.0,0.0,2.599011508488272,1.3822544721686515e-05,-1.382578133430521e-05,5.2765046642461584e-08,602.409137144384,602.4091362185162,602.4132513221386,602.4053422240536
0.37200000000000005,8.443504972364654e-08,-1.9999999153355574,0.14933888936632392,-0.00010714427014299256,0.00010711865736469257,1.7152121887667395e-07,-1.5168450264071864e-23,-2.0,0.2282493669296998,2.447308612422643e-22,-2.32880259640948e-06,-2.327737656304555e-06,0.9457537560528875,0.0,0.0,0.0,2.5522209634652513,1.290238284465299e-05,-1.2909481273370694e-05,5.033755285867097e-08,601.2723191405363,601.2723171061155,601.2761699991598,601.2687722800983
0.37600000000000006,8.27296794011769e-08,-1.9999999170334646,0.15319473424849597,-0.0001075034051602324,0.0001074973151655764,1.2445529291692718e-07,-1.513555303455652e-23,-2.0,0.23209192738942785,2.442000906512274e-22,-2.2805520295318115e-06,-2.279165666787677e-06,0.9562036184049616,0.0,0.0,0.0,2.5054402059536707,1.192088040173046e-05,-1.1931822717777803e-05,4.792525641263672e-08,600.1335861418281,600.1335829997926,600.1371551277928,600.1303059356401
0.38000000000000006,8.142225974406582e-08,-1.9999999183333772,0.15709109746361105,-0.00010656273114657529,0.00010657785349842739,8.110196169114062e-08,-1.5102505691886113e-23,-2.0,0.23595202181425315,2.4366689810401948e-22,-2.2094928879542393e-06,-2.2077627861508584e-06,0.9664708175310684,0.0,0.0,0.0,2.458685156533113,1.0823134907841813e-05,-1.0837942618371512e-05,4.551234844910645e-08,598.9933159013708,598.9933116413108,598.9965685073809,598.9903367897574
0.384,8.05086132294827e-08,-1.999999919239549,0.16102730791734587,-0.00010434504373919615,0.00010438285642105543,4.130837338805626e-08,-1.5069311227122844e-23,-2.0,0.23982930083319517,2.4313133185904635e-22,-2.1163365285856944e-06,-2.11424451762575e-06,0.97656046401672,0.0,0.0,0.0,2.4118501986188865,9.61592092961067e-06,-9.63460290342216e-06,4.312857111827814e-08,597.8489163894923,597.8489110045494,597.8518199645363,597.8462711425011
0.388,7.997975884272695e-08,-1.9999999197610425,0.16500264066507392,-0.00010089272669496998,0.00010095444071808901,4.9105539858417585e-09,-1.5035972600732556e-23,-2.0,0.24372341864907995,2.4259343968106596e-22,-2.0020110903544742e-06,-1.9995435523379552e-06,0.9864748011775977,0.0,0.0,0.0,2.365062040776676,8.316282998396369e-06,-8.338768980211388e-06,4.079294499115778e-08,596.7034688285341,596.7034623346719,596.7059954940529,596.701185582107
0.392,7.98222420815937e-08,-1.9999999199113974,0.16901636119514177,-9.626170433263336e-05,9.634823274546719e-05,-2.824879436706225e-08,-1.5002492742845327e-23,-2.0,0.24763403300810274,2.420532688453928e-22,-1.8676943329851805e-06,-1.8648427484347816e-06,0.9962094682438952,0.0,0.0,0.0,2.3183592882726516,6.941851448339782e-06,-6.968003217160001e-06,3.8504167476773533e-08,595.5579150119596,595.5579074449053,595.5600418204857,595.5560169835231
0.396,8.0018430890607e-08,-1.9999999197083347,0.17306774171514613,-9.051844909341188e-05,9.063038717177328e-05,-5.831754995115218e-08,-1.4968874553514e-23,-2.0,0.251560805169629,2.415108661420693e-22,-1.7148236272176681e-06,-1.7115851693434678e-06,1.0057611789361913,0.0,0.0,0.0,2.2717478513255767,5.507503561122852e-06,-5.5371490383120276e-06,3.6257468094641435e-08,594.4123997169444,594.4123911224493,594.4141078860404,594.4109059407591
0.4,8.054685340030139e-08,-1.9999999191734161,0.17715607836727812,-8.373612338788965e-05,8.387374095655215e-05,-8.544408710096607e-08,-1.4935120902970725e-23,-2.0,0.2555033998762308,2.4096627788000456e-22,-1.5450088496093073e-06,-1.5413866558519321e-06,1.0151329989404907,0.0,0.0,0.0,2.225198539870811,4.025081925338517e-06,-4.057984889669424e-06,3.405928290830835e-08,593.2662036964027,593.2661941391032,593.2674777961447,593.2651299141183
0.404,8.138233774559457e-08,-1.9999999183319046,0.1812806444298278,-7.600212307572871e-05,7.616533909077183e-05,-1.0979764513709466e-07,-1.4901234631881462e-23,-2.0,0.2594614853239578,2.404195498910809e-22,-1.3600258095667087e-06,-1.3560291419039315e-06,1.0243257058102886,0.0,0.0,0.0,2.178776431337096,2.5136097837743554e-06,-2.5494913278249215e-06,3.193987284290417e-08,592.1209300209317,592.1209195782873,592.1217601577904,592.1202866382346
0.40800000000000003,8.249632523949003e-08,-1.9999999172124496,0.1854406803620958,-6.741912930769412e-05,6.76074862631437e-05,-1.3152511149011956e-07,-1.4867218551598523e-23,-2.0,0.26343473313284044,2.3987072753422827e-22,-1.1618756983898655e-06,-1.1575203700640697e-06,1.0333346337232723,0.0,0.0,0.0,2.13256758784126,9.964669358920211e-07,-1.0349798025500586e-06,2.987988327704405e-08,590.9787134716099,590.9787022415055,590.9790964527657,590.9785040960414
0.41200000000000003,8.385741838167682e-08,-1.9999999158465362,0.18963543773140934,-5.809589610138781e-05,5.830855983978878e-05,-1.5078514439594725e-07,-1.483307544441112e-23,-2.0,0.2674228183176237,2.3931985569946664e-22,-9.527674622878427e-07,-9.480759464126045e-07,1.042155608170035,0.0,0.0,0.0,2.086570018599523,-5.096518481514793e-07,4.689159580004383e-07,2.789891270745578e-08,589.8395224172381,589.839510515973,589.8394599764899,589.8397458716346
0.41600000000000004,8.543174661100133e-08,-1.9999999142681206,0.19386416502162795,-4.814875369063011e-05,4.838451159489137e-05,-1.6771528060866205e-07,-1.4798808063793968e-23,-2.0,0.27142541925873015,2.3876697881191698e-22,-7.350608337456722e-07,-7.300623757166402e-07,1.0507890340263786,0.0,0.0,0.0,2.0408102315725514,-1.987576289229004e-06,1.945039255397714e-06,2.597863066180595e-08,588.704032856788,588.7040204053367,588.7035317146303,588.704682870707
0.42000000000000004,8.718349239652023e-08,-1.9999999125131005,0.19812613624127204,-3.769465785334681e-05,3.795193264182228e-05,-1.824554476382081e-07,-1.4764419134653926e-23,-2.0,0.27544221767345,2.382121408357807e-22,-5.111862238473817e-07,-5.059167044724889e-07,1.0592368833868286,0.0,0.0,0.0,1.9952568228935237,-3.4254724305897473e-06,3.381607422936018e-06,2.41273149652256e-08,587.5714847128758,587.57147184795,587.5705551323373,587.5725515429424
0.42400000000000004,8.907524911277496e-08,-1.9999999106189572,0.20242062671878258,-2.685467333048759e-05,2.713153376010836e-05,-1.951418151857014e-07,-1.4729911353574716e-23,-2.0,0.27947289858735697,2.376553852782879e-22,-2.8361061326057e-07,-2.781122450956456e-07,1.067502616960612,0.0,0.0,0.0,1.9499267489186756,-4.808912955485092e-06,4.764210415699284e-06,2.234616888793042e-08,586.4423178114005,586.4423046755958,586.4409743656661,586.4437874198156
0.42800000000000005,9.106846498804231e-08,-1.9999999086243099,0.20674691348342594,-1.57525766255897e-05,1.604675351852748e-05,-2.059065071854282e-07,-1.4695287389059728e-23,-2.0,0.28351715030594793,2.3709675519361503e-22,-5.482584810391802e-08,-4.9146793264777695e-08,1.0755873001971665,0.0,0.0,0.0,1.904836200418981,-6.123447117429962e-06,6.0784298246653316e-06,2.0635914518370998e-08,585.3169561911662,585.3169429374383,585.3152178030006,585.3188102078748
0.43200000000000005,9.31238648986175e-08,-1.999999906568493,0.21110426294617096,-4.515711227852845e-06,4.824618019145051e-06,-2.1488641442641166e-07,-1.4660549881772912e-23,-2.0,0.28757466438650475,2.365362931867713e-22,1.7264647269182e-07,1.784524779241346e-07,1.083490113108431,0.0,0.0,0.0,1.860026364904472,-7.353282893436818e-06,7.308485414906735e-06,1.900741157231205e-08,584.1964527397187,584.1964395254101,584.1943431451169,584.1986680561891
0.43600000000000005,9.520193198321408e-08,-1.9999999044910732,0.21549194547408937,6.7288451121084905e-06,-6.408086859787783e-06,-2.221929169056456e-07,-1.4625701444777797e-23,-2.0,0.291645135610177,2.359740414174549e-22,3.9626811757883636e-07,4.021423219093557e-07,1.091210478561318,0.0,0.0,0.0,1.815509238099631,-8.485726995605549e-06,8.441703744545695e-06,1.7436355985470317e-08,583.0811363247739,583.0811233140067,583.0786830825207,583.0836858671034
0.44000000000000006,9.726342407760653e-08,-1.9999999024313329,0.21990927333119584,1.7862190606443643e-05,-1.7532719717338086e-05,-2.2794570570281385e-07,-1.459074466377461e-23,-2.0,0.29572826195428326,2.3541004160387933e-22,6.135735539596157e-07,6.194527511603905e-07,1.0987520406716207,0.0,0.0,0.0,1.7712197363121396,-9.5164785154589e-06,9.473774053509356e-06,1.593691321206012e-08,581.969401485167,581.9693888400491,581.9666336321205,581.9722567908352
0.44400000000000006,9.926967651300932e-08,-1.999999900427965,0.2243555409079518,2.8764554463068372e-05,-2.842973539285454e-05,-2.32255264358435e-07,-1.4555682097335565e-23,-2.0,0.29982374456482985,2.348443350265689e-22,8.222020873126703e-07,8.28019421774749e-07,1.1061186266833127,0.0,0.0,0.0,1.7272127930999583,-1.0433184136807318e-05,1.0392356191981227e-05,1.4503133821565314e-08,580.8626516614024,580.8626395489007,580.8596020605685,580.8657804116062
0.44800000000000006,1.0118306788793298e-07,-1.9999998985186083,0.22883006613963727,3.932289681818325e-05,-3.898628511400099e-05,-2.352274659626278e-07,-1.4520516277138284e-23,-2.0,0.30393128772924555,2.3427696253212526e-22,1.0199074130799996e-06,1.0255930230092619e-06,1.113311795885399,0.0,0.0,0.0,1.6834598998418446,-1.1230101973884673e-05,1.119168542550973e-05,1.3134068132103332e-08,579.7601963828805,579.7601849640998,579.7568997925684,579.7635643542653
0.45200000000000007,1.0296737173765507e-07,-1.9999998967394943,0.23333216689980665,4.942844247704058e-05,-4.9093743903276726e-05,-2.3696589858317605e-07,-1.4485249708197396e-23,-2.0,0.30805059884933,2.337079645369638e-22,1.2045588501839348e-06,1.2100407735662947e-06,1.12033350927866,0.0,0.0,0.0,1.6399797540004508,-1.1899897977669452e-05,1.1864420283091195e-05,1.1831301000897513e-08,578.6625326630669,578.6625220978161,578.6590262379048,578.6661032470532
0.45600000000000007,1.0458811866176201e-07,-1.9999998951250846,0.23786114155181484,5.897590373565281e-05,-5.864692260294364e-05,-2.3758213800223036e-07,-1.4449884869094302e-23,-2.0,0.3121813884144149,2.331373810310209e-22,1.3741638579373997e-06,1.379368837529093e-06,1.1271828184739894,0.0,0.0,0.0,1.5968305723718899,-1.243412396243145e-05,1.2402080604590288e-05,1.0608330867505982e-08,577.5711616749646,577.5711521144273,577.5674853596004,577.5748955521098
0.4600000000000001,1.0601294964110194e-07,-1.9999998937077166,0.24241626170832314,6.786400427295603e-05,-6.754458564484482e-05,-2.3717060389904828e-07,-1.4414424212205158e-23,-2.0,0.3163233699747358,2.325652515814322e-22,1.5268401090068811e-06,1.5316948216375346e-06,1.1338549981460413,0.0,0.0,0.0,1.5540859344410363,-1.2824881550331932e-05,1.279673037607715e-05,9.449620007654858e-09,576.4879854955384,576.4879770805013,576.4841817913983,576.4918406835399
0.4640000000000001,1.0721195144317009e-07,-1.9999998925172695,0.24699682537256878,7.600187676648533e-05,-7.569586635586544e-05,-2.358235779253271e-07,-1.4378870163927044e-23,-2.0,0.3204762601150138,2.3199161533618164e-22,1.6608604908265495e-06,1.6652925680319784e-06,1.1403483407236963,0.0,0.0,0.0,1.5117124671140048,-1.3071855048000147e-05,1.304800978337209e-05,8.35647629080927e-09,575.4122023350772,575.4121951938498,575.4083140823597,575.4161365112707
0.4680000000000001,1.0815794188632004e-07,-1.9999998915808785,0.25160213601654263,8.330799871164529e-05,-8.301919299623019e-05,-2.3362873465103944e-07,-1.4343225124902365e-23,-2.0,0.3246397784282443,2.31416511027722e-22,1.7747076206251224e-06,1.7786466338661652e-06,1.1466658562430605,0.0,0.0,0.0,1.4697184624007091,-1.3174384634699545e-05,1.3155220140026929e-05,7.327241988922441e-09,574.3440648524187,574.3440591023237,574.3401353297614,574.3480352366352
0.4720000000000001,1.0882671273393482e-07,-1.9999998909226926,0.25623150865509786,8.971104587334243e-05,-8.944314597322067e-05,-2.3066524334664994e-07,-1.4307491470241487e-23,-2.0,0.32881364748969266,2.308399769765669e-22,1.867102826703037e-06,1.8704812410922147e-06,1.1528101879221466,0.0,0.0,0.0,1.4280997552592127,-1.3133617421694125e-05,1.3119457874320479e-05,6.355522578390168e-09,573.283509566891,573.2835053106159,573.2795819308623,573.2874734480275
0.4760000000000001,1.0919722895788019e-07,-1.9999998905636753,0.26088427924160934,9.515066379697467e-05,-9.490723597203711e-05,-2.2701282870353843e-07,-1.427167154974361e-23,-2.0,0.332997592831094,2.302620510948545e-22,1.9370110042533865e-06,1.9397650740359678e-06,1.158784859214487,0.0,0.0,0.0,1.3868327883733451,-1.2952506255890447e-05,1.2943633210395716e-05,5.44516416192368e-09,572.2299766719523,572.2299739998574,572.2260934382414,572.2338919942018
0.4800000000000001,1.092518576254373e-07,-1.9999998905213765,0.2655597648682435,9.957735071630483e-05,-9.936176102567398e-05,-2.2274740877574726e-07,-1.423576768811592e-23,-2.0,0.33719134291505654,2.296827708898832e-22,1.9836492008195155e-06,1.985719972297868e-06,1.1645909546853566,0.0,0.0,0.0,1.3459741550006785,-1.2634013314484695e-05,1.2630634209288662e-05,4.594945641626751e-09,571.1849538255053,571.1849528060346,571.1811568557018,571.188779159579
0.4840000000000001,1.0897647244624214e-07,-1.9999998908098273,0.27025728715481917,0.00010295319116043538,-0.00010276855742225544,-2.1793958183004588e-07,-1.4199782185190985e-23,-2.0,0.3413946291096666,2.291021734676195e-22,2.006491788355473e-06,2.0078262571210367e-06,1.1702275231968948,0.0,0.0,0.0,1.3055336251261607,-1.2183867206685899e-05,1.2186133547774752e-05,3.8017273085054745e-09,570.1487384009731,570.1487390859673,570.145068043353,570.1524337963313
0.488,1.0836057379281823e-07,-1.9999998914394235,0.27497616295505395,0.00010525288537606938,-0.00010510202314502608,-2.1266010915771208e-07,-1.4163717316142485e-23,-2.0,0.3456071856632933,2.2852029553617816e-22,2.005278438991103e-06,2.005830483154444e-06,1.1756937716707079,0.0,0.0,0.0,1.2655397293523003,-1.1609475997041713e-05,1.16174377417889e-05,3.068560725827476e-09,569.1221115466795,569.1221139574319,569.1186061354982,569.1256390578748
0.492,1.0739732352557118e-07,-1.9999998924168896,0.2797157114196181,0.00010646339183638836,-0.0001063487691654221,-2.0696849239453407e-07,-1.4127575331699185e-23,-2.0,0.3498287496795927,2.279371734092748e-22,1.9800261270442622e-06,1.9797575073591875e-06,1.1809897838254495,0.0,0.0,0.0,1.2260068583935169,-1.0919468583404956e-05,1.0933121343349307e-05,2.385165594737402e-09,568.1054956689029,568.1054998102466,568.1021910897801,568.108819718631
0.496,1.0608347504348328e-07,-1.999999893745352,0.2844752844644495,0.0001065816601583653,-0.0001065053820599685,-2.0092024511505962e-07,-1.4091358458357263e-23,-2.0,0.35405906109270807,2.273528430096516e-22,1.9310130610508292e-06,1.929894040336999e-06,1.1861184558784867,0.0,0.0,0.0,1.1868875361580469,-1.0121828429871025e-05,1.014110381636122e-05,1.7492977846286014e-09,567.0977204755096,567.0977263327761,567.0946503568493,567.1008077114998
0.5,1.0441935238931323e-07,-1.9999998954243594,0.2892542616816974,0.00010561405680267458,-0.00010557785018154994,-1.9456651177418697e-07,-1.4055068898590944e-23,-2.0,0.3582978626426667,2.267673398724755e-22,1.858746823640833e-06,1.8567566572173893e-06,1.191086757772973,0.0,0.0,0.0,1.1481436122225306,-9.223939424914396e-06,9.248741038832807e-06,1.1581081413667847e-09,566.0978477653509,566.0978553151992,566.0950436425479,566.1006669029213
0.504,1.0240886069269106e-07,-1.9999998974498747,0.29405202790744905,0.0001035783666840269,-0.00010358355043134292,-1.8796228317983883e-07,-1.4018708831061472e-23,-2.0,0.3625448998509707,2.261806991487101e-22,1.7639516230532669e-06,1.7610787141976954e-06,1.1958994505641123,0.0,0.0,0.0,1.1097816219158827,-8.235799592735458e-06,8.265948358230779e-06,6.181686424566076e-10,565.1060885911642,565.1060977848431,565.1035791291469,565.1086112347016
0.508,1.0005954657173893e-07,-1.9999998998142152,0.2988679258965074,0.00010050950522726352,-0.00010055692354495883,-1.8115558819683124e-07,-1.3982280410824433e-23,-2.0,0.3667999209963804,2.255929556084605e-22,1.6476229301679616e-06,1.6438654761663153e-06,1.2005540779943933,0.0,0.0,0.0,1.0719040216770024,-7.1741926978483475e-06,7.20940795449789e-06,1.2358724912240928e-10,564.1251414814445,564.1251522387917,564.1229503479077,564.1273441646713
0.512,9.73822403743575e-08,-1.9999999025064121,0.30370132404495204,9.645013517135714e-05,-9.654015443440547e-05,-1.7418908950435047e-07,-1.394578576953545e-23,-2.0,0.37106267709088936,2.25004143644292e-22,1.5110244529323006e-06,1.5063910440949014e-06,1.2050485815929541,0.0,0.0,0.0,1.0344772061433036,-6.050922182727492e-06,6.0908707791606554e-06,-3.2994650708150957e-10,563.1541903877568,563.1542026120566,563.152337727155,563.1560531246491
0.516,9.439089992136305e-08,-1.9999999055123694,0.3085516120429395,9.14505527834527e-05,-9.158306013722951e-05,-1.6710464701591197e-07,-1.390922701565423e-23,-2.0,0.3753329218558889,2.2441429727452233e-22,1.3556268970878918e-06,1.3501366739558836e-06,1.2093861614771249,0.0,0.0,0.0,0.9974756155486662,-4.876118133617431e-06,4.920407918371136e-06,-7.416296729091372e-10,562.1926223148682,562.1926358907552,562.1911252537961,562.194128125219
0.52,9.110254190435797e-08,-1.9999999088149325,0.31341816489664254,8.557403782396968e-05,-8.574841649933702e-05,-1.5994118109210277e-07,-1.3872606234647023e-23,-2.0,0.37961041169852167,2.2382345014648802e-22,1.1830816871540612e-06,1.176764363650592e-06,1.2135689938854644,0.0,0.0,0.0,0.9609460692050651,-3.6657444195924815e-06,3.71392105434122e-06,-1.1131854422896114e-09,561.241705310994,561.2417201033144,561.2405761415237,561.2428420195172
0.524,8.753694017035706e-08,-1.9999999123941918,0.3183003639027979,7.889251717477514e-05,-7.910764481406061e-05,-1.527340133184747e-07,-1.3835925489187456e-23,-2.0,0.38389490568822165,2.2323163553978484e-22,9.952394335626558e-07,9.881353328341125e-07,1.2175967942987773,0.0,0.0,0.0,0.9248933258693786,-2.434369023461416e-06,2.485924718056821e-06,-1.4472250751643027e-09,560.3016178083896,560.3016336647879,560.3008643753784,560.3023776541389
0.528,8.37163637964366e-08,-1.999999916227748,0.32319759838286233,7.148539293060534e-05,-7.173964750371544e-05,-1.4551550959436245e-07,-1.3799186819355794e-23,-2.0,0.3881861655334405,2.2263888636948266e-22,7.941302378058562e-07,7.862901264549687e-07,1.221470415287404,0.0,0.0,0.0,0.8893184634138991,-1.1955930001866887e-06,1.2499523569385517e-06,-1.745753913415463e-09,559.3724425974801,559.3724593439404,559.3720685669279,559.3728219648835
