Time_s,X,Y,Z,Roll_deg,Pitch_deg,Yaw_deg,Ref_X,Ref_Y,Ref_Z,Ref_Yaw,vx,vy,vz,p,q,r,T_pert,tau_x,tau_y,tau_z,RPM_0,RPM_1,RPM_2,RPM_3
0.0040000000000000036,-1.6499295522338135e-20,5.7975015032802586e-21,0.010178989762283222,-2.2543202937777378e-17,-9.250319452547045e-17,6.5049355927184375e-19,-1.614992269355665e-20,5.785843986016644e-21,7.200000000000012e-05,0.0,-4.952608825935532e-20,2.525193770555498e-20,0.0009999428386350817,0.0,0.0,0.0,-10.19,2.6460272752663387e-17,1.1209019806825502e-16,-7.598793396760877e-19,0.0,0.0,0.0,0.0
0.008000000000000007,-1.6885197348154387e-20,6.065650488098876e-21,0.010182989533637762,-2.351969657089332e-17,-9.53563018867629e-17,6.817376743739064e-19,-1.614992269355665e-20,5.785843986016644e-21,0.00021513340800000038,0.0,-7.765487354944504e-20,3.638287104951083e-20,0.0009999428386350817,0.0,0.0,0.0,-0.039821257369942464,5.696318662049717e-18,1.0442992836541082e-17,-6.325483889153633e-20,534.5326882311459,534.532688231146,534.5326882311459,534.5326882311459
0.01200000000000001,-1.727148095113353e-20,6.267788910175588e-21,0.010186989304992303,-2.440502860941247e-17,-9.664843560466598e-17,6.970368061807009e-19,-1.614992269355665e-20,5.785843986016644e-21,0.00042854147030131276,0.0,-7.81564018457362e-20,3.583029971692891e-20,0.0009999428386350817,0.0,0.0,0.0,0.1071977998532801,2.1320958813615976e-18,8.497502919766581e-18,-4.595915520160343e-20,538.5394244641843,538.5394244641843,538.5394244641843,538.5394244641843
0.016000000000000014,-1.7567873865496154e-20,6.3691224525592765e-21,0.010190989076346843,-2.490324026631038e-17,-9.858844994268321e-17,7.331755386217206e-19,-1.614992269355665e-20,5.785843986016644e-21,0.0007113732083620786,0.0,-7.337549425110497e-20,5.1042206488862114e-20,0.0009999428386350817,0.0,0.0,0.0,0.25473086745984613,1.3009138058447583e-18,8.364905661871195e-18,-7.097999803834897e-20,542.5304237153306,542.5304237153307,542.5304237153306,542.5304237153306
0.020000000000000018,-1.798112484122148e-20,6.539951910401523e-21,0.010194988847701383,-2.5565236556882127e-17,-1.0049473157778702e-16,7.331455656858983e-19,-1.614992269355665e-20,5.785843986016644e-21,0.0010627853561306145,0.0,-7.313557597943683e-20,1.6346172331809847e-20,0.0009999428386350817,0.0,0.0,0.0,0.4027667478855658,3.446362222674713e-18,1.0866907490151063e-17,-3.026438876207169e-20,546.5057311525975,546.5057311525976,546.5057311525975,546.5057311525975
0.02400000000000002,-1.824278435041994e-20,6.704082407767555e-21,0.010198988619055924,-2.60033749795692e-17,-1.0252644957898116e-16,7.796273977993793e-19,-1.614992269355665e-20,5.785843986016644e-21,0.0014819422978531074,0.0,-7.292238306543662e-20,3.244713741813049e-20,0.0009999428386350817,0.0,0.0,0.0,0.551294359835187,2.4207548145414777e-18,8.189726558460142e-18,-8.464748439511715e-20,550.4653923832169,550.465392383217,550.4653923832169,550.465392383217
0.028000000000000025,-1.847598736747434e-20,6.7154125145507285e-21,0.010202988390410464,-2.660451630133128e-17,-1.037991124327783e-16,7.95087842464105e-19,-1.614992269355665e-20,5.785843986016644e-21,0.0019680160063522078,0.0,-7.541290447542852e-20,2.374792071665001e-20,0.0009999428386350817,0.0,0.0,0.0,0.7003027372860968,9.540356164135659e-19,8.827794058747467e-18,-5.03727203112438e-20,554.4094534245061,554.4094534245062,554.4094534245061,554.4094534245061
0.03200000000000003,-1.9044007168250452e-20,6.836655024984936e-21,0.010206988161765004,-2.7099843497126772e-17,-1.064125189647407e-16,7.874511738814567e-19,-1.614992269355665e-20,5.785843986016644e-21,0.00252018598177309,0.0,-9.621482328227751e-20,1.620167007929114e-20,0.0009999428386350817,0.0,0.0,0.0,0.8497810284997998,3.825206561474039e-18,1.4766781694671073e-17,-2.4082002907184426e-20,558.3379606763139,558.3379606763139,558.3379606763139,558.3379606763139
0.03600000000000003,-1.9033843938647712e-20,7.120772730223507e-21,0.010210987933119545,-2.8950731756260254e-17,-1.0671971352509646e-16,7.983328308043143e-19,-1.614992269355665e-20,5.785843986016644e-21,0.0031376391907935786,0.0,-6.902614107272278e-20,3.4512611096878254e-20,0.0009999428386350817,0.0,0.0,0.0,0.9997184950412148,6.1713893158337756e-18,1.975072311655073e-18,-4.545572367379551e-20,562.2509608949534,562.2509608949536,562.2509608949534,562.2509608949534
0.03999999999999998,-1.9469934107448936e-20,7.448303625909977e-21,0.010214987704474085,-3.037058016302248e-17,-1.0839422908109441e-16,7.981746610422135e-19,-1.614992269355665e-20,5.785843986016644e-21,0.0038195700062949424,0.0,-7.898009992764778e-20,7.6992082719388e-20,0.0009999428386350817,0.0,0.0,0.0,1.1501045108055779,4.562705161054975e-18,1.5125967050275123e-17,-3.306203037538276e-20,566.1485011685287,566.1485011685288,566.1485011685287,566.1485011685287
0.043999999999999984,-2.0055318767607357e-20,7.300096563508585e-21,0.010218987477592947,-2.956826886072184e-17,-1.1262156810112654e-16,8.502743542889983e-19,-1.614992269355665e-20,5.785843986016644e-21,0.0045651801474900725,0.0,-8.300271950924111e-20,2.2179680052216454e-20,0.0009999430150672145,0.0,0.0,0.0,1.3009285574723206,-3.9218061019430545e-18,1.521439304794563e-17,-9.415670604155729e-20,570.0306288017194,570.0306288017196,570.0306288017194,570.0306288017196
0.04799999999999999,-2.023825223414234e-20,6.824476728397858e-21,0.010222987263091872,-2.716311597554973e-17,-1.1442686748222025e-16,8.060584803076713e-19,-1.614992269355665e-20,5.785843986016644e-21,0.005373678620505551,0.0,-8.776786605083459e-20,-3.530433522717721e-20,0.000999944429505746,0.0,0.0,0.0,1.4521802126882997,-4.495874455368243e-18,6.458470698873194e-18,1.6156365439030035e-20,573.8973910200722,573.8973910200723,573.8973910200722,573.8973910200722
0.05199999999999999,-2.053206445518115e-20,6.663314315628322e-21,0.010226987069762277,-2.6410157882533826e-17,-1.162274069834834e-16,6.732472194436888e-19,-1.614992269355665e-20,5.785843986016644e-21,0.0062442816594145065,0.0,-7.557796061784946e-20,-6.165958067991936e-20,0.000999947947803205,0.0,0.0,0.0,1.603849184941498,4.488412380671298e-18,1.2308144961227968e-17,1.2140915946581292e-19,577.74883586786,577.7488358678601,577.74883586786,577.74883586786
0.055999999999999994,-2.0758052783279452e-20,6.665309449366649e-21,0.010230986901410414,-2.671870375286555e-17,-1.1708875220691867e-16,8.034946276464949e-19,-1.614992269355665e-20,5.785843986016644e-21,0.007176212667716815,0.0,-5.024851469833996e-20,-4.069736743462749e-20,0.0009999533311306694,0.0,0.0,0.0,1.755925297706852,4.1898886684899355e-18,9.43074338002724e-18,-1.804783072009916e-19,581.5850117949303,581.5850117949304,581.5850117949303,581.5850117949303
0.06,-2.0840334753640537e-20,6.585218916006129e-21,0.010234986758871856,-2.6124943186080853e-17,-1.176468676555824e-16,8.487098091260871e-19,-1.614992269355665e-20,5.785843986016644e-21,0.008168702160263459,0.0,-4.4389009596847856e-20,-1.3212346451272873e-20,0.000999959541339232,0.0,0.0,0.0,1.9083984781081869,4.535812082028027e-19,8.281291664746352e-18,-8.655169247453954e-20,585.4059673728173,585.4059673728174,585.4059673728173,585.4059673728173
0.064,-2.0851229287441337e-20,6.662270591077543e-21,0.010238986641339052,-2.6411019679935544e-17,-1.1862539766163714e-16,1.0015238983386892e-18,-1.614992269355665e-20,5.785843986016644e-21,0.009220987705621773,0.0,-1.6988391019998653e-20,9.59918553978704e-22,0.0009999658975164485,0.0,0.0,0.0,2.061258757320033,4.177079422457909e-18,9.618206587206878e-18,-2.1416016328001445e-19,589.2117513133188,589.2117513133189,589.2117513133188,589.2117513133188
0.068,-2.0810372834778037e-20,6.608834554509006e-21,0.010242986547248322,-2.6076001501585e-17,-1.1848021720634935e-16,8.69548306052971e-19,-1.614992269355665e-20,5.785843986016644e-21,0.010332313868878385,0.0,3.3589513043421944e-21,-4.912984534858564e-22,0.0009999720295411976,0.0,0.0,0.0,2.2144962704986333,2.6974501330903852e-19,8.62627048907691e-18,1.1217426064723524e-19,593.0024124747594,593.0024124747595,593.0024124747594,593.0024124747594
0.07200000000000001,-2.0796170568664064e-20,6.539634842465564e-21,0.010246986474413631,-2.5594995483088395e-17,-1.184743312832218e-16,9.670231698710379e-19,-1.614992269355665e-20,5.785843986016644e-21,0.011501932154876639,0.0,-3.124086928328728e-21,-9.20749233918111e-21,0.000999977736546552,0.0,0.0,0.0,2.3681012573687794,1.3225111149398705e-18,9.732475172303906e-18,-1.5050151845934961e-19,596.777999884097,596.7779998840971,596.777999884097,596.7779998840971
0.07600000000000001,-2.0826446297202818e-20,6.590475292471533e-21,0.010250986420606529,-2.5824861876146338e-17,-1.1867242504919462e-16,1.0763752342205764e-18,-1.614992269355665e-20,5.785843986016644e-21,0.012729100951885338,0.0,5.034672572499776e-21,-1.0670645465112995e-21,0.000999982912552877,0.0,0.0,0.0,2.522064060407672,3.705998426041813e-18,1.028321848783579e-17,-1.6844610935187912e-19,600.5385626997072,600.5385626997074,600.5385626997072,600.5385626997073
0.08000000000000002,-2.0849628503149622e-20,6.567999913919744e-21,0.010254986383885263,-2.5573943962192706e-17,-1.1879869530917783e-16,1.0156628451236868e-18,-1.614992269355665e-20,5.785843986016644e-21,0.014013085475695665,0.0,-3.326110095466258e-21,3.5767381767547045e-21,0.0009999875546569392,0.0,0.0,0.0,2.676375124436255,1.0256237540796216e-18,9.732850985963346e-18,2.5650571719087023e-20,604.2841502096306,604.2841502096308,604.2841502096306,604.2841502096306
0.08400000000000002,-2.0881168023249303e-20,6.574797208202196e-21,0.01025898636218617,-2.5528391603070545e-17,-1.1890857948101694e-16,9.977083779400945e-19,-1.614992269355665e-20,5.785843986016644e-21,0.015353157714143143,0.0,-6.899025465609979e-21,-5.389424267858514e-22,0.0009999916950026444,0.0,0.0,0.0,2.831024997213787,2.4005641201544286e-18,9.980545478315191e-18,-2.187530295569428e-20,608.0148118540213,608.0148118540214,608.0148118540213,608.0148118540213
0.08800000000000002,-2.0898264514320537e-20,6.564361729456323e-21,0.010262986353715845,-2.547805160094568e-17,-1.1896053030727344e-16,9.054111645116128e-19,-1.614992269355665e-20,5.785843986016644e-21,0.016748596372051543,0.0,-4.177780353234127e-21,-9.273165414539368e-22,0.0009999953488435895,0.0,0.0,0.0,2.9860043269405456,1.8922532249692598e-18,9.745894843633816e-18,6.563639548006186e-20,611.7305971728805,611.7305971728806,611.7305971728805,611.7305971728805
0.09200000000000003,-2.11058566003411e-20,6.637266438113442e-21,0.010267961125483886,-2.1436226223499165e-17,-1.1274949177153941e-16,7.767782465389506e-19,-1.614992269355665e-20,5.785843986016644e-21,0.018198686816595647,0.0,-2.1310780207365222e-20,5.820035381388024e-21,0.001097475418010592,0.0,0.0,0.0,3.1393255534482822,-1.5967564861495503e-18,4.896167183396952e-18,1.1180905511578512e-19,615.3845505027105,615.3845505027106,615.3845505027105,615.3845505027105
0.09600000000000003,-2.1845575888793977e-20,6.90346588053088e-21,0.010279694026589441,-4.831033067457581e-18,-8.658400673623686e-17,-1.674601382490099e-18,-1.614992269355665e-20,5.785843986016644e-21,0.019702721023079826,0.0,-9.179031543720336e-20,3.242176143744291e-20,0.0018707670225479034,0.0,0.0,0.0,3.2811893511207977,-1.517710790095818e-17,-1.460816584978114e-17,2.8303723614062073e-18,618.7462309295821,618.7462309295822,618.7462309295821,618.7462309295821
0.09999999999999998,-2.3048499150202836e-20,7.360096664542577e-21,0.010304900934565717,2.766294181925536e-17,-4.2311784566499285e-17,-6.355381455480292e-18,-1.614992269355665e-20,5.785843986016644e-21,0.02125999752112934,0.0,-2.0582250684081126e-19,7.815743350688671e-20,0.003982841831417366,0.0,0.0,0.0,3.4095096940701874,-3.473160169790523e-17,-3.782964162610592e-17,5.535443059949831e-18,621.7713231993552,621.7713231993553,621.7713231993552,621.7713231993552
0.10399999999999998,-2.4575361997174804e-20,7.886801368348388e-21,0.010349536280158295,7.271991698829819e-17,1.7480291225426357e-17,-1.5047234601766903e-17,-1.614992269355665e-20,5.785843986016644e-21,0.02286982134129152,0.0,-3.11885076893816e-19,1.189629550487951e-19,0.007699100597715128,0.0,0.0,0.0,3.5256088502165235,-5.2879933618450654e-17,-6.016828045163616e-17,1.0413662261627895e-17,624.4956800610397,624.4956800610398,624.4956800610397,624.4956800610397
0.10799999999999998,-2.638479578726585e-20,8.478975048650207e-21,0.0104189524805193,1.429027060069396e-16,1.0535492235361402e-16,-2.6946380122036924e-17,-1.614992269355665e-20,5.785843986016644e-21,0.02453150396204347,0.0,-4.048284685880237e-19,1.5465328786248943e-19,0.012872497801535815,0.0,0.0,0.0,3.630509862042119,-8.533846285880859e-17,-9.72488189475689e-17,1.451825287848509e-17,626.9470830674853,626.9470830674853,626.9470830674853,626.9470830674853
0.11199999999999999,-2.8050393484062894e-20,8.792427443844031e-21,0.010517861002303567,2.256476942350895e-16,2.0579231386047074e-16,-4.0883482671865015e-17,-1.614992269355665e-20,5.785843986016644e-21,0.02624436325720376,0.0,-4.693331213373621e-19,1.7055396322022858e-19,0.019342071400490178,0.0,0.0,0.0,3.7253340610365124,-1.0885301235014168e-16,-1.2270420420027676e-16,1.7389407369128182e-17,629.154784552755,629.1547845527551,629.154784552755,629.1547845527551
0.11599999999999999,-2.920724725582283e-20,8.518360926121809e-21,0.010650471423388421,3.172592739375528e-16,3.150967027479304e-16,-5.274937203064691e-17,-1.614992269355665e-20,5.785843986016644e-21,0.02800772344374487,0.0,-4.709735709162202e-19,1.3886307690805307e-19,0.026963075702205252,0.0,0.0,0.0,3.8109410595471207,-1.288463649978714e-16,-1.4441206821637757e-16,1.5545059326664018e-17,631.1412578261578,631.1412578261579,631.1412578261578,631.1412578261579
0.12,-2.939760477885857e-20,7.257707404821132e-21,0.010820584180220333,4.0997714943295266e-16,4.2550764324106044e-16,-6.55408936371126e-17,-1.614992269355665e-20,5.785843986016644e-21,0.02982091503000351,0.0,-4.122602422833747e-19,5.638147616408722e-20,0.03561363145712336,0.0,0.0,0.0,3.888018314662225,-1.4176580347575623e-16,-1.591331939591796e-16,1.7117278363986e-17,632.9244683250477,632.9244683250478,632.9244683250477,632.9244683250478
0.124,-2.8247829678514424e-20,4.697703258783178e-21,0.011031573158603397,5.060176075731429e-16,5.39241276758823e-16,-7.813622094896262e-17,-1.614992269355665e-20,5.785843986016644e-21,0.031683274764285965,0.0,-2.8723732674110157e-19,-8.315413925674914e-20,0.04518673344662948,0.0,0.0,0.0,3.9573017369213113,-1.56755451752033e-16,-1.7601032306873234e-16,1.7417929061056897e-17,634.5230887638788,634.5230887638788,634.5230887638788,634.5230887638788
0.128,-2.4757873771047658e-11,2.4757795926305165e-11,0.011286408982165609,2.4118766547306192e-06,2.411890331361862e-06,9.877839018200599e-07,-1.614992269355665e-20,5.785843986016644e-21,0.03359414558386552,0.0,-2.8547251832505528e-09,2.8547158532142073e-09,0.05557897561120749,0.0,0.0,0.0,4.019493649578275,-2.527925363631049e-06,-2.5279404274076378e-06,-1.1538877955304922e-06,635.9570029881312,635.9556329961179,635.953001444238,635.9530014401562
0.132,-1.5649318029637777e-10,1.5648901138946382e-10,0.011587755610653928,1.586254373437672e-05,1.5863000661751453e-05,2.7392165287985295e-06,-1.614992269355665e-20,5.785843986016644e-21,0.0355528765643691,0.0,-2.1372310779313584e-08,2.1371770352917595e-08,0.06669789161102696,0.0,0.0,0.0,4.075113263503736,-1.4605898956754498e-05,-1.4606370667913928e-05,-2.0865808080690483e-06,637.2391638296502,637.2312640438096,637.2292287028396,637.229228575275
0.136,-3.4387765860573277e-10,3.438591264605158e-10,0.01193790469412424,3.9098551765286426e-05,3.910060996243989e-05,4.890086542604599e-06,-1.614992269355665e-20,5.785843986016644e-21,0.03755882286955032,0.0,-5.842428153650571e-08,5.8421475428965384e-08,0.07845684445052711,0.0,0.0,0.0,4.124822875272836,-2.7470721880814002e-05,-2.7472500147234772e-05,-2.6252975319543136e-06,638.3830430021427,638.3682114155685,638.3681103292249,638.3681098491871
0.14,-4.918951906168029e-10,4.918505353721738e-10,0.012338889556994392,7.031067298570885e-05,7.031609949679883e-05,7.336819892696357e-06,-1.614992269355665e-20,5.785843986016644e-21,0.03961134570144606,0.0,-1.042081109424628e-07,1.0420000810504955e-07,0.09077728169048502,0.0,0.0,0.0,4.169065398791907,-3.945884209187598e-05,-3.9462768634881535e-05,-3.0595757301897787e-06,639.3994771803286,639.3782065347192,639.3800956934392,639.3800946351581
0.14400000000000002,-4.740576218683475e-10,4.73980993660986e-10,0.012792583698263122,0.0001077554087360391,0.0001077664464879717,9.988121257159522e-06,-1.614992269355665e-20,5.785843986016644e-21,0.0417098122509138,0.0,-1.4892431774055252e-07,1.4890728063812348e-07,0.10359865497174348,0.0,0.0,0.0,4.20809215659896,-5.0424288417409805e-05,-5.0431126897531625e-05,-3.399526470790721e-06,640.2947878812589,640.267643606302,640.2715117055549,640.2715098650152
0.14800000000000002,-1.387280839440562e-10,1.386290091728678e-10,0.013300663332352627,0.0001497863322577206,0.00014980556369911013,1.2767145790589651e-05,-1.614992269355665e-20,5.785843986016644e-21,0.0438535956485469,0.0,-1.878475862082904e-07,1.8781774624941372e-07,0.11687408552780684,0.0,0.0,0.0,4.242235671464846,-6.032005743966477e-05,-6.033047672702029e-05,-3.658295597211096e-06,641.0770732268079,641.0446407755659,641.0504274557968,641.0504246549096
0.15200000000000002,6.855846416176726e-10,-6.856700345493556e-10,0.013864659775884382,0.00019479301387475368,0.0001948232041365642,1.5606943383473806e-05,-1.614992269355665e-20,5.785843986016644e-21,0.04604207491596505,0.0,-2.1638298333156015e-07,2.163365281189409e-07,0.1305620944901183,0.0,0.0,0.0,4.271728516748923,-6.904051002768124e-05,-6.905504947472311e-05,-3.844295145748422e-06,641.7520293473299,641.7149463529174,641.7225400508,641.7225361464353
0.15600000000000003,2.1833806546348743e-09,-2.1833775927260856e-09,0.01448593306941605,0.00024127467954096973,0.00024131863443445934,1.845231131915163e-05,-1.614992269355665e-20,5.785843986016644e-21,0.04827463491747721,0.0,-2.3021037662042576e-07,2.3014385790102694e-07,0.14462072318841296,0.0,0.0,0.0,4.296861501133082,-7.654526174179858e-05,-7.656432857793604e-05,-3.9685029846883075e-06,642.326619537348,642.2855414564659,642.2947896464034,642.2947845308336
0.16000000000000003,4.5459877261734116e-09,-4.545770523550129e-09,0.015165674641292162,0.0002878650299706185,0.000287925469635173,2.1256185966995053e-05,-1.614992269355665e-20,5.785843986016644e-21,0.05055066631211419,0.0,-2.2528541546297965e-07,2.251960539808792e-07,0.15900918309145268,0.0,0.0,0.0,4.317925567992152,-8.283167857690209e-05,-8.285555049714103e-05,-4.038160441245826e-06,642.8077408036993,642.7633213996897,642.7740512847045,642.7740448847218
0.16400000000000003,7.966650118966792e-09,-7.96602989205163e-09,0.015904950279187507,0.00033328431280993376,0.0003333637320841997,2.397934055362153e-05,-1.614992269355665e-20,5.785843986016644e-21,0.052869565506028296,0.0,-1.9783114139892486e-07,1.9771716466925511e-07,0.17368907969446803,0.0,0.0,0.0,4.335129905264692,-8.785922202559588e-05,-8.788802095010268e-05,-4.060486723024225e-06,643.2003579009192,643.1532701524027,643.1652784495105,643.1652707333108
0.16800000000000004,1.2634976646697781e-08,-1.2633689972305437e-08,0.01670469780208951,0.0003763678094402114,0.0003764683622708558,2.658977019269041e-05,-1.614992269355665e-20,5.785843986016644e-21,0.055230734605257216,0.0,-1.4426270524107025e-07,1.4412371980654966e-07,0.1886272170946996,0.0,0.0,0.0,4.34869251153545,-9.161417711563957e-05,-9.164787660197817e-05,-4.042301723215579e-06,643.509592365495,643.4605147029708,643.4735758335838,643.4735668086848
0.17200000000000004,1.8732059521264037e-08,-1.872975844955766e-08,0.017565737656820915,0.00041606887589797314,0.0004161922751779672,2.9061711122001e-05,-1.614992269355665e-20,5.785843986016644e-21,0.05763358136884959,0.0,-6.122917956335661e-08,6.106653795212343e-08,0.2037928435074968,0.0,0.0,0.0,4.358814039445486,-9.409661988892513e-05,-9.413504962646482e-05,-3.9895739684137505e-06,643.7401306014896,643.6897400753247,643.7036121230784,643.7036018350711
0.17600000000000005,2.64260545072399e-08,-2.6422298370526475e-08,0.018488783459980486,0.00045145960557448235,0.00045160703907503875,3.137489800794626e-05,-1.614992269355665e-20,5.785843986016644e-21,0.06007751916234959,0.0,5.433581123323431e-08,-5.45186626797152e-08,0.21915722862331402,0.0,0.0,0.0,4.3656775683927656,-9.531596324354675e-05,-9.535881460743555e-05,-3.907658881363138e-06,643.896224823958,643.8451926152514,643.8596214011284,643.8596099321892
0.18000000000000005,3.58681996758614e-08,-3.586244911912375e-08,0.019474450295062236,0.00048173238680179563,0.0004819044542944975,3.351359970695073e-05,-1.614992269355665e-20,5.785843986016644e-21,0.06256196691163773,0.0,2.051947708316995e-07,-2.0539196238643587e-07,0.23469410805089125,0.0,0.0,0.0,4.369452824063329,-9.529217217577006e-05,-9.533901055543618e-05,-3.8010098700774223e-06,643.9817946315412,643.9307808710464,643.9455051704751,643.9454926361045
0.18400000000000005,4.7189297844009806e-08,-4.718091143773857e-08,0.020523260824732298,0.0005062017427772934,0.0005063984209270132,3.5466281654842856e-05,-1.614992269355665e-20,5.785843986016644e-21,0.06508634905712561,0.0,3.937619471248005e-07,-3.9396491882081597e-07,0.25037916820544376,0.0,0.0,0.0,4.370300347768271,-9.405687031620591e-05,-9.410715690532467e-05,-3.6738710501633e-06,644.0005277783772,643.9501757304222,643.96493082316,643.9649173664234
0.18800000000000006,6.049684773387812e-08,-6.048508103813479e-08,0.021635658073907767,0.000524297371614348,0.0005245179782611484,3.722558764823597e-05,-1.614992269355665e-20,5.785843986016644e-21,0.06765009550830157,0.0,6.220716643830499e-07,-6.222689296376723e-07,0.26619033687603044,0.0,0.0,0.0,4.368357762735835,-9.1645748401657e-05,-9.169883610759606e-05,-3.530636774789895e-06,643.9555708917021,643.906505133726,643.9210233108248,643.9210091035382
0.19200000000000006,7.587250942694393e-08,-7.585651678628576e-08,0.022812011578622865,0.0005355676496810089,0.0005358108190491383,3.8787322116976315e-05,-1.614992269355665e-20,5.785843986016644e-21,0.07025264159862513,0.0,8.917374349533542e-07,-8.919143489586926e-07,0.2821078403500963,0.0,0.0,0.0,4.363752830448972,-8.810721408618764e-05,-8.816235212798847e-05,-3.3746835937922246e-06,643.8498299308615,643.8026498753585,643.8166665834325,643.816651825045
0.19600000000000006,9.337008712324e-08,-9.334892654242518e-08,0.024052620646420313,0.0005396787247505789,0.000539942415793259,4.014991429915491e-05,-1.614992269355665e-20,5.785843986016644e-21,0.07289342804076725,0.0,1.2039007158339892e-06,-1.2040393151686189e-06,0.2981134318259401,0.0,0.0,0.0,4.356609116415668,-8.349992907429083e-05,-8.355629314752455e-05,-3.2088916215545786e-06,643.6861017093945,643.6413763955258,643.6546342615904,643.6546191712424
0.20000000000000007,1.1301403801179949e-07,-1.1298667896412066e-07,0.025357719212325644,0.0005364127437604115,0.0005366942679997384,4.1314119057853174e-05,-1.614992269355665e-20,5.785843986016644e-21,0.07557190088219419,0.0,1.5591779132485051e-06,-1.5592568821626993e-06,0.31418991964272824,0.0,0.0,0.0,4.347042647543783,-7.789230692306522e-05,-7.794902116936845e-05,-3.035899152523499e-06,643.4670006562814,643.4252637522633,643.4375157705049,643.4375005812814
0.20400000000000007,1.347984838132034e-07,-1.347638178619593e-07,0.02672748033415291,0.000525665423541962,0.000525961490441597,4.228266301721295e-05,-1.614992269355665e-20,5.785843986016644e-21,0.07828751146109225,0.0,1.957617689113977e-06,-1.957612445178898e-06,0.3303212248332231,0.0,0.0,0.0,4.3351624888816165,-7.136183961675097e-05,-7.141799739298245e-05,-2.858026662464146e-06,643.1949737143901,643.1567188259461,643.1677316015256,643.1677165550271
0.20799999999999996,1.5868671531450126e-07,-1.5864356936123163e-07,0.02816202021721124,0.0005074429111553575,0.0005077496898145297,4.3059927813577095e-05,-1.614992269355665e-20,5.785843986016644e-21,0.08103971636263087,0.0,2.3986602601367194e-06,-2.3985431462300055e-06,0.34649236520930493,0.0,0.0,0.0,4.32107155494972,-6.399446329538701e-05,-6.40491485884757e-05,-2.677305771594914e-06,642.8723204445357,642.8379967073705,642.847553472205,642.8475388129353
0.21199999999999997,1.8461117743270818e-07,-1.8455832933282035e-07,0.029661401831803023,0.00048185790705053817,0.0004821711026871632,4.365166783564536e-05,-1.614992269355665e-20,5.785843986016644e-21,0.08382797737556204,0.0,2.8811021180440445e-06,-2.8808427117933417e-06,0.36268934124813856,0.0,0.0,0.0,4.304867307411772,-5.588380953502109e-05,-5.5936118705955494e-05,-2.4955066420251664e-06,642.5012102853127,642.4712183023782,642.4791216780965,642.4791076477433
0.21599999999999997,2.124739181778152e-07,-2.1241011439843765e-07,0.031225638177877182,0.00044912503993342634,0.0004494399833498289,4.406475928822786e-05,-1.614992269355665e-20,5.785843986016644e-21,0.08665176144915251,0.0,3.403067542132222e-06,-3.4026330854940988e-06,0.37889903741510805,0.0,0.0,0.0,4.286642355385045,-4.713033972173793e-05,-4.717940314449516e-05,-2.3141630740092783e-06,642.0836973766295,642.0583855630977,642.0644600471247,642.0644468788463
0.21999999999999997,2.4214748085588894e-07,-2.420714557933231e-07,0.0328546952437026,0.00040955549630630186,0.0004098672442918203,4.430697767041599e-05,-1.614992269355665e-20,5.785843986016644e-21,0.08951054065044774,0.0,3.9619881639809e-06,-3.961344112063723e-06,0.39510913665166425,0.0,0.0,0.0,4.266484971879832,-3.784037561506401e-05,-3.788537877928758e-05,-2.1345954725469287e-06,641.6217332882978,641.6013946810269,641.6054888341466,641.6054767469728
0.22399999999999998,2.734762149847767e-07,-2.733867115108682e-07,0.034548494698934694,0.00036355092123384206,0.00036385436565751153,4.438680100772876e-05,-1.614992269355665e-20,5.785843986016644e-21,0.092403792121864,0.0,4.554591689348195e-06,-4.553702373826611e-06,0.4113080462046012,0.0,0.0,0.0,4.244479538047309,-2.812503993042982e-05,-2.8165243584913855e-05,-1.9579318574191926e-06,641.1171779476816,641.1020475294812,641.1040358458155,641.1040250392718
0.22799999999999998,3.0627808071375214e-07,-3.061738714241318e-07,0.03630691946702211,0.00031158836178162225,0.00031187834084861113,4.431261452027067e-05,-1.614992269355665e-20,5.785843986016644e-21,0.09533099803910688,0.0,5.176917875044292e-06,-5.17574726511132e-06,0.42748514424345335,0.0,0.0,0.0,4.22070061316868,-1.809067769482557e-05,-1.8125432496831046e-05,-1.7844006149235521e-06,640.5716616234095,640.561918747564,640.561702991036,640.5616936412076
0.23199999999999998,3.4034697853916357e-07,-3.4022688708986846e-07,0.03812982535082029,0.0002541884893482251,0.0002544598886384551,4.4092932829362756e-05,-1.614992269355665e-20,5.785843986016644e-21,0.09829164556941344,0.0,5.8244379015082755e-06,-5.822950399595016e-06,0.4436316603025342,0.0,0.0,0.0,4.195200471423625,-7.819158025511263e-06,-7.84790638667199e-06,-1.614486478349789e-06,639.9862966742559,639.982078075989,639.9795800285436,639.9795722875491
0.236,3.7545488676890213e-07,-3.753178090459892e-07,0.04001704155512175,0.00019191445231981364,0.00019216230571949123,4.373689749469214e-05,-1.614992269355665e-20,5.785843986016644e-21,0.10128522683011582,0.0,6.4921642305989145e-06,-6.49032548049261e-06,0.45974047017220776,0.0,0.0,0.0,4.168031264622644,2.606387331473937e-06,2.584101889801603e-06,-1.4492612911169858e-06,639.3621903235174,639.3635893007703,639.3587494828349,639.3587434762667
0.24,4.1135344168854893e-07,-4.1119836690685267e-07,0.041968344371526425,0.00012543463337796073,0.00012565426232970085,4.325505898595101e-05,-1.614992269355665e-20,5.785843986016644e-21,0.10431123884752388,0.0,7.174494719038131e-06,-7.172272554902252e-06,0.4758022249118493,0.0,0.0,0.0,4.139299472473236,1.3031365968515073e-05,1.3015848410865613e-05,-1.2907367454795858e-06,638.7017113418203,638.7087389995218,638.7015333525383,638.7015291658059
0.244,4.4777676282804094e-07,-4.47602793530619e-07,0.043983457996500185,5.551387570403376e-05,5.570103131652591e-05,4.265763051536348e-05,-1.614992269355665e-20,5.785843986016644e-21,0.10736918351612454,0.0,7.864960291431015e-06,-7.86232589840204e-06,0.49180509623246066,0.0,0.0,0.0,4.109111673778505,2.3288337233530663e-05,2.3279716271669647e-05,-1.1389433249026267e-06,638.0072347156574,638.0198126112543,638.0102618179243,638.0102594894157
0.248,4.844453124561612e-07,-4.84251682320857e-07,0.04606208056413203,-1.7052944761823694e-05,-1.690197826767247e-05,4.1953694905182506e-05,-1.614992269355665e-20,5.785843986016644e-21,0.11045856755809541,0.0,8.556268563899876e-06,-8.553197684230762e-06,0.5077381981492269,0.0,0.0,0.0,4.077523346280035,3.326625136954481e-05,3.326450129010967e-05,-9.92971872809372e-07,637.2799509750682,637.2979411686118,637.2860983017133,637.2860978284824
0.252,5.210696748978944e-07,-5.208557639526896e-07,0.048203906532702984,-9.14937216039324e-05,-9.138206359171626e-05,4.115293193952446e-05,-1.614992269355665e-20,5.785843986016644e-21,0.11357890248313054,0.0,9.240825231857014e-06,-9.237299090387587e-06,0.5235963157060906,0.0,0.0,0.0,4.044545436238322,4.291111918098672e-05,4.291609313333065e-05,-8.538852693626197e-07,636.5200152840188,636.5432509326328,636.5291804898899,636.5291818364728
0.256,5.573526218328601e-07,-5.571179701398495e-07,0.050408569499318635,-0.00016694907343045036,-0.00016687911436630737,4.026543594957753e-05,-1.614992269355665e-20,5.785843986016644e-21,0.11672970454857585,0.0,9.91068206668709e-06,-9.906688336531748e-06,0.5393720584452508,0.0,0.0,0.0,4.010305136714888,5.205850423864521e-05,5.206985918567119e-05,-7.225584943548965e-07,635.7302819562649,635.758507108153,635.7423156532006,635.7423187310956
0.26,5.929932389586026e-07,-5.927375568651424e-07,0.05267567150354934,-0.00024253934789938132,-0.0002425126648307408,3.930062121648084e-05,-1.614992269355665e-20,5.785843986016644e-21,0.11991049471987207,0.0,1.0557397532351386e-05,-1.055293138384613e-05,0.5550556450801322,0.0,0.0,0.0,3.9748721793102764,6.05901087396505e-05,6.060732872017766e-05,-5.986055924070601e-07,634.9122773281587,634.9451714462239,634.9269989448915,634.9270036185679
0.264,6.276906875118954e-07,-6.274138624356508e-07,0.0550047901115546,-0.0003173864798975234,-0.0003174037749502034,3.82675678223185e-05,-1.614992269355665e-20,5.785843986016644e-21,0.12312079863130282,0.0,1.1172085977371245e-05,-1.1167151074234728e-05,0.5706382413822151,0.0,0.0,0.0,3.938302994384033,6.841210165687988e-05,6.84345152802759e-05,-4.820173489878495e-07,634.0672188405497,634.1044096655842,634.0844219617536,634.0844280531207
0.268,6.611478160472613e-07,-6.60849915645561e-07,0.05739547941002067,-0.000390623771719171,-0.00039068482734137453,3.7174995273862966e-05,-1.614992269355665e-20,5.785843986016644e-21,0.12636014654704567,0.0,1.174579152849854e-05,-1.1740400720319134e-05,0.5861137928863804,0.0,0.0,0.0,3.9006528448381057,7.544024176460218e-05,7.546703247307477e-05,-3.7274064854798236e-07,633.1962972247845,633.2373655988524,633.215752120201,633.21575941112
0.272,6.930747249654091e-07,-6.927559964835639e-07,0.05984727633293908,-0.0004614116487787745,-0.0004615153048574511,3.603084930079047e-05,-1.614992269355665e-20,5.785843986016644e-21,0.1296280733225239,0.0,1.2269604328857234e-05,-1.226378018041717e-05,0.6014770250316936,0.0,0.0,0.0,3.861964970824456,8.160640181747489e-05,8.163662441364616e-05,-2.7022549286813117e-07,632.3004233542067,632.3449116399134,632.3218826154575,632.3218908519697
0.276,7.231922060766547e-07,-7.228530717542957e-07,0.06235971545909847,-0.0005289617878092044,-0.0005291059475216123,3.484278104838893e-05,-1.614992269355665e-20,5.785843986016644e-21,0.1329241183660568,0.0,1.2734875772863124e-05,-1.2728650844153481e-05,0.6167248255088824,0.0,0.0,0.0,3.822253196066251,8.6870325046267e-05,8.69029324636297e-05,-1.7445043752545464e-07,631.3798221315419,631.4272491384595,631.4030266038573,631.4030355032327
0.28,7.512347958203547e-07,-7.508758446268743e-07,0.06493230291040816,-0.0005925141159857948,-0.0005926957513135644,3.361854306287595e-05,-1.614992269355665e-20,5.785843986016644e-21,0.13624782560080612,0.0,1.313331197267186e-05,-1.3126728905207798e-05,0.6318535347114234,0.0,0.0,0.0,3.781584461075686,9.116936265016788e-05,9.120320514477918e-05,-8.584504913338665e-08,630.4359556108358,630.4858040028826,630.4606267850195,630.4606360352847
0.28400000000000003,7.769538590099775e-07,-7.76575834597355e-07,0.06756450146906066,-0.0006513332769139867,-0.0006515484474242678,3.2365425963706323e-05,-1.614992269355665e-20,5.785843986016644e-21,0.1395987434270168,0.0,1.345691673753253e-05,-1.3450028217613962e-05,0.6468556366287339,0.0,0.0,0.0,3.740056885933296,9.443506646238331e-05,9.446890237306252e-05,-4.185543559965082e-09,629.4710168486564,629.5227295577383,629.4968569492345,629.4968662118596
0.28800000000000003,8.001205104112082e-07,-7.997242953090389e-07,0.07025575461008052,-0.0007047389830642475,-0.0007049828857841841,3.1090190817289563e-05,-1.614992269355665e-20,5.785843986016644e-21,0.1429764246845496,0.0,1.369803993650391e-05,-1.3690908467368182e-05,0.6617230904180963,0.0,0.0,0.0,3.697721264895316,9.66346995340816e-05,9.666722921261673e-05,7.084932073658874e-08,628.4860990793396,628.5390986051854,628.5128009905541,628.512809909539
0.29200000000000004,8.205282588765553e-07,-8.20114855218082e-07,0.07300548908640808,-0.0007521149445688288,-0.0007523819838078237,2.9799165564545127e-05,-1.614992269355665e-20,5.785843986016644e-21,0.14638042661570336,0.0,1.384959499600148e-05,-1.3842292368164698e-05,0.6764503881726279,0.0,0.0,0.0,3.654623827743849,9.774975605143827e-05,9.777964797030785e-05,1.3948941580608413e-07,627.482190275801,627.5358862684832,627.50944106401,627.5094492728789
0.29600000000000004,8.379953640334605e-07,-8.375658711233055e-07,0.07581311562848786,-0.0007929153537700993,-0.0007931992290647472,2.849825082550937e-05,-1.614992269355665e-20,5.785843986016644e-21,0.1498103108283251,0.0,1.3905255056200782e-05,-1.3897861520725167e-05,0.6910333946997052,0.0,0.0,0.0,3.610809983505387,9.777406100204711e-05,9.779997757739125e-05,2.0197517675230722e-07,626.460260387026,626.5140562421467,626.4877446253713,626.4877517541448
0.30000000000000004,8.523667935909031e-07,-8.519223827595283e-07,0.07867803587729688,-0.0008266706127555867,-0.0008269644202267399,2.719270005596393e-05,-1.614992269355665e-20,5.785843986016644e-21,0.15326564325920558,0.0,1.3859559230838098e-05,-1.3852162430235681e-05,0.7054687713281972,0.0,0.0,0.0,3.5663116467652296,9.671487670580045e-05,9.673549768713532e-05,2.588209857304759e-07,625.4209644810355,625.4742646294973,625.4483686925801,625.4483743741407
0.30400000000000005,8.635156894458659e-07,-8.63057576744474e-07,0.08159965913656257,-0.0008529913159677539,-0.0008532876549215391,2.5887425908425845e-05,-1.614992269355665e-20,5.785843986016644e-21,0.15674599413775817,0.0,1.3708012896825604e-05,-1.370070661699912e-05,0.719755583094469,0.0,0.0,0.0,3.521127087909194,9.459267291388529e-05,9.460671180976693e-05,3.1020955470098154e-07,624.3641694086136,624.416386583575,624.3911847343662,624.3911886089583
0.30800000000000005,8.713451673224384e-07,-8.708745840030158e-07,0.08457737143833212,-0.0008715703848940714,-0.0008718614935080107,2.4587232402854492e-05,-1.614992269355665e-20,5.785843986016644e-21,0.16025093794997916,0.0,1.3447164016898682e-05,-1.3440046717456635e-05,0.7338921347364358,0.0,0.0,0.0,3.475317179323123,9.143007196421314e-05,9.143631406310115e-05,3.56066035036278e-07,623.2912080629313,623.3417643362286,623.3175300181349,623.3175317438578
0.31200000000000006,8.757895616241088e-07,-8.75307723098062e-07,0.08761052483991359,-0.0008821893126823243,-0.000882467225462007,2.32963386331941e-05,-1.614992269355665e-20,5.785843986016644e-21,0.1637800534026873,0.0,1.307468968639011e-05,-1.3067862695546034e-05,0.7478728210978052,0.0,0.0,0.0,3.428965321162231,8.726688356578354e-05,8.726422613702963e-05,3.9687608960190515e-07,622.203945031464,622.2522812871646,622.2292798772186,622.229279141247
0.31600000000000006,8.768143106006284e-07,-8.763223852902391e-07,0.0906984815479416,-0.0008847089469837291,-0.0008849656235263562,2.2018583741583847e-05,-1.614992269355665e-20,5.785843986016644e-21,0.16733292338804046,0.0,1.258942218032694e-05,-1.2582987761357073e-05,0.7616936865718842,0.0,0.0,0.0,3.382066509575425,8.215234347861867e-05,8.213978758799738e-05,4.3290966336960846e-07,621.1021733318889,621.1477547216966,621.126240179586,621.1262366960731
0.32000000000000006,8.744168753780442e-07,-8.739159529287087e-07,0.09384058341970812,-0.0008790825326819512,-0.0008793100238110256,2.0757651530155176e-05,-1.614992269355665e-20,5.785843986016644e-21,0.17090913494832738,0.0,1.1991395855428819e-05,-1.1985455180621076e-05,0.7753526368054711,0.0,0.0,0.0,3.3346773775651215,7.614378634379874e-05,7.612048242851044e-05,4.641896532351289e-07,619.9871353068137,620.0294557576482,620.0096676376514,620.0096611605571
0.32400000000000007,8.686271215284299e-07,-8.681181811557986e-07,0.09703613387181116,-0.0008653688536451781,-0.000865559496958745,1.9516850999984827e-05,-1.614992269355665e-20,5.785843986016644e-21,0.17450827924103274,0.0,1.1281986631025143e-05,-1.127663744718113e-05,0.7888441301452197,0.0,0.0,0.0,3.2868919859126233,6.932513660502242e-05,6.929043819208084e-05,4.910014428831126e-07,618.8609578803365,618.8995550258101,618.88171177442,618.88170211276
0.32800000000000007,8.595062722486273e-07,-8.589901527745795e-07,0.10028442619520518,-0.0008437165115258042,-0.0008438630959780474,1.8299109797144123e-05,-1.614992269355665e-20,5.785843986016644e-21,0.17812995150417296,0.0,1.0463997135747672e-05,-1.0459331202161004e-05,0.8021618630970174,0.0,0.0,0.0,3.2387482169561674,6.178498333659277e-05,6.173844212772766e-05,5.136532315745423e-07,617.72445165326,617.758909822996,617.743207358519,617.7431943753872
0.3320000000000001,8.471458668691075e-07,-8.466232388094205e-07,0.10358475296336866,-0.0008143542633228178,-0.0008144501784767211,1.7106943556079598e-05,-1.614992269355665e-20,5.785843986016644e-21,0.18177375102190135,0.0,9.54159242948042e-06,-9.537693068682838e-06,0.8153031383158826,0.0,0.0,0.0,3.1902652432773655,5.3607145407939816e-05,5.354851005493158e-05,5.325044856250317e-07,616.577990206312,616.6079381023643,616.5945511342603,616.5945347468755
0.3360000000000001,8.316663630176991e-07,-8.31137703332615e-07,0.10693641705001909,-0.0007775778724232053,-0.0007776172351349072,1.5942665138805823e-05,-1.614992269355665e-20,5.785843986016644e-21,0.18543928109038021,0.0,8.520104816235979e-06,-8.51704480746998e-06,0.828268526385623,0.0,0.0,0.0,3.1414399606451284,4.4870215439734956e-05,4.479942414713569e-05,5.476869897847361e-07,615.4214219179491,615.4465300116276,615.4356126741446,615.4355928521658
0.33999999999999997,8.132166670605234e-07,-8.126822361803193e-07,0.1103386932648242,-0.0007337816750833544,-0.0007337595060756431,1.4808247065174234e-05,-1.614992269355665e-20,5.785843986016644e-21,0.18912614898391797,0.0,7.406113554955056e-06,-7.4039529141272665e-06,0.8410565612685051,0.0,0.0,0.0,3.092346857798532,3.568427920325455e-05,3.5601524392381386e-05,5.595013970240755e-07,614.2564315306965,614.2764299676061,614.2681073569256,614.2680841410496
0.344,7.919714740086913e-07,-7.914312970774531e-07,0.11379086628244614,-0.0006834169571621099,-0.0006833292900438864,1.3705434070666951e-05,-1.614992269355665e-20,5.785843986016644e-21,0.19283396592136995,0.0,6.20738071009083e-06,-6.206164580093255e-06,0.853665294616434,0.0,0.0,0.0,3.042984400455358,2.6143227798750183e-05,2.6048914041638732e-05,5.68130712847969e-07,613.0829077462063,613.0975777592433,613.09194989144,613.0919233820811
0.348,7.681303532971425e-07,-7.675842047453259e-07,0.11729218695026726,-0.0006270342699755449,-0.0006268783139228657,1.2635714646287773e-05,-1.614992269355665e-20,5.785843986016644e-21,0.19656234703279932,0.0,4.932944852234133e-06,-4.9327013254149714e-06,0.8660914770430501,0.0,0.0,0.0,2.9934394734292837,1.6375986670647086e-05,1.6270794298381088e-05,5.738004204229517e-07,611.9028410265036,611.9120350247766,611.9091669057999,611.9091372815691
0.352,7.419147713862531e-07,-7.413621644837959e-07,0.12084189967877992,-0.000565247992499516,-0.0005650222388917279,1.160031220059367e-05,-1.614992269355665e-20,5.785843986016644e-21,0.20031091132639836,0.0,3.593054758633282e-06,-3.593792902990837e-06,0.8783310413965122,0.0,0.0,0.0,2.9437445096571033,6.501605450998924e-06,6.3864587658085954e-06,5.767567453667631e-07,610.7169359862347,610.7205725919691,610.7204967723682,610.7204642816927
0.356,7.135654845876927e-07,-7.130056659855766e-07,0.12443924504956043,-0.0004987268785872159,-0.0004984311854334752,1.0600215693109747e-05,-1.614992269355665e-20,5.785843986016644e-21,0.20407928165566647,0.0,2.1990776914286862e-06,-2.2007858140279133e-06,0.8903814741090598,0.0,0.0,0.0,2.8939269128622205,-3.3693590374167146e-06,-3.493305502338957e-06,5.772209283527053e-07,609.5257843330438,609.5238441122082,609.5265627530863,609.526527710891
0.36,6.83339808362514e-07,-6.827717578632822e-07,0.1280834600617096,-0.00042818642800019615,-0.00042782208354905365,9.636194635395748e-06,-1.614992269355665e-20,5.785843986016644e-21,0.20786708468684376,0.0,7.632273735707261e-07,-7.658718066821634e-07,0.9022418362169409,0.0,0.0,0.0,2.8440137666903653,-1.3127836607443571e-05,-1.3259208861762083e-05,5.754062446255969e-07,608.3299750034349,608.3225001272777,608.3279851506895,608.3279479358927
0.364,6.515087384516369e-07,-6.509311742009166e-07,0.13177377841615157,-0.00035438070949996204,-0.00035395047331712395,8.708813633541499e-06,-1.614992269355665e-20,5.785843986016644e-21,0.21167395086659818,0.0,-7.015617607984232e-07,6.980375297243372e-07,0.9139112509630787,0.0,0.0,0.0,2.79403174952535,-2.2666939477121026e-05,-2.2804158506546505e-05,5.715179390135552e-07,607.1300923301364,607.1171858421111,607.1253792790394,607.1253403309863
0.368,6.183538354333701e-07,-6.177652246299842e-07,0.13550943794267223,-0.0002780855821015963,-0.0002775936971296872,7.818457411438621e-06,-1.614992269355665e-20,5.785843986016644e-21,0.21549951438996437,0.0,-2.1818008997246206e-06,2.177476700118341e-06,0.9253896256579944,0.0,0.0,0.0,2.7439926286281757,-3.1891339076251875e-05,-3.203264521200732e-05,5.65740399867444e-07,605.9263686686761,605.908188400569,605.9190053780072,605.9189651900213
0.372,5.841638936218821e-07,-5.835624687073029e-07,0.13928969916141606,-0.000200069119222665,-0.00019952128624603347,6.965340764205236e-06,-1.614992269355665e-20,5.785843986016644e-21,0.21934341316853212,0.0,-3.6637886760984345e-06,3.658767594335938e-06,0.9366794810454874,0.0,0.0,0.0,2.6938704252915886,-4.073333736964041e-05,-4.087682806901477e-05,5.582537480472617e-07,604.7181333230661,604.6948765528228,604.7082129633135,604.7081720723179
0.376,5.492324756734354e-07,-5.486162558156861e-07,0.14311381884040758,-0.00012111489223445481,-0.00012051824443148627,6.1495312352857034e-06,-1.614992269355665e-20,5.785843986016644e-21,0.223205288798883,0.0,-5.133779797284622e-06,5.1281877035498805e-06,0.9477832772484568,0.0,0.0,0.0,2.6436921588475224,-4.9105535119677314e-05,-4.924916296783983e-05,5.492185768013207e-07,603.5059886259551,603.4779036914407,603.4936303263755,603.493589313921
0.38,5.138546562787735e-07,-5.132214739109203e-07,0.14698107073922628,-4.199172894337723e-05,-4.1354776119681995e-05,5.370942906272635e-06,-1.614992269355665e-20,5.785843986016644e-21,0.2270847865312729,0.0,-6.578120156913975e-06,6.57210488844774e-06,0.9587031600273812,0.0,0.0,0.0,2.5934429240633543,-5.6943103620544105e-05,-5.7084710552878144e-05,5.38808775759986e-07,602.2895302783066,602.2569040378063,602.2748729083908,602.2748323911773
0.384,4.783247475429543e-07,-4.776722802347835e-07,0.1508906967305699,3.650225536426472e-05,3.716969452531644e-05,4.629326653287805e-06,-1.614992269355665e-20,5.785843986016644e-21,0.23098155523855898,0.0,-7.983138640460984e-06,7.976868886243943e-06,0.9694374660799664,0.0,0.0,0.0,2.5432065285264924,-6.413908462455362e-05,-6.427641091796299e-05,5.272159242771827e-07,601.0707399187415,601.0339223648879,601.0539544468422,601.05391507461
0.388,4.429331074834926e-07,-4.42258914433362e-07,0.154841919772322,0.00011356297409321025,0.00011424987171850943,3.924278683171721e-06,-1.614992269355665e-20,5.785843986016644e-21,0.23489524738536904,0.0,-9.335120888387152e-06,9.328784653344758e-06,0.9799820333097886,0.0,0.0,0.0,2.493041523844948,-7.059864287095561e-05,-7.072937153528152e-05,5.146283492215378e-07,599.8510030821865,599.8104009023125,599.8322893581943,599.8322518012039
0.392,4.079631463228356e-07,-4.072647092002947e-07,0.1588339411528427,0.00018838757879340482,0.00018908182809935974,3.2553287497291357e-06,-1.614992269355665e-20,5.785843986016644e-21,0.23882551899751153,0.0,-1.0620241321683807e-05,1.0614043907990962e-05,0.9903306769400256,0.0,0.0,0.0,2.443012709464798,-7.623402798792117e-05,-7.635582517670215e-05,5.011377063457922e-07,598.6318713877957,598.5879443883169,598.6114560700818,598.6114210076496
0.396,3.736880977265894e-07,-3.7296286455842906e-07,0.1628659817937881,0.00026021977777539006,0.00026090832975908567,2.6218654635139538e-06,-1.614992269355665e-20,5.785843986016644e-21,0.2427720296316244,0.0,-1.1825079548555019e-05,1.1819241111936513e-05,1.0004822853549322,0.0,0.0,0.0,2.393101804619548,-8.100462632297466e-05,-8.1115167931581e-05,4.869256629895336e-07,597.4128891077365,597.3661233216258,597.3910125041718,597.3909806169348
0.4,3.403685470983656e-07,-3.39613980018499e-07,0.16693724390362474,0.0003283265542679523,0.0003289956016743688,2.023232222871469e-06,-1.614992269355665e-20,5.785843986016644e-21,0.24673444234506117,0.0,-1.2936845155472516e-05,1.2931597757415842e-05,1.010436552924689,0.0,0.0,0.0,2.3433677806802153,-8.485131993015368e-05,-8.494834267806027e-05,4.720676623445661e-07,596.1954862996938,596.1464050286883,596.1724075700272,596.1723795252824
0.404,3.082497471399777e-07,-3.0746337152479697e-07,0.17104695684455368,0.00039203688341932414,0.0003926720137330953,1.4587009682845593e-06,-1.614992269355665e-20,5.785843986016644e-21,0.25071242366601226,0.0,-1.3943667540184427e-05,1.393925199262643e-05,1.0201947506198732,0.0,0.0,0.0,2.293777170692116,-8.775655454462241e-05,-8.783785673074863e-05,4.5667170907477816e-07,594.9788449282031,594.9279847927687,594.9548302175122,594.9548066687533
0.40800000000000003,2.7755936216981964e-07,-2.767388184537862e-07,0.17519434299141637,0.00045072776836172813,0.00045131417712455414,9.274054599493199e-07,-1.614992269355665e-20,5.785843986016644e-21,0.25470564356386,0.0,-1.4834705986561304e-05,1.4831368388301471e-05,1.0297585188479772,0.0,0.0,0.0,2.244364984220558,-8.96928069832441e-05,-8.975631190124437e-05,4.4092673530444813e-07,593.763823576177,593.7117405237404,593.7391492760992,593.7391308445658
0.41200000000000003,2.485052686882565e-07,-2.47648365834535e-07,0.17937859802885658,0.0005038239588920218,0.0005043467150362912,4.2842803025497797e-07,-1.614992269355665e-20,5.785843986016644e-21,0.25871377541976526,0.0,-1.5600242219273813e-05,1.559822985082765e-05,1.0391256507712447,0.0,0.0,0.0,2.195206492605209,-9.063358980339271e-05,-9.067742963653194e-05,4.2492606714534e-07,592.5522818534014,592.4995507773501,592.5272341321183,592.5272213821131
0.41600000000000004,2.2130951880465492e-07,-2.2041428691456975e-07,0.18359891046183102,0.0005473065036865896,0.0005477507914692409,-1.0814383424802447e-06,-1.614992269355665e-20,5.785843986016644e-21,0.2627364959974845,0.0,-1.6217233018047665e-05,1.6216789586999196e-05,1.048291942633083,0.0,0.0,0.0,2.1463382725726547,-8.689745429355501e-05,-8.691998787532725e-05,1.6262639133653885e-06,591.3421909605207,591.291535895779,591.3218943603702,591.321887793536
0.42000000000000004,1.9617575653555089e-07,-1.9524049588033864e-07,0.18785445651899726,0.0005759208244565786,0.0005762718611878526,-2.8948433073540406e-06,-1.614992269355665e-20,5.785843986016644e-21,0.2667734854144152,0.0,-1.661938987020927e-05,1.6620752419449503e-05,1.05725444042321,0.0,0.0,0.0,2.0978075244058014,-7.639601689828169e-05,-7.639549920821443e-05,2.0429204580913007e-06,590.1372200310033,590.0926017908755,590.121239187567,590.1212393387416
0.42400000000000004,1.7319199270530216e-07,-1.72215324128407e-07,0.19214443115611843,0.0005908995408415781,0.000591142743016459,-4.926710645578274e-06,-1.614992269355665e-20,5.785843986016644e-21,0.27082442711286786,0.0,-1.6751953216539707e-05,1.6755350644384816e-05,1.0660132110792158,0.0,0.0,0.0,2.0495989684395988,-6.519043067725638e-05,-6.516524174941307e-05,2.372785397101581e-06,588.9377116398737,588.8995677992987,588.9260009506528,588.9260083211832
0.42800000000000005,1.523986091613727e-07,-1.5137952463554003e-07,0.19646806532782457,0.0005933764681401936,0.0005934977632594116,-7.10742339217587e-06,-1.614992269355665e-20,5.785843986016644e-21,0.274889007831563,0.0,-1.6612751625186e-05,1.6618402245337688e-05,1.0745734010840704,0.0,0.0,0.0,2.001661724794645,-5.39385147406551e-05,-5.388735343000341e-05,2.6304393316522686e-06,587.7426036502399,587.7109883539382,587.7349695739044,587.7349845745487
0.43200000000000005,1.3379224753402972e-07,-1.3273015889994486e-07,0.20082461093894904,0.0005844407260943755,0.0005844268748463817,-9.376406429506567e-06,-1.614992269355665e-20,5.785843986016644e-21,0.27896691757735187,0.0,-1.622975676913496e-05,1.6237862922583823e-05,1.0829422088776228,0.0,0.0,0.0,1.9539743570269472,-4.266372504791242e-05,-4.2585664774304655e-05,2.823596263981739e-06,586.551383491169,586.5263371511088,586.5476483605919,586.5476712944197
0.43600000000000005,1.1732907052027778e-07,-1.1622385615183242e-07,0.20521330207054234,0.000565199218357534,0.0005650382317467738,-1.1683020180031411e-05,-1.614992269355665e-20,5.785843986016644e-21,0.28305784959715846,0.0,-1.5629297744836455e-05,1.5640039100049173e-05,1.0911215464000843,0.0,0.0,0.0,1.906593502264111,-3.1455355131448394e-05,-3.134998096530352e-05,2.961381229203798e-06,585.3655017989629,585.347012260788,585.3654889953633,585.3655200164359
0.44000000000000006,1.0292993649450243e-07,-1.0178198187784818e-07,0.20963339254354765,0.000536726182307788,0.0005364075903658957,-1.3984268099151481e-05,-1.614992269355665e-20,5.785843986016644e-21,0.2871615003501419,0.0,-1.4837207709898432e-05,1.4850734814336601e-05,1.0991120069010225,0.0,0.0,0.0,1.8595001783613143,-2.0370042052123532e-05,-2.023735443074253e-05,3.0506457014933833e-06,584.1845220053566,584.1725433150496,584.1880584691733,584.1880976097756
0.44400000000000006,9.04831308075906e-08,-8.929336515731631e-08,0.21408409983182122,0.0005001446765579828,0.0004996599590125511,-1.6243799716963628e-05,-1.614992269355665e-20,5.785843986016644e-21,0.2912775694800769,0.0,-1.3879200332837644e-05,1.3895627979763922e-05,1.106911579102192,0.0,0.0,0.0,1.812788651458633,-9.53332967934707e-06,-9.373932513882966e-06,3.0973873959497127e-06,583.0108659584861,583.0052773477103,583.0177591598866,583.0178062737348
0.44800000000000006,7.984941317048377e-08,-7.861933779301565e-08,0.2185646398723272,0.0004565764595039966,0.0004559193217717889,-1.8432707166383078e-05,-1.614992269355665e-20,5.785843986016644e-21,0.2954057597879514,0.0,-1.2781025709227158e-05,1.280042657298025e-05,1.1145169397443335,0.0,0.0,0.0,1.7664837463595777,9.550050233985505e-07,1.1400015738538395e-06,3.108804869946386e-06,581.8452201666936,581.8458406462503,581.8552693391082,581.8553241287452
0.45200000000000007,7.086693423160867e-08,-6.959864190277484e-08,0.22307425831687694,0.0004070957401866692,0.00040626223588951767,-2.052736795059443e-05,-1.614992269355665e-20,5.785843986016644e-21,0.2995457772047791,0.0,-1.1568147793366602e-05,1.1590547591310086e-05,1.1219288536410321,0.0,0.0,0.0,1.7205469583612936,1.1046333820167708e-05,1.1255457317507319e-05,3.089880291188781e-06,580.686669922749,580.6932882036693,580.6996742356049,580.6997362940675
0.45600000000000007,6.335460350272783e-08,-6.205079014035374e-08,0.22761220564443077,0.00035276171720402235,0.0003517504125108489,-2.2509026523850174e-05,-1.614992269355665e-20,5.785843986016644e-21,0.30369733076462546,0.0,-1.026519248060334e-05,1.0290567259966649e-05,1.1291517616941242,0.0,0.0,0.0,1.6749893923669643,2.0670898233254625e-05,2.0902262989560505e-05,3.04532243274041e-06,579.5355513480229,579.5479130457429,579.5513027608453,579.5513715555604
0.4600000000000001,5.7116066107864684e-08,-5.578003348465888e-08,0.23217774385964532,0.0002946063237267008,0.00029341839527912604,-2.4363016901313587e-05,-1.614992269355665e-20,5.785843986016644e-21,0.30786013257784617,0.0,-8.89596370469357e-06,8.924237888457503e-06,1.1361882591314747,0.0,0.0,0.0,1.629808451027075,2.9764019814061475e-05,3.001537073126102e-05,2.9791304963210916e-06,578.3918561565794,578.409666504843,578.4101386527466,578.4102135376604
0.4640000000000001,5.1943595946114e-08,-5.057924518855093e-08,0.23677015677815091,0.00023361699470805653,0.00023225624879977917,-2.607853618923994e-05,-1.614992269355665e-20,5.785843986016644e-21,0.3120338978045354,0.0,-7.4833376472547814e-06,7.514383097454036e-06,1.1430419245057333,0.0,0.0,0.0,1.5849803414126162,3.828025899778345e-05,3.8549044747086705e-05,2.895206037742828e-06,577.2550332105972,577.2779682941344,577.2756282039231,577.2757084405702
0.4680000000000001,4.7620800602054934e-08,-4.623261704849043e-08,0.2413887069051752,0.00017078742420937828,0.00016926039782256042,-2.76479893153517e-05,-1.614992269355665e-20,5.785843986016644e-21,0.3162183446281834,0.0,-6.049370531514228e-06,6.083006157939017e-06,1.1497137106278428,0.0,0.0,0.0,1.5405681363184978,4.612809933479862e-05,4.6411372643144274e-05,2.7968430310454213e-06,576.1267462121413,576.1544250806165,576.1494167548746,576.1495014815725
0.4720000000000001,4.392656886479942e-08,-4.251959737748206e-08,0.24603266089326625,0.00010708029287588779,0.00010539623375063543,-2.906648076149709e-05,-1.614992269355665e-20,5.785843986016644e-21,0.320413194229541,0.0,-4.615410350434891e-06,4.651402221918075e-06,1.1562023797893117,0.0,0.0,0.0,1.4965839661775264,5.324189857467953e-05,5.3536430785675385e-05,2.6868729068776594e-06,575.0073690978999,575.0393689087668,575.0318660704739,575.031954335903
0.476,4.063843631724975e-08,-3.921824746436342e-08,0.25070129181516565,4.341941442736099e-05,4.1590208449613303e-05,-3.0331460943833194e-05,-1.614992269355665e-20,5.785843986016644e-21,0.32461817076068994,0.0,-3.2020039536363016e-06,3.2400663525145306e-06,1.1625081128575716,0.0,0.0,0.0,1.453035261120468,5.9570256926795154e-05,5.987259559384593e-05,2.567824522632227e-06,573.8971547560939,573.9330190520506,573.9232201080248,573.923310887914
0.48,3.753573335886718e-08,-3.610838084946094e-08,0.2553938792085167,-1.931550055360237e-05,-2.12754467522106e-05,-3.1442378845027684e-05,-1.614992269355665e-20,5.785843986016644e-21,0.3288330013193178,0.0,-1.8285463889658641e-06,1.8683443900077572e-06,1.1686325196746858,0.0,0.0,0.0,1.4099292001929469,6.506970539038842e-05,6.537622610480917e-05,2.4419171088013517e-06,572.7963492944085,572.8355925658842,572.8237173944686,572.823809606712
0.484,3.440254210287422e-08,-3.297451198239858e-08,0.26010970913770876,-8.02940663516989e-05,-8.236798534329161e-05,-3.2400374015690294e-05,-1.614992269355665e-20,5.785843986016644e-21,0.33305741592319466,0.0,-5.131630538286832e-07,5.543160530713124e-07,1.1745772207984184,0.0,0.0,0.0,1.3672726747263793,6.970489532591811e-05,7.001185569527485e-05,2.3110921339496763e-06,571.7051908889437,571.7473033024604,571.7335900499097,571.7336825704904
0.488,3.1030446973825015e-08,-2.960859922454706e-08,0.26484807426515505,-0.0001387402628199904,-0.0001409092259979415,-3.320800412634158e-05,-1.614992269355665e-20,5.785843986016644e-21,0.3372911474848517,0.0,7.274005515513707e-07,-6.853144279315294e-07,1.1803438526543317,0.0,0.0,0.0,1.325072266804012,7.344906175778325e-05,7.375265690777364e-05,2.1770423039745642e-06,570.6239089295519,570.668361388037,570.6530631826741,570.6531548622144
0.492,2.722106532787668e-08,-2.5812568641961002e-08,0.2696082739294785,-0.00019393718917463173,-0.00019618034262356419,-3.3869004321188986e-05,-1.614992269355665e-20,5.785843986016644e-21,0.34153393178645947,0.0,1.8778827831206801e-06,-1.8353214625783155e-06,1.1859340698420244,0.0,0.0,0.0,1.2833342325507613,7.628435241646827e-05,7.658077119408758e-05,2.041237623056581e-06,569.5527233258912,569.5989727821227,569.5823543974554,569.5824440781445
0.496,2.2788345757461807e-08,-2.140060635994879e-08,0.2743896142284693,-0.0002452314380336999,-0.00024752627075977644,-3.438807502352406e-05,-1.614992269355665e-20,5.785843986016644e-21,0.3457855074549036,0.0,2.92460091910753e-06,-2.8820524445190836e-06,1.1913495467405704,0.0,0.0,0.0,1.2420644895424833,7.820203116219279e-05,7.848751222559111e-05,1.9049488301468502e-06,568.4918439554809,568.5393389038562,568.5216734007195,568.521759933375
0.5,1.756062333010164e-08,-1.620120882316629e-08,0.2791914081050162,-0.00029203700768128924,-0.0002943596478953912,-3.477069520018261e-05,-1.614992269355665e-20,5.785843986016644e-21,0.3500456159370581,0.0,3.8555352330667275e-06,-3.8135111989419055e-06,1.1965919785994141,0.0,0.0,0.0,1.201268607715476,7.920255807804063e-05,7.947344507102005e-05,1.7692684931743902e-06,567.4414702388874,567.4896563109486,567.4712216894108,567.4713039504256
0.504,1.1382422826594265e-08,-1.00589821043321e-08,0.28401297543450466,-0.00033383868158738564,-0.0003361642163847963,-3.502295840988245e-05,-1.614992269355665e-20,5.785843986016644e-21,0.35431400147525294,0.0,4.660400239669194e-06,-4.619428708629023e-06,1.201663082196476,0.0,0.0,0.0,1.160951803241478,7.929554947389143e-05,7.954834450634427e-05,1.6351300106083162e-06,566.4017908288172,566.4501164188371,566.4311923108731,566.4312692188045
0.508,4.1160705923888345e-09,-2.836250159261526e-09,0.28885363181400747,-0.00037019459499935216,-0.00037249743895502967,-3.5152153474932156e-05,-1.614992269355665e-20,5.785843986016644e-21,0.3585904110829363,0.0,5.330700398193736e-06,-5.291318270905475e-06,1.2065634662922124,0.0,0.0,0.0,1.121141865234205,7.84985867342312e-05,7.873002793269123e-05,1.5041707598262045e-06,565.3735753947702,565.4214965700844,565.4023640664353,565.4024346060052
0.512,-4.357057076408717e-09,5.585697894871753e-09,0.29371269570052577,-0.00040073853504601643,-0.0004029927930750173,-3.5164697497312644e-05,-1.614992269355665e-20,5.785843986016644e-21,0.36287459452052856,0.0,5.85976882830757e-06,-5.822513624544438e-06,1.2112933367700058,0.0,0.0,0.0,1.0818522730763969,7.683924087519479e-05,7.704634503996076e-05,1.375663144362165e-06,564.3572285597302,564.4042153259271,564.3851462208614,564.3852094566615
0.516,-1.4121096744346056e-08,1.5320416717059078e-08,0.2985895174464036,-0.00042375618411746055,-0.0004287845373737277,-3.568906568763273e-05,-1.614992269355665e-20,5.785843986016644e-21,0.36716630427146696,0.0,6.248316057689258e-06,-6.202668483752758e-06,1.215855586030885,0.0,0.0,0.0,1.0430375278078166,7.28615483984145e-05,7.60271554025145e-05,1.9765247641249646e-06,563.3504429892206,563.395985329012,563.3791433485982,563.380111639039
0.52,-2.5205306023810028e-08,2.649510599380246e-08,0.3034834646390935,-0.0004339621188929358,-0.0004547268591730376,-3.655938718434968e-05,-1.614992269355665e-20,5.785843986016644e-21,0.3714652955184403,0.0,6.540361904102389e-06,-6.381774644136562e-06,1.2202560797116742,0.0,0.0,0.0,1.0046809070616731,6.248984305995707e-05,7.982601077306246e-05,2.404676743644354e-06,562.3542893557734,562.3978983646559,562.3812540497179,562.3865661956527
0.524,-3.769407180269603e-08,3.913899792042755e-08,0.30839389435865194,-0.0004320233634841936,-0.0004798892951203157,-3.754492240753075e-05,-1.614992269355665e-20,5.785843986016644e-21,0.37577132611981134,0.0,6.785168780097078e-06,-6.308275580127792e-06,1.2244968466153159,0.0,0.0,0.0,0.9668214826571757,5.1017656695328964e-05,8.325715031228243e-05,2.577555122916134e-06,561.3699598625918,561.4111771312796,561.3940132270558,561.4039093798391
0.528,-5.167263851911354e-08,5.3237512221698155e-08,0.3133201696930786,-0.00041904680608670966,-0.0005030572703514473,-3.859197923652393e-05,-1.614992269355665e-20,5.785843986016644e-21,0.3800841565862256,0.0,6.99721747885794e-06,-5.969105784147328e-06,1.2285779056116322,0.0,0.0,0.0,0.9294651826488591,3.954633766481333e-05,8.533952649866456e-05,2.6925124646398342e-06,560.3973311399681,560.4357329884411,560.4182738401731,560.4323548216585
