Time_s,X,Y,Z,Roll_deg,Pitch_deg,Yaw_deg,Ref_X,Ref_Y,Ref_Z,Ref_Yaw,vx,vy,vz,p,q,r,T_pert,tau_x,tau_y,tau_z,RPM_0,RPM_1,RPM_2,RPM_3
0.0040000000000000036,3.540239794309915e-22,-6.0,0.010006999594037988,1.030927412343402e-18,1.9273866450044995e-18,-5.1486728461073835e-21,2.3110657071748654e-22,-6.0,0.010074639714689831,1.7916199615202707e-22,-1.8465271353911924e-19,-1200.0,2.0013999188075973,0.0,0.0,0.0,0.13727673356390743,-1.2038473377160515e-18,-3.683021169308074e-18,1.800587151680914e-20,539.3555031529193,539.3555031529194,539.3555031529193,539.3555031529194
0.007999999999999993,3.2613270470763916e-22,-6.0,0.010010999365527828,-3.2412448953870677e-19,8.269781495348364e-19,4.178894697967412e-20,2.3109003058650283e-22,-6.0,0.01021705724096241,1.7914917365687059e-22,-1.056910258236039e-19,-666.6666666666666,1.112333262836425,0.0,0.0,0.0,0.28307763549941695,1.5118407426641803e-18,2.807251723331562e-18,-5.4198476114166744e-20,543.293890269062,543.2938902690621,543.293890269062,543.2938902690621
0.011999999999999997,2.7857597208074026e-22,-6.0,0.010014999143178303,-1.7882245260705258e-18,-1.4907094589996948e-19,4.2211741746578967e-20,2.310653696959898e-22,-6.0,0.010429397942859043,1.7913005566140433e-22,2.0399112639115995e-20,-3.8457516376786636e-24,0.0009999434817584835,0.0,0.0,0.0,0.42940122292865546,1.7318414456681289e-18,1.334430803273698e-18,-1.7896663061063542e-21,547.2178993475084,547.2178993475085,547.2178993475084,547.2178993475085
0.016,6.242769344255091e-22,-6.0,0.010018998937222275,-2.13746610520076e-18,1.2634779325025927e-18,4.797927675264607e-20,2.310326863828539e-22,-6.0,0.010710815098006973,1.7910471839987987e-22,3.7673801522486655e-20,-2.669995791653762e-23,0.0009999457507016765,0.0,0.0,0.0,0.5762362288741475,5.301037411066184e-19,-6.183074510996704e-18,-8.050990620691319e-21,551.1275385703874,551.1275385703875,551.1275385703874,551.1275385703874
0.020000000000000004,7.444957245116068e-22,-6.0,0.01002299875299595,-3.04688831745099e-18,1.740083636085929e-18,9.549303935630527e-20,2.3099207809276586e-22,-6.0,0.0110604696579496,1.790732374156313e-22,5.2695418813242616e-20,-4.245211061037034e-23,0.000999950017207922,0.0,0.0,0.0,0.7235715213878992,1.2081267818558498e-18,1.6940015997291261e-18,-5.705449014113681e-20,555.022818330139,555.0228183301391,555.022818330139,555.0228183301391
0.024000000000000007,9.16622093160957e-22,-6.0,0.010026998592391534,-4.849521237007841e-18,2.0136222648586386e-18,5.67868551836038e-20,2.309436413873475e-22,-6.0,0.011477530186265229,1.7903568756664676e-22,3.661317077886905e-20,-5.71055086850728e-23,0.0009999554679552408,0.0,0.0,0.0,0.871396081417214,2.313346309716941e-18,-1.1482000369563213e-18,4.171249339137141e-20,558.9037505757917,558.9037505757918,558.9037505757917,558.9037505757917
0.02800000000000001,9.841341933668475e-22,-6.0,0.010030998455287673,-5.555685097054725e-18,2.467951646478753e-18,4.183507207384573e-20,2.308874719513042e-22,-6.0,0.011961172797154364,1.789921430310976e-22,3.903164979352572e-20,-7.67273983176952e-23,0.00099996130786921,0.0,0.0,0.0,1.0196990018121626,1.1562321824082765e-18,4.011509111282457e-19,1.5552507574326282e-20,562.770348736351,562.7703487363511,562.770348736351,562.770348736351
0.032000000000000015,1.0594413362126496e-21,-6.0,0.010034998340538075,-5.511446213020574e-18,2.8292440222196745e-18,1.7724011861039554e-19,2.308236645995032e-22,-6.0,0.012510581094492133,1.7894267731282594e-22,2.768987848025146e-20,-9.131343463168733e-23,0.0009999670829881346,0.0,0.0,0.0,1.1684694871931438,3.282517476691565e-19,-7.45176628811992e-19,-1.5947457578343038e-19,566.6226276700968,566.6226276700969,566.6226276700968,566.6226276700969
0.03599999999999999,1.0661339306415932e-21,-6.0,0.010038998246309945,-4.4758052972788875e-18,2.2863226310581878e-18,3.5065220684765473e-19,2.307523132839982e-22,-6.0,0.013124946111342442,1.7888736324679027e-22,8.683995923779386e-21,-9.189091320259113e-23,0.0009999725355903932,0.0,0.0,0.0,1.3176968542630647,-8.324656824294774e-19,1.169139658858034e-18,-2.0943348529014793e-19,570.4606036278781,570.4606036278782,570.4606036278781,570.4606036278781
0.039999999999999994,1.0627861387997712e-21,-6.0,0.010042998170610233,-4.3638010545748636e-18,1.9932257980588932e-18,3.5637528174478144e-19,2.3067351110100106e-22,-6.0,0.013803466249930544,1.7882627300447015e-22,2.209984738420476e-21,-8.359932951679183e-23,0.00099997753990385,0.0,0.0,0.0,1.4673705304472113,1.7527520067524045e-19,2.887338817646426e-19,-2.0667576190275896e-20,574.2842941758247,574.2842941758248,574.2842941758247,574.2842941758247
0.044,1.1173282926829017e-21,-6.0,0.010046998111480564,-4.494097118610533e-18,2.0229976618516547e-18,2.735029697592531e-19,2.3058735029780027e-22,-6.0,0.014545347222070591,1.787594780992297e-22,3.8614565163832985e-21,-7.728436309294152e-23,0.000999982050511189,0.0,0.0,0.0,1.6174800535883007,4.505580027049482e-19,-8.515278663715892e-19,8.259031184553399e-20,578.0937181483165,578.0937181483166,578.0937181483165,578.0937181483165
0.048,1.1465694340556279e-21,-6.0,0.010050998067010151,-4.429059691064255e-18,2.157688416685335e-18,4.580881555782199e-19,2.3049392227962713e-22,-6.0,0.015349801990044964,1.7868704939164056e-22,1.0147427905885999e-20,-7.788923134572441e-23,0.0009999860750472753,0.0,0.0,0.0,1.768015071356586,2.313707104232353e-19,-5.523370767188459e-20,-2.2643986901804473e-19,581.888895596111,581.8888955961111,581.888895596111,581.888895596111
0.052000000000000005,1.177309097074873e-21,-6.0,0.010054998035545446,-4.455721416130401e-18,2.1984466068431436e-18,4.559808072066994e-19,2.3039331761647e-22,-6.0,0.016216050707932004,1.786090570947644e-22,9.27790240033815e-21,-7.785513969951785e-23,0.0009999896461573496,0.0,0.0,0.0,1.9189653399046227,3.340033680771787e-19,-2.464197498686603e-19,-1.593367192034051e-20,585.6698477180785,585.6698477180786,585.6698477180785,585.6698477180785
0.05600000000000001,1.2001114832147627e-21,-6.0,0.010058998015681055,-4.330585796249535e-18,2.300522064599254e-18,3.605271917399351e-19,2.302856260498366e-22,-6.0,0.01714332066337891,1.7852557077939534e-22,9.107383410207183e-21,-7.709497279255468e-23,0.0009999928142604558,0.0,0.0,0.0,2.070320723366326,1.585678827021936e-19,-2.124536414045175e-19,9.319551216940153e-20,589.4365968169337,589.4365968169338,589.4365968169337,589.4365968169337
0.06000000000000001,1.2095312989858528e-21,-6.0,0.010062998006128395,-4.297798220062175e-18,2.3457789230908447e-18,5.462664101974018e-20,2.30170936499465e-22,-6.0,0.018130846219816574,1.7843665937926265e-22,5.108536251994033e-21,-7.60303328114307e-23,0.0009999956398167378,0.0,0.0,0.0,2.2220711931746546,2.578486145407658e-19,-8.333226068760235e-20,3.429498835780298e-19,593.189166252581,593.1891662525811,593.189166252581,593.1891662525811
0.06400000000000002,1.2140974471081382e-21,-6.0,0.010067189829871363,-4.082135499941519e-18,3.877173791345725e-19,5.76261190675502e-19,2.3004933706998385e-22,-6.0,0.01917786875911307,1.783423911961939e-22,2.273442559313887e-21,-7.672139198791569e-23,0.0010191805632997486,0.0,0.0,0.0,2.373817516607561,4.205729224001797e-20,2.164470320801344e-18,-6.111812783887566e-19,596.9180437820168,596.9180437820168,596.9180437820168,596.9180437820168
0.06799999999999999,1.3505222562452032e-21,-6.0,0.01007479254052906,1.6686628701596485e-18,-1.4891524636155614e-17,3.2410762375160448e-18,2.2992091505752197e-22,-6.0,0.020283636624662676,1.7824283390523892e-22,1.4367150073050256e-20,-5.51567606098798e-23,0.0013794530850009049,0.0,0.0,0.0,2.519399946625519,-6.436247453016358e-18,1.6264763508972053e-17,-3.136175568904878e-18,600.4736915852511,600.4736915852513,600.4736915852511,600.4736915852512
0.072,1.1932942526300845e-21,-6.0,0.010091039464916296,1.1853510505488878e-17,-4.690933746541922e-18,5.910642164569177e-18,2.2978575695626755e-22,-6.0,0.021447405064907207,1.781380545597548e-22,-6.294925352358517e-22,2.183132539365133e-22,0.002604146006019402,0.0,0.0,0.0,2.654618137885377,-1.2007283661376324e-17,-7.596275565136836e-18,-3.2511518130960428e-18,603.7574507395002,603.7574507395003,603.7574507395002,603.7574507395002
0.076,7.066017295118099e-22,-6.0,0.01012067087207251,2.9797848532769195e-17,3.5052779312207587e-17,7.446504348791383e-18,2.296439484649778e-22,-6.0,0.022668436177286467,1.7802811959645234e-22,-6.058390901286425e-20,1.4595733185669643e-21,0.005044309275687234,0.0,0.0,0.0,2.7802962848800012,-2.1764756012577176e-17,-4.2130067788462046e-17,-2.0364281281870186e-18,606.7935970016189,606.793597001619,606.7935970016189,606.7935970016189
0.08,6.576692181387727e-22,-6.0,0.010168056495380856,4.73724633607081e-17,3.9370764931080455e-17,7.741063882449655e-18,2.2949557449343874e-22,-6.0,0.02394599885261479,1.7791309484040405e-22,-7.223854869024689e-20,4.793757210773327e-21,0.008652548146947762,0.0,0.0,0.0,2.897025722909149,-2.256009465559253e-17,-1.2142622048751011e-17,-6.49458388274255e-19,609.6000145834035,609.6000145834037,609.6000145834035,609.6000145834037
0.084,9.056555378081614e-22,-6.0,0.010237168058223568,7.085874967819717e-17,2.5973482968034575e-17,7.088612207467489e-18,2.293407191688764e-22,-6.0,0.02527936871988048,1.7779304551001407e-22,-8.921862334421123e-21,1.1771509184129231e-20,0.013326863404415806,0.0,0.0,0.0,3.0054654431393955,-3.066513882191327e-17,9.527630709801696e-18,4.447042848992637e-19,612.1956031576104,612.1956031576105,612.1956031576104,612.1956031576104
0.08800000000000001,1.1675100932790246e-21,-6.0,0.010331614739527898,9.508347157111937e-17,2.033537990675585e-17,4.479672569491027e-18,2.2917946584231875e-22,-6.0,0.02666782809146507,1.7766803622195042e-22,4.0361153432280693e-20,2.3749761247432667e-20,0.018972751718493615,0.0,0.0,0.0,3.1062152316156,-3.313348193687077e-17,4.432899252966612e-18,2.7569827557389357e-18,614.5973040253671,614.5973040253672,614.5973040253671,614.5973040253672
0.09200000000000001,1.1764741094423249e-21,-6.0,0.010454667121599,1.4591172207270782e-16,4.610487250769068e-17,-3.353137511070258e-18,2.2901189709490944e-22,-6.0,0.02811066590877935,1.7753813099603955e-22,2.84525800869567e-20,4.5325069871016794e-20,0.0255004180229855,0.0,0.0,0.0,3.199837914637888,-6.585582809859147e-17,-2.876283764972345e-17,8.966420317710976e-18,616.8207245158934,616.8207245158935,616.8207245158934,616.8207245158934
0.09600000000000002,8.99080292432131e-22,-6.0,0.010609294135740157,2.370150721454961e-16,1.121502348885066e-16,-1.317639581906372e-17,2.2883809474417365e-22,-6.0,0.029607177688313144,1.7740339326012374e-22,-4.7326165798867236e-20,8.912898994242393e-20,0.03282820824940074,0.0,0.0,0.0,3.286832216606658,-1.1636212297600665e-16,-7.695699603044445e-17,1.1613218355145846e-17,618.8795696771782,618.8795696771782,618.8795696771782,618.8795696771782
0.10000000000000002,4.836173493401203e-22,-6.0,0.010798256857673655,3.7356634898098423e-16,2.225359954462007e-16,-2.168471283319812e-17,2.286581398502359e-22,-6.0,0.031156665468095753,1.7726388585488156e-22,-1.6053782824946797e-19,1.7590983299680485e-19,0.04088800094749177,0.0,0.0,0.0,3.367516204997502,-1.7566300259223606e-16,-1.3473899758042277e-16,1.048053295321825e-17,620.7829689941412,620.7829689941414,620.7829689941412,620.7829689941414
0.104,4.787110961932966e-22,-6.0,0.011023996655545367,5.363578269245801e-16,3.5655941561543706e-16,-2.985360504338943e-17,2.284721127219908e-22,-6.0,0.03275843775456411,1.771196710386115e-22,-2.5229520461760423e-19,3.2539970515198006e-19,0.04961446297350215,0.0,0.0,0.0,3.442441665088177,-2.1564223574105794e-16,-1.761644675149018e-16,1.0433409341772472e-17,622.545308738969,622.5453087389689,622.545308738969,622.5453087389689
0.108,8.846433428353355e-22,-6.0,0.011288783165536286,6.980572456997121e-16,5.58167694656778e-16,-3.846952096525684e-17,2.282800929232266e-22,-6.0,0.034411809469835686,1.769708104919793e-22,-3.5762109460644033e-19,5.445803976436363e-19,0.058945632260031314,0.0,0.0,0.0,3.5118703416728705,-2.254990702953656e-16,-2.645938789623653e-16,1.1291044075899423e-17,624.1739155962948,624.1739155962948,624.1739155962948,624.1739155962948
0.112,2.700758041670434e-21,-6.0,0.011594740299097126,8.586497393299581e-16,7.926701561936089e-16,-4.7188284914644674e-17,2.2808215927870237e-22,-6.0,0.03611610189938309,1.7681736532272897e-22,-4.407837025746492e-19,8.28446757012101e-19,0.06883540777410777,0.0,0.0,0.0,3.5760167584951232,-2.3526386777095823e-16,-3.2878181284370187e-16,1.1764983411751326e-17,625.6748474191214,625.6748474191214,625.6748474191214,625.6748474191214
0.116,7.127769512851896e-21,-6.0,0.01194377512335522,1.0222030226221344e-15,1.0227287146616966e-15,-5.3527291590425046e-17,2.278783898801784e-22,-6.0,0.03787064264010755,1.7665939607035804e-22,-4.260402541038229e-19,1.1764288105387915e-18,0.07924058473446921,0.0,0.0,0.0,3.635244509415899,-2.497029734385542e-16,-3.5480715827598754e-16,9.343070446127671e-18,627.0574997117156,627.0574997117156,627.0574997117156,627.0574997117156
0.12000000000000001,1.5052276150529563e-20,-6.0,0.012337681369883972,1.1801848383484407e-15,1.2435184516386734e-15,-5.874447172390596e-17,2.2766886209240103e-22,-6.0,0.03967476554880828,1.76496962710757e-22,-2.302941706336912e-19,1.5901579749622034e-18,0.09011865113170997,0.0,0.0,0.0,3.689714114513106,-2.5438115174740367e-16,-3.7225532516448643e-16,8.292898992810683e-18,628.3263889216246,628.3263889216246,628.3263889216246,628.3263889216246
0.12400000000000001,2.7226018507225775e-20,-6.0,0.012778077911729335,1.3377683150119973e-15,1.4613393652093981e-15,-6.500438477322885e-17,2.2745365255904167e-22,-6.0,0.04152781069104484,1.763301246608136e-22,9.634546032972532e-20,2.0705749309855117e-18,0.10143224233607924,0.0,0.0,0.0,3.7397146546424334,-2.647191696316242e-16,-3.956247854334292e-16,9.725209453708516e-18,629.4889180639698,629.4889180639698,629.4889180639698,629.4889180639698
0.128,4.438116014498329e-20,-6.0,0.013266450680247769,1.4993707308759697e-15,1.683625290936723e-15,-6.929593265902599e-17,2.272328372085905e-22,-6.0,0.04342912429038968,1.7615894078298172e-22,5.215763822305182e-19,2.622054950480969e-18,0.11314357798584089,0.0,0.0,0.0,3.7854557997877265,-2.801881470775737e-16,-4.2790960862802224e-16,7.682899176004907e-18,630.5505376371775,630.5505376371775,630.5505376371774,630.5505376371775
0.132,6.714028610184994e-20,-6.0,0.013804175963429506,1.6653928504272906e-15,1.9303289146976365e-15,-7.306373864679585e-17,2.2700649126020523e-22,-6.0,0.04537805867806793,1.7598346938981565e-22,1.0023198237321304e-18,3.2523921126441555e-18,0.12522034524943915,0.0,0.0,0.0,3.8271042591223243,-2.963999347942003e-16,-4.831792962179699e-16,7.247309896396668e-18,631.5156166000858,631.5156166000858,631.5156166000857,631.5156166000858
0.136,9.660442202984639e-20,-6.0,0.01439252223913264,1.8384128687349867e-15,2.181839358520648e-15,-7.938374180172587e-17,2.267746892295152e-22,-6.0,0.047373972242981614,1.7580376824846954e-22,1.5539406640948547e-18,3.97260635242059e-18,0.13763429412515013,0.0,0.0,0.0,3.8648266016825152,-3.159245942393807e-16,-5.233663788208538e-16,1.0383397308763212e-17,632.3884484237436,632.3884484237435,632.3884484237435,632.3884484237435
0.14,1.33803054617951e-19,-6.0,0.015032625879082342,2.0191620359761443e-15,2.4300468710291297e-15,-8.538332367356315e-17,2.265375049343812e-22,-6.0,0.0494162293821156,1.7561989458516264e-22,2.2088353583805057e-18,4.792117868971628e-18,0.15035648827799575,0.0,0.0,0.0,3.8988422272742502,-3.3678169112308117e-16,-5.545589707073137e-16,1.0268613546957685e-17,633.1744813628966,633.1744813628964,633.1744813628965,633.1744813628964
0.14400000000000002,1.7973312863718365e-19,-6.0,0.01572551388859407,2.2021272156277935e-15,2.670084874698166e-15,-9.198811650999149e-17,2.2629501150061117e-22,-6.0,0.05150420045132223,1.7543190508961035e-22,3.010741951903974e-18,5.715665687276525e-18,0.16335660783839326,0.0,0.0,0.0,3.929328680959582,-3.517294574218156e-16,-5.803953842271337e-16,1.1221957085521812e-17,633.8781339471777,633.8781339471775,633.8781339471776,633.8781339471775
0.14800000000000002,2.355333342017047e-19,-6.0,0.016472141215465214,2.3603311467291303e-15,2.880531339779976e-15,-1.0522339601280241e-16,2.2604728136763237e-22,-6.0,0.05363726171648213,1.7523985591942145e-22,3.988428319348125e-18,6.7262518755335446e-18,0.17661023714306193,0.0,0.0,0.0,3.9563913594389435,-3.3532653831614903e-16,-5.832247891851218e-16,1.923862732352688e-17,634.5021091597077,634.5021091597076,634.5021091597077,634.5021091597077
0.15200000000000002,3.023429070618106e-19,-6.0,0.01727336943572495,2.459026747259969e-15,3.031881008237214e-15,-1.2075054150528795e-16,2.257943862941201e-22,-6.0,0.055814795305038314,1.7504380270446173e-22,5.221357416431884e-18,7.741608264811916e-18,0.1900959463501892,0.0,0.0,0.0,3.9801812978408764,-2.7665509294288563e-16,-5.50627111854241e-16,2.2459371659068563e-17,635.0501195259035,635.0501195259034,635.0501195259035,635.0501195259034
0.15600000000000003,3.8058554310636207e-19,-6.0,0.018129998632432413,2.5251723326190237e-15,3.145539182546099e-15,-1.3642162161005062e-16,2.2553639736358333e-22,-6.0,0.05803618915790085,1.7484380055118416e-22,6.722359232413225e-18,8.688612498245223e-18,0.20379435940835294,0.0,0.0,0.0,4.000787892628134,-2.453944250068785e-16,-5.317024049431325e-16,2.326510388069447e-17,635.5244184195082,635.524418419508,635.5244184195082,635.524418419508
0.16000000000000003,4.707059835856018e-19,-6.0,0.019042755564794962,2.560248014397501e-15,3.225144843482552e-15,-1.5565437563632735e-16,2.2527338498990793e-22,-6.0,0.06030083698171934,1.746399040469261e-22,8.433871498300589e-18,9.544485230621091e-18,0.2176877058452594,0.0,0.0,0.0,4.018326594344913,-2.1363628407592408e-16,-5.15163178725759e-16,2.8069206474819873e-17,635.927825408306,635.9278254083059,635.927825408306,635.927825408306
0.16400000000000003,5.729050931290098e-19,-6.0,0.02001229651676422,2.5642108003355808e-15,3.2854655599077172e-15,-1.781450103817694e-16,2.2500541892285698e-22,-6.0,0.06260813820152067,1.7443216726417344e-22,1.0289405733239256e-17,1.031463961439001e-17,0.23175847148890796,0.0,0.0,0.0,4.03290949206263,-1.7970330598173948e-16,-5.111888057532998e-16,3.2664684356837443e-17,636.2630513205669,636.2630513205668,636.2630513205669,636.2630513205669
0.16800000000000004,6.876020089076827e-19,-6.0,0.021039211190237498,2.533407021512026e-15,3.31104174506406e-15,-2.052353010843548e-16,2.2473256825352944e-22,-6.0,0.06495749791370913,1.742206437647923e-22,1.2294489651793161e-17,1.0976733455974557e-17,0.24598926677118768,0.0,0.0,0.0,4.044643102057771,-1.3937624670120058e-16,-4.906777473548499e-16,3.8961346952142905e-17,636.5326507552272,636.5326507552271,636.5326507552273,636.5326507552273
0.17200000000000004,8.14800937452425e-19,-6.0,0.02212402457741876,2.4818489827183426e-15,3.315851706208943e-15,-2.335771003008792e-16,2.244549014197767e-22,-6.0,0.06734832683942643,1.740053866042282e-22,1.44382361047122e-17,1.1506389899656575e-17,0.260363490002587,0.0,0.0,0.0,4.0536323445524856,-1.1303438950458143e-16,-4.797554297110085e-16,4.153572056150836e-17,636.7391165038009,636.7391165038009,636.739116503801,636.739116503801
0.17600000000000005,9.543937227275894e-19,-6.0,0.023267200062733646,2.4183860440062456e-15,3.3146485909140616e-15,-2.583840595400086e-16,2.2417248621157785e-22,-6.0,0.06978004127826891,1.737864483356731e-22,1.6667836456697528e-17,1.1923716892150288e-17,0.2748652265206618,0.0,0.0,0.0,4.0599779881459845,-9.560699119910585e-17,-4.834650834982479e-16,3.8570273230067395e-17,636.8848235286783,636.8848235286783,636.8848235286785,636.8848235286785
0.18000000000000005,1.1068578192515604e-18,-6.0,0.024469151787688576,2.3150265642500042e-15,3.2617226721486177e-15,-2.824727539236515e-16,2.238853897763738e-22,-6.0,0.07225206306235926,1.735638810142006e-22,1.9026579909884993e-17,1.2210399178580828e-17,0.289480115291358,0.0,0.0,0.0,4.063757751146358,-4.4678761426722414e-17,-4.4025095754236023e-16,3.874987911597513e-17,636.971597628534,636.971597628534,636.9715976285341,636.971597628534
0.18400000000000005,1.2718002185917724e-18,-6.0,0.025730235469564242,2.196897344613546e-15,3.18070275172256e-15,-3.0483441080040387e-16,2.235936786243603e-22,-6.0,0.07476381951077028,1.7333773620086924e-22,2.1571852506511437e-17,1.232614705063778e-17,0.30419458435302704,0.0,0.0,0.0,4.0650696351634235,-2.0363691274691174e-17,-4.1147936974745417e-16,3.772158475657549e-17,637.0017125087306,637.0017125087306,637.0017125087307,637.0017125087306
0.188,1.4488639506042974e-18,-6.0,0.02705075500118214,2.0617495156806636e-15,3.0782387563741735e-15,-3.2371111194199336e-16,2.2329741863374043e-22,-6.0,0.07731474338429795,1.7310806496679463e-22,2.426250345096643e-17,1.2268058164370384e-17,0.3189949566525733,0.0,0.0,0.0,4.064000189360104,7.587446398621328e-18,-3.887779802776573e-16,3.456884620464083e-17,636.9771630126382,636.9771630126382,636.9771630126382,636.9771630126382
0.192,1.6375603503128631e-18,-6.0,0.028430964876105993,1.9169301314191988e-15,2.9661464958944374e-15,-3.416764334765369e-16,2.229966750559372e-22,-6.0,0.07990427284058148,1.7287491789719012e-22,2.6984862342986505e-17,1.2084872406242186e-17,0.33386829084131736,0.0,0.0,0.0,4.060632771901723,2.8122964009700366e-17,-3.7670624637875265e-16,3.4279348027689274e-17,636.899856606432,636.899856606432,636.8998566064321,636.8998566064321
0.196,1.837861871185154e-18,-6.0,0.029871072546066642,1.7240870987258288e-15,2.8060332828447347e-15,-3.58194052202526e-16,2.226915125207656e-22,-6.0,0.08253185138956735,1.7263834509537655e-22,2.9834765472290396e-17,1.1697224985510878e-17,0.3488023809626261,0.0,0.0,0.0,4.055047609684662,9.410482710229445e-17,-3.242366711949e-16,3.332591535839548e-17,636.771616344035,636.771616344035,636.7716163440351,636.771616344035
0.2,2.048883471413005e-18,-6.0,0.03137123939726477,1.5149576457676436e-15,2.62816632461834e-15,-3.750819764538399e-16,2.223819950415653e-22,-6.0,0.08519692784931537,1.7239839618676131e-22,3.281700783014052e-17,1.1051348040272949e-17,0.3637854813254595,0.0,0.0,0.0,4.047324525679107,1.2631007169071643e-16,-2.9393702645325587e-16,3.443675656373986e-17,636.5942449477607,636.5942449477607,636.5942449477608,636.5942449477607
0.20400000000000001,2.2700558032779934e-18,-6.0,0.03293158105061689,1.280686850537192e-15,2.4221931351159817e-15,-3.917041145445059e-16,2.220681860202939e-22,-6.0,0.08789895630214384,1.7215512032278675e-22,3.591449954175131e-17,1.0125307176779716e-17,0.37880606812820605,0.0,0.0,0.0,4.037544279359419,1.6996919962590283e-16,-2.533962605510403e-16,3.481974802663331e-17,636.3695570054599,636.36955700546,636.3695570054601,636.36955700546
0.20800000000000002,2.5005442376247583e-18,-6.0,0.03455217049023977,1.022729567426625e-15,2.1940106002838943e-15,-4.0425984033648094e-16,2.2175014825258103e-22,-6.0,0.09063739605111149,1.7190856618484825e-22,3.908691563312308e-17,8.933598611837022e-18,0.3938530261605955,0.0,0.0,0.0,4.025782816665803,2.1364867157842365e-16,-2.1436781573919986e-16,3.0752093128249934e-17,636.0992481837553,636.0992481837554,636.0992481837555,636.0992481837554
0.21200000000000002,2.7392110878714736e-18,-6.0,0.036233044411853495,7.720838868568294e-16,1.9701552612352573e-15,-4.113354112856483e-16,2.214279439327436e-22,-6.0,0.09341171157683369,1.7165878198818237e-22,4.226307737498303e-17,7.503068506394214e-18,0.40891612950441425,0.0,0.0,0.0,4.012104634878175,2.227504073489998e-16,-2.006886431061609e-16,2.4865983404413556e-17,635.7847436586463,635.7847436586464,635.7847436586464,635.7847436586463
0.21600000000000003,2.9850532269318907e-18,-6.0,0.03797420075568731,5.354853310846643e-16,1.7632502734577483e-15,-4.1945063560760165e-16,2.211016346587627e-22,-6.0,0.09622137249463045,1.7140581548572489e-22,4.5301591032394964e-17,5.929677970538047e-18,0.42398591634370886,0.0,0.0,0.0,3.9965804708973187,2.2348687084786216e-16,-2.0276373369807077e-16,2.6371007855478974e-17,635.4276055891675,635.4276055891675,635.4276055891676,635.4276055891675
0.22000000000000003,3.2373034090799314e-18,-6.0,0.03977560241694756,3.1362226589214113e-16,1.5681366579304612e-15,-4.271062549143976e-16,2.207712814372218e-22,-6.0,0.09906585351200384,1.7114971397193943e-22,4.813697381175639e-17,4.318072321672209e-18,0.4390531271870848,0.0,0.0,0.0,3.9792748419068404,2.2245893160725826e-16,-2.0197415959626052e-16,2.6167352940658673e-17,635.0292476317381,635.0292476317383,635.0292476317383,635.0292476317381
0.22400000000000003,3.495303509490075e-18,-6.0,0.0416371821144023,1.0352820630942134e-16,1.3737291410460472e-15,-4.3132205184805024e-16,2.2043694468820766e-22,-6.0,0.10194463438644231,1.708905242866164e-22,5.0808223018939333e-17,2.6924478376112506e-18,0.4541093217111561,0.0,0.0,0.0,3.9602435761406687,2.2388740516901404e-16,-1.8975790595119352e-16,2.2463460025243042e-17,634.5908785616099,634.5908785616099,634.5908785616099,634.5908785616099
0.22800000000000004,3.758187212029382e-18,-6.0,0.04355882914576586,-9.400036929934616e-17,1.1911119246378312e-15,-4.358986525466027e-16,2.200986842501729e-22,-6.0,0.10485719988354962,1.706282928186429e-22,5.3332638681466576e-17,1.0557282956331719e-18,0.46914551594554527,0.0,0.0,0.0,3.9395704181710833,2.235810126207398e-16,-1.8763153956539244e-16,2.3058049251466403e-17,634.1143465029219,634.1143465029219,634.114346502922,634.1143465029219
0.23200000000000004,4.025208656152328e-18,-6.0,0.04554039924376745,-2.863805130211349e-16,1.0225130538266987e-15,-4.416113324280923e-16,2.197565593847616e-22,-6.0,0.10780303973549583,1.7036306550974365e-22,5.569993209728209e-17,-5.985716096296746e-19,0.4841523128721327,0.0,0.0,0.0,3.9173205674223635,2.31076494479027e-16,-1.896602072258502e-16,2.457309851969869e-17,633.6010700290957,633.6010700290957,633.6010700290957,633.6010700290957
0.23600000000000004,4.2957725315177475e-18,-6.0,0.0475817165628211,-4.868971919117387e-16,8.605321657151104e-16,-4.448984175710052e-16,2.1941062878159734e-22,-6.0,0.11078164859978822,1.7009488785819281e-22,5.787885000437973e-17,-2.324338185368709e-18,0.4991211070858121,0.0,0.0,0.0,3.8935563345268887,2.5373320076811485e-16,-1.851962104097022e-16,2.197420050376113e-17,633.052399022479,633.052399022479,633.052399022479,633.052399022479
0.24000000000000005,4.5692633031901166e-18,-6.0,0.04968257486800157,-6.866842290823185e-16,7.036929062949846e-16,-4.482615167973195e-16,2.190609505630349e-22,-6.0,0.1137925260183595,1.698238049224977e-22,5.991082146595184e-17,-4.16665135521133e-18,0.5140440775927061,0.0,0.0,0.0,3.868338696402085,2.665929806477651e-16,-1.7878018456304308e-16,2.2197974441547813e-17,632.469651118611,632.4696511186111,632.4696511186111,632.469651118611
0.24400000000000005,4.845155510407826e-18,-6.0,0.05184273166655911,-8.769015430035253e-16,5.431313721535624e-16,-4.544038882067914e-16,2.18707582288875e-22,-6.0,0.11683517637697126,1.6954986132505373e-22,6.185935288834194e-17,-6.122101756010387e-18,0.5289129958357078,0.0,0.0,0.0,3.8417415810571334,2.6908001630727966e-16,-1.629470815628674e-16,2.5582702684663853e-17,631.854442868548,631.8544428685482,631.8544428685482,631.8544428685481
0.24800000000000005,5.122720687643594e-18,-6.0,0.054061913698689505,-1.0020987763678305e-15,3.899176741723176e-16,-4.604410361486368e-16,2.1835058096104257e-22,-6.0,0.11990910886493011,1.6927310125577139e-22,6.371710007147765e-17,-7.995146584859103e-18,0.5437196545055686,0.0,0.0,0.0,3.813829000381711,2.0616147297119311e-16,-1.5702270066217896e-16,2.5712009738471787e-17,631.2081622345991,631.2081622345992,631.2081622345992,631.2081622345992
0.25200000000000006,5.401357562083389e-18,-6.0,0.05633983342160807,-1.0785100028091097e-15,2.4407300137520755e-16,-4.687337143756124e-16,2.1799000302822955e-22,-6.0,0.12301383743511432,1.689935684756752e-22,6.545927980807935e-17,-9.53464114550937e-18,0.558457519731098,0.0,0.0,0.0,3.784632563506234,1.5775375599823343e-16,-1.5253423639220343e-16,2.859472966324445e-17,630.5314467017267,630.531446701727,630.5314467017268,630.5314467017268
0.256,5.680576441735228e-18,-6.0,0.05867617684559027,-1.1091203364149712e-15,9.815094450774215e-17,-4.787890617110728e-16,2.176259043905013e-22,-6.0,0.1261488807643086,1.6871130632047505e-22,6.707663636059289e-17,-1.0609930025612164e-17,0.5731214963065167,0.0,0.0,0.0,3.754209092395363,1.0949575057220734e-16,-1.4068057691128207e-16,3.0994329125730045e-17,629.825517373058,629.8255173730582,629.8255173730581,629.8255173730582
0.26,5.959826956128419e-18,-6.0,0.061070604657457284,-1.0916939376435325e-15,-4.857288614209497e-17,-4.882368226418362e-16,2.172583404038677e-22,-6.0,0.1293137622138451,1.6842635770410977e-22,6.861104185462627e-17,-1.1232066835790117e-17,0.5877054273709617,0.0,0.0,0.0,3.722614042010942,5.5494909182311153e-17,-1.2688237286597483e-16,3.0697476202927255e-17,629.091564873064,629.0915648730642,629.0915648730642,629.0915648730642
0.264,6.238657057183895e-18,-6.0,0.06352275775787802,-1.0690722974631081e-15,-2.0643428960592988e-16,-4.977107134137687e-16,2.168873658848192e-22,-6.0,0.13250800979054747,1.6813876512226353e-22,7.013395735707214e-17,-1.1482812213300031e-17,0.6022034943945681,0.0,0.0,0.0,3.689892506064606,4.8236598996342314e-17,-1.0166361863333839e-16,3.111595460830556e-17,628.3305404076532,628.3305404076533,628.3305404076532,628.3305404076533
0.268,6.516181198429209e-18,-6.0,0.06603226528380404,-1.0287143579307296e-15,-3.4662588512910796e-16,-5.0457539645599e-16,2.165130351148274e-22,-6.0,0.13573115610797692,1.6784857065585504e-22,7.158571965435917e-17,-1.1490410846723042e-17,0.6166112896851741,0.0,0.0,0.0,3.656073996344496,2.5978426234084872e-17,-1.039060058345203e-16,2.845701497732952e-17,627.5430331371385,627.5430331371387,627.5430331371387,627.5430331371387
0.272,6.791838071510161e-18,-6.0,0.06859871574352114,-9.691675174306656e-16,-4.676935739947837e-16,-5.141742183193492e-16,2.1613540184481135e-22,-6.0,0.13898273834797734,1.6755581597449983e-22,7.284496023682527e-17,-1.1331838136969409e-17,0.6309228215931495,0.0,0.0,0.0,3.621247049958602,8.111532836264773e-19,-1.1209985525518597e-16,3.1932806591266635e-17,626.7310089015475,626.7310089015476,626.7310089015476,626.7310089015476
0.276,7.065363104769426e-18,-6.0,0.07122168036102972,-9.11088216293413e-16,-5.902922499247099e-16,-5.23048353109853e-16,2.157545192995691e-22,-6.0,0.14226229822251724,1.672605423399458e-22,7.389021373687411e-17,-1.0991699906138667e-17,0.6451312999821462,0.0,0.0,0.0,3.585454189373805,-1.5471076656011312e-18,-1.0046983351895636e-16,3.1480415152503226e-17,625.8953656977062,625.8953656977062,625.8953656977062,625.8953656977063
0.28,7.336283534019284e-18,-6.0,0.07390071319911459,-8.4931448809301955e-16,-7.12196930916978e-16,-5.325395760654793e-16,2.15370440182175e-22,-6.0,0.14556938193582664,1.669627906094822e-22,7.482458931505981e-17,-1.0547752797944973e-17,0.6592313902528429,0.0,0.0,0.0,3.548738305732561,-9.83281021665047e-18,-8.868039454485908e-17,3.2565671379990825e-17,625.0370122029541,625.0370122029543,625.0370122029542,625.0370122029543
0.28400000000000003,7.60416267399811e-18,-6.0,0.07663532528349588,-7.797681661318193e-16,-8.352338075974295e-16,-5.406462658612142e-16,2.14983216678343e-22,-6.0,0.14890354014682664,1.6666260123932222e-22,7.573514237211532e-17,-1.0040864791356506e-17,0.6732165444728835,0.0,0.0,0.0,3.5111954196355564,-2.3133353824661253e-17,-7.48221107841229e-17,3.1338057006493745e-17,624.1581042253786,624.1581042253787,624.1581042253787,624.1581042253787
0.28800000000000003,7.868566696120871e-18,-6.0,0.07942503370382105,-7.142956346784597e-16,-9.6158692579998e-16,-5.487339521360989e-16,2.145929004607566e-22,-6.0,0.15226432793184935,1.6636001428795952e-22,7.659799905686836e-17,-9.458815526464763e-18,0.6870814232699932,0.0,0.0,0.0,3.4728233388772756,-2.3131999141087152e-17,-5.79905141753229e-17,3.1648743792413573e-17,623.2585033768164,623.2585033768165,623.2585033768165,623.2585033768165
0.29200000000000004,8.128927646985968e-18,-6.0,0.0822693753265255,-6.465599090372308e-16,-1.0809076703095118e-15,-5.528872835240382e-16,2.1419954269336466e-22,-6.0,0.15565130474764624,1.6605506941949883e-22,7.741542348641116e-17,-8.842130701960969e-18,0.7008273266778166,0.0,0.0,0.0,3.4335919133651336,-3.025197132361689e-17,-5.107270933346082e-17,2.738490070011937e-17,622.337411521575,622.3374115215751,622.3374115215751,622.3374115215751
0.29600000000000004,8.384320127143873e-18,-6.0,0.08516784327425309,-5.281690185799524e-16,-1.1459247381573645e-15,-5.562392096527707e-16,2.1380319403564443e-22,-6.0,0.15906403439468267,1.6574780590696055e-22,7.791711165431996e-17,-8.029114781959438e-18,0.7144522160001053,0.0,0.0,0.0,3.393599343847529,-9.403557792079908e-17,-9.517283268251534e-17,2.6619280910682983e-17,621.3970438919766,621.3970438919768,621.3970438919768,621.3970438919768
0.30000000000000004,8.634661470903105e-18,-6.0,0.08811989205656125,-3.764693226617395e-16,-1.175438890293994e-15,-5.552857712662834e-16,2.134039046468316e-22,-6.0,0.16250208498071644,1.6543826263556008e-22,7.790001314236408e-17,-6.790158837365928e-18,0.7279486641488462,0.0,0.0,0.0,3.3529348775427894,-1.410271990703394e-16,-1.3004886111448116e-16,2.1727574347996524e-17,620.4394161944496,620.4394161944496,620.4394161944496,620.4394161944496
0.30400000000000005,8.87938506389487e-18,-6.0,0.09112498253192862,-1.4719912749939945e-16,-1.1259037769260383e-15,-7.497124538592083e-07,2.130017241901172e-22,-6.0,0.1659650288846585,1.6512647810596155e-22,7.717219786313059e-17,-4.893903368071394e-18,0.741310498634136,0.0,0.0,0.0,3.31159780588255,-2.419823690996293e-16,-2.124575716708387e-16,8.757826973968255e-07,619.4631395462452,619.4631395462452,619.4657237642459,619.4657237642459
0.30800000000000005,9.118568430395976e-18,-6.0,0.094182564250416,1.6817523000692349e-16,-9.928377960087026e-16,-2.7136170105969433e-06,2.1259670183681255e-22,-6.0,0.16945244272071341,1.6481249043750638e-22,7.551477736060031e-17,-2.0489062836440482e-18,0.7545361220791025,0.0,0.0,0.0,3.2696231175899904,-3.5820702873597583e-16,-3.1249811930027396e-16,2.324936680097641e-06,618.4693997520894,618.4693997520893,618.4762710639811,618.4762710639812
0.31200000000000006,9.352857077942602e-18,-6.0,0.09729203931643832,5.457082781818565e-16,-7.954145991580203e-16,-5.174067346293315e-06,2.1218888627048144e-22,-6.0,0.1729639073027977,1.6449633737141692e-22,7.283018369378772e-17,1.9440942633286644e-18,0.7676198778857307,0.0,0.0,0.0,3.2271195662891303,-4.523577922214627e-16,-4.025009128894591e-16,2.9856249095003338e-06,617.4627036747105,617.4627036747104,617.4715420119517,617.4715420119518
0.31600000000000006,9.583195784962531e-18,-6.0,0.10045279498169478,9.728558584733275e-16,-5.580361980720277e-16,-7.99592468453457e-06,2.1177832569104056e-22,-6.0,0.1764990076092341,1.6417805627397518e-22,6.938691847601044e-17,6.983022064071705e-18,0.7805546161348611,0.0,0.0,0.0,3.184131333153609,-5.361108940966131e-16,-4.723951218021703e-16,3.508839446127658e-06,616.4430706704043,616.4430706704042,616.4534750459171,616.4534750459172
0.32,9.810410997809258e-18,-6.0,0.10366420900468654,1.4455375993194294e-15,-2.7699862157725674e-16,-1.1067761877824946e-05,2.113650678188281e-22,-6.0,0.18005733274771926,1.6385768413967686e-22,6.539355584252822e-17,1.2914906167765852e-17,0.7933355802027962,0.0,0.0,0.0,3.140692258057116,-6.184919733078155e-16,-5.487232562881304e-16,3.916729989041012e-06,615.411207585426,615.4112075854258,615.4228408951018,615.4228408951018
0.324,1.0035579274853723e-17,-6.0,0.10692564996265383,1.956022901174186e-15,4.110911961719332e-17,-1.4294668253526564e-05,2.1094915989864069e-22,-6.0,0.18363847592056373,1.6353525759436109e-22,6.09573832420717e-17,1.9673612939389217e-17,0.8059604201150774,0.0,0.0,0.0,3.0968359123574825,-6.949595148972856e-16,-6.239225646646462e-16,4.224014835377323e-06,614.3678299196683,614.367829919668,614.380397211148,614.380397211148
0.328,1.0260022565104638e-17,-6.0,0.11023647761241585,2.4851202630029998e-15,3.7962994516943034e-16,-1.7596285542985716e-05,2.1053064870373919e-22,-6.0,0.18724203439020093,1.6321081289831571e-22,5.616864707332049e-17,2.7144269162053332e-17,0.8184268644777198,0.0,0.0,0.0,3.052595489195186,-7.516016161700614e-16,-6.859485140431611e-16,4.443796156522123e-06,613.3136507566998,613.3136507566995,613.3268946590706,613.3268946590706
0.332,1.0485182011897811e-17,-6.0,0.11359604328174613,3.0161652359717673e-15,7.17851953213291e-16,-2.0905092846760645e-05,2.1010958053982316e-22,-6.0,0.19086760944496445,1.6288438594935854e-22,5.127609124537781e-17,3.513320105598333e-17,0.830732733572115,0.0,0.0,0.0,3.008003729514229,-7.900568374825575e-16,-7.276730005974023e-16,4.587770260585314e-06,612.2493787924365,612.2493787924362,612.2630755450775,612.2630755450775
0.336,1.0712348449955764e-17,-6.0,0.1170036966252454,3.5524775198478557e-15,1.050974649579928e-15,-2.4165434596710995e-05,2.096860012489747e-22,-6.0,0.19451480636513077,1.6255601228589467e-22,4.649745169914407e-17,4.3468996416595747e-17,0.842876580873196,0.0,0.0,0.0,2.9630799922313455,-8.325217620294187e-16,-7.632325657716603e-16,4.667025105379141e-06,611.1754078810274,611.175407881027,611.1893657291595,611.1893657291596
0.34,1.0942635410965065e-17,-6.0,0.12045879595561615,4.089250002137156e-15,1.3889716079815253e-15,-2.7330898568127204e-05,2.0925995621357146e-22,-6.0,0.19818323438922597,1.622257270899501e-22,4.1910597656016574e-17,5.20608192009754e-17,0.8548586884777414,0.0,0.0,0.0,2.917822782008768,-8.697334567984159e-16,-8.091248376882201e-16,4.690072980953857e-06,610.0916382109094,610.0916382109091,610.1056899050625,610.1056899050626
0.34400000000000003,1.117727247756945e-17,-6.0,0.1239606750206537,4.629434907113567e-15,1.7303632241079517e-15,-3.0363887722667565e-05,2.0883149036016937e-22,-6.0,0.201872506680594,1.618935651901816e-22,3.7468337421332386e-17,6.090569513948076e-17,0.8666777043915858,0.0,0.0,0.0,2.872297813479413,-9.1042402895259e-16,-8.559402513022496e-16,4.665305583631789e-06,608.9995827103022,608.9995827103016,609.013585264741,609.0135852647411
0.34800000000000003,1.1417653019467517e-17,-6.0,0.12750869795400885,5.158617511056619e-15,2.0581495900781716e-15,-3.323440120064526e-05,2.0840064816335512e-22,-6.0,0.20558224029422512,1.6155956106486348e-22,3.319652670893107e-17,6.995747594268818e-17,0.8783340494225689,0.0,0.0,0.0,2.8264601198065034,-9.345154107914615e-16,-8.861189174444122e-16,4.600052595884241e-06,607.8981040782035,607.898104078203,607.9119357994958,607.9119357994958
0.35200000000000004,1.1665104391836765e-17,-6.0,0.13110217375470862,5.6605305154087045e-15,2.3579119842918334e-15,-3.591897549263471e-05,2.079674736495688e-22,-6.0,0.20931205614384207,1.6122374884485086e-22,2.930257696020023e-17,7.905711815305421e-17,0.8898246401284157,0.0,0.0,0.0,2.7804373889859337,-9.388585776593944e-16,-8.989844552686098e-16,4.500718744726167e-06,606.7902183594654,606.790218359465,606.8037761092014,606.8037761092014
0.35600000000000004,1.1920725585808201e-17,-6.0,0.1347403989312634,6.1314672880394494e-15,2.627423346305221e-15,-3.840002960903935e-05,2.075320104008965e-22,-6.0,0.21306157896924244,1.6088616231651997e-22,2.5986199603578544e-17,8.798298552829514e-17,0.9011437875929647,0.0,0.0,0.0,2.734272577684518,-9.370086302001783e-16,-9.058544103941848e-16,4.3732122563180485e-06,605.6769185447362,605.6769185447357,605.690116418285,605.690116418285
0.36000000000000004,1.2185276880070362e-17,-6.0,0.1384226667465619,6.591001968177353e-15,2.886259470677624e-15,-4.0665002730508105e-05,2.0709430155883384e-22,-6.0,0.21683043730389512,1.6054683492468566e-22,2.3196510415748654e-17,9.669682175566768e-17,0.9122868593926746,0.0,0.0,0.0,2.6879903356008295,-9.558978110447459e-16,-9.3057252075053e-16,4.2226755513376106e-06,604.5587631459957,604.5587631459953,604.5715302903568,604.5715302903568
0.36400000000000005,1.2459716004144167e-17,-6.0,0.14214826737095893,7.03358534196384e-15,3.1285034703971935e-15,-4.270566304139727e-05,2.0665438982801983e-22,-6.0,0.220618263442789,1.6020579977549606e-22,2.0820622313481386e-17,1.052785802994719e-16,0.9232530588188294,0.0,0.0,0.0,2.641615162230148,-9.675272929602915e-16,-9.506839076410846e-16,4.053649802996928e-06,603.4363119590934,603.4363119590929,603.4485908609973,603.4485908609973
0.36800000000000005,1.274544564150235e-17,-6.0,0.14591648809382007,7.403779493850933e-15,3.298719119257494e-15,-4.451749386611689e-05,2.0621231747994175e-22,-6.0,0.22442469341053226,1.5986308963930482e-22,1.9055231423599335e-17,1.1357967018054876e-16,0.934041627526938,0.0,0.0,0.0,2.59517128285677,-9.132609543633494e-16,-9.110163974946671e-16,3.870136857513302e-06,602.3101230136881,602.3101230136876,602.32186796141,602.32186796141
0.37200000000000005,1.3043458709592734e-17,-6.0,0.14972661356675288,7.664236626813264e-15,3.3610385946928607e-15,-4.6099148430727704e-05,2.0576812635661134e-22,-6.0,0.2282493669296998,1.5951873695352088e-22,1.8538675204939244e-17,1.209704258007152e-16,0.9446518614337955,0.0,0.0,0.0,2.548682577014968,-8.104322365362055e-16,-8.210530413207422e-16,3.675654192036594e-06,601.1807507704841,601.1807507704838,601.1919264696987,601.1919264696988
0.37600000000000006,1.3353865785368604e-17,-6.0,0.15357791304921078,7.826381498918561e-15,3.3298447898589876e-15,-4.7452955485081076e-05,2.0532185787421206e-22,-6.0,0.23209192738942785,1.59172773825436e-22,1.9697891568023702e-17,1.2690068034654933e-16,0.9550818163572838,0.0,0.0,0.0,2.502198949150249,-7.187911477128287e-16,-7.369606681426416e-16,3.4776584243823597e-06,600.0493819963808,600.0493819963806,600.059975637559,600.0599756375591
0.38000000000000006,1.36766120866715e-17,-6.0,0.1574696554388154,7.891294921194702e-15,3.2017871645536527e-15,-4.858112128589313e-05,2.048735530267181e-22,-6.0,0.23595202181425315,1.588252320350304e-22,2.253553724284025e-17,1.3120311306473618e-16,0.9653297882228656,0.0,0.0,0.0,2.4557403452405264,-6.218025298096891e-16,-6.409628805563382e-16,3.272978275033789e-06,598.9164971896629,598.9164971896627,598.9264861982568,598.926486198257
0.384,1.4011296461703947e-17,-6.0,0.16140115504749827,7.857101539623745e-15,2.974622376149399e-15,-4.948836828502685e-05,2.0442325238948511e-22,-6.0,0.23982930083319517,1.5847614303775645e-22,2.6999422942660306e-17,1.3386006110640743e-16,0.9753990893378444,0.0,0.0,0.0,2.4092338740235024,-5.160204011981872e-16,-5.318104817127988e-16,3.0646279010771513e-06,597.7803001312651,597.7803001312649,597.7896710443571,597.789671044357
0.388,1.4356893978403427e-17,-6.0,0.16537171357648062,7.748533671143041e-15,2.673084318066171e-15,-5.018199268192096e-05,2.039709961228129e-22,-6.0,0.24372341864907995,1.581255379673004e-22,3.296172940072432e-17,1.349220891546384e-16,0.9852942483629115,0.0,0.0,0.0,2.3627230132214345,-4.3231797048735133e-16,-4.3725846539347594e-16,2.8557923426955057e-06,596.6418325588787,596.6418325588786,596.6505815686668,596.6505815686669
0.392,1.4712199238409783e-17,-6.0,0.1693806022920358,7.580723137072215e-15,2.3123063977833795e-15,-5.067045163861031e-05,2.0351682397548032e-22,-6.0,0.24763403300810274,1.5777344763832301e-22,4.012624844976129e-17,1.3458128544652964e-16,0.9950124220863609,0.0,0.0,0.0,2.3162878707129395,-3.6112375923635977e-16,-3.5236889215631144e-16,2.6481124795407795e-06,595.5030459484532,595.5030459484531,595.5111742281345,595.5111742281345
0.396,1.5075811333096604e-17,-6.0,0.17342709699639342,7.367696761982852e-15,1.9059475316152087e-15,-5.0962199615728465e-05,2.0306077528825263e-22,-6.0,0.251560805169629,1.5741990254917836e-22,4.816836963020803e-17,1.330966572850977e-16,1.004549962916948,0.0,0.0,0.0,2.2699386037865894,-3.021408175982019e-16,-2.760698983302574e-16,2.441918110987282e-06,594.3641878446839,594.3641878446838,594.3716975843162,594.3716975843163
0.4,1.5446341375058874e-17,-6.0,0.17751049740130798,7.120531411533794e-15,1.4503043569606313e-15,-5.1066611237339364e-05,2.026028889973613e-22,-6.0,0.2555033998762308,1.5706493288461169e-22,5.688334305670743e-17,1.3071534897262548e-16,1.0139085043724765,0.0,0.0,0.0,2.2236459588812463,-2.5285200390810354e-16,-1.912233563467182e-16,2.238617567769694e-06,593.2245345994507,593.2245345994506,593.2314323492967,593.2314323492967
0.404,1.5822311528105086e-17,-6.0,0.1816300805597801,6.8155685609857565e-15,9.361278514211547e-16,-5.0995728888210065e-05,2.0214320363795676e-22,-6.0,0.2594614853239578,1.5670856851843597e-22,6.625691660324694e-17,1.274754270661683e-16,1.0230888466458032,0.0,0.0,0.0,2.1774744834857533,-1.734293063456147e-16,-8.987699856187649e-17,2.0416990899282404e-06,592.0856703215798,592.0856703215799,592.091973419222,592.0919734192221
0.40800000000000003,1.620193950010658e-17,-6.0,0.18578509093709797,6.450945680023077e-15,3.6562197139161907e-16,-5.076011483394667e-05,2.016817573475341e-22,-6.0,0.26343473313284044,1.5635083901618769e-22,7.63929830008359e-17,1.2321245257000005e-16,1.0320863674359386,0.0,0.0,0.0,2.1315096501911555,-8.766643740087376e-17,1.7877347269594724e-17,1.8499159254745963e-06,590.9497164168533,590.9497164168534,590.955438425658,590.9554384256581
0.41200000000000003,1.6583048812782758e-17,-6.0,0.18997479694550057,6.0458651532070855e-15,-2.3868281216723983e-16,-5.037094192922725e-05,2.01218587869332e-22,-6.0,0.2674228183176237,1.559917736377618e-22,8.718189042353586e-17,1.1783872138702353e-16,1.0408982139368583,0.0,0.0,0.0,2.0857232838723996,-1.99925658032155e-17,1.095195293297353e-16,1.664403559169424e-06,589.8159894435721,589.8159894435722,589.8211475388127,589.8211475388127
0.41600000000000004,1.6962867835293277e-17,-6.0,0.1941984687737305,5.5833211207718215e-15,-8.073170211823731e-16,-4.983948222426636e-05,2.0075373255570503e-22,-6.0,0.27142541925873015,1.556314013400261e-22,9.801841515046018e-17,1.1142625884774613e-16,1.0495265651905226,0.0,0.0,0.0,2.040131492212114,7.058898852288967e-17,1.3142494609150312e-16,1.4857259400218286e-06,588.684901490474,588.6849014904741,588.6895147009421,588.689514700942
0.42000000000000004,1.733916878072252e-17,-6.0,0.19845537860146842,5.057017069451802e-15,-1.3166126252020981e-15,-4.9176995677072974e-05,2.0028722837146958e-22,-6.0,0.27544221767345,1.5526975077941496e-22,1.0807820424245171e-16,1.038852323765867e-16,1.0579725942849505,0.0,0.0,0.0,1.9947499415179542,1.727755928505004e-16,1.1956917291063024e-16,1.3143218755858507e-06,587.5568569976684,587.5568569976685,587.5609458317505,587.5609458317504
0.42400000000000004,1.771033723179664e-17,-6.0,0.2027448007825032,4.505371175132826e-15,-1.782807493495486e-15,-4.8394638394534614e-05,1.9981911189722358e-22,-6.0,0.27947289858735697,1.549068503145031e-22,1.1690552951369496e-16,9.519823378915032e-17,1.066236809962351,0.0,0.0,0.0,1.9495939128825444,2.348275394669836e-16,1.1766846835982222e-16,1.1505232740404117e-06,586.432254035189,586.4322540351891,586.4358401599426,586.4358401599426
0.42800000000000005,1.8074753496442535e-17,-6.0,0.2070660120396589,3.932816234137088e-15,-2.2044060207011283e-15,-4.75033849528981e-05,1.9934941933264022e-22,-6.0,0.28351715030594793,1.5454272800855885e-22,1.2453461332986292e-16,8.564899523991234e-17,1.0743197682848484,0.0,0.0,0.0,1.9046782720322128,2.938212230362753e-16,1.1282344216814096e-16,9.945678159844643e-07,585.3114834465498,585.31148344655,585.3145894030293,585.3145894030292
0.43200000000000005,1.8430995998408438e-17,-6.0,0.21141827908008914,3.330112882385886e-15,-2.5828682010254533e-15,-4.65147907539827e-05,1.988781864997359e-22,-6.0,0.28757466438650475,1.5417741163207764e-22,1.3105508385048308e-16,7.547476097803255e-17,1.0822208156661768,0.0,0.0,0.0,1.8600429932331919,3.6543354032773454e-16,1.0601426314559488e-16,8.475770465628812e-07,584.1955660839062,584.1955660839064,584.1982180569573,584.1982180569573
0.43600000000000005,1.8777979014886757e-17,-6.0,0.21580087301626144,2.704647888755267e-15,-2.936655358712237e-15,-4.5438168535383255e-05,1.9840544884611244e-22,-6.0,0.291645135610177,1.5381092866529543e-22,1.3660846384801222e-16,6.46454255481429e-17,1.0899395120186948,0.0,0.0,0.0,1.8156991511145626,4.3090247445741674e-16,1.1541923700952475e-16,7.073988856460895e-07,583.0848109091748,583.084810909175,583.0870284977673,583.0870284977672
0.44000000000000006,1.9114177523147602e-17,-6.0,0.2202131155302069,2.1022426242811516e-15,-3.231021282152784e-15,-4.428279266848425e-05,1.97931241448174e-22,-6.0,0.29572826195428326,1.5344330630068267e-22,1.4123133375664387e-16,5.3344947354970244e-17,1.0974804440598007,0.0,0.0,0.0,1.7715640370209087,4.448574611866658e-16,8.892520670269579e-17,5.743647808921375e-07,581.9771688887598,581.97716888876,581.9789728630468,581.9789728630467
0.44400000000000006,1.9438251384559347e-17,-6.0,0.22465434219688796,1.549888552741985e-15,-3.4326832485437468e-15,-4.305845768974612e-05,1.974555990143187e-22,-6.0,0.29982374456482985,1.5307457144541842e-22,1.4450593470282892e-16,4.2151459192776533e-17,1.1048514995165237,0.0,0.0,0.0,1.7276278136641467,4.261373204674321e-16,1.8941108608073338e-17,4.4945770485511934e-07,580.8724086509147,580.8724086509151,580.8738230003285,580.8738230003283
0.44800000000000006,1.9749723760621717e-17,-6.0,0.22912384752549292,1.0379981131694041e-15,-3.563044708300059e-15,-4.177451909864523e-05,1.9697855588810511e-22,-6.0,0.30393128772924555,1.5270475072384532e-22,1.4609428551620705e-16,3.154880069713033e-17,1.1120518129102863,0.0,0.0,0.0,1.6839917876040105,4.1557588187993456e-16,-4.104964912273748e-17,3.325621738441239e-07,579.7731018843944,579.7731018843946,579.7741503726174,579.7741503726173
0.45200000000000007,2.0048114498665127e-17,-6.0,0.23362094480974593,5.67327960609607e-16,-3.617646916649643e-15,-4.043963385440919e-05,1.9650014605139413e-22,-6.0,0.30805059884933,1.5233387047990503e-22,1.4601360089383536e-16,2.165178852879697e-17,1.1190794899825165,0.0,0.0,0.0,1.6406371542100882,4.017212404864922e-16,-1.1044065335606932e-16,2.2324218818556118e-07,578.6788051938796,578.6788051938798,578.6795103537543,578.679510353754
0.45600000000000007,2.033345400282186e-17,-6.0,0.23814494915560389,1.4935153871858553e-16,-3.6171604828150364e-15,-3.906219900818126e-05,1.9602040312746585e-22,-6.0,0.3121813884144149,1.5196195677955474e-22,1.4452187949566151e-16,1.2491448801979053e-17,1.1259346633229557,0.0,0.0,0.0,1.5975790019851,3.719785359862033e-16,-1.6622092969824132e-16,1.215460599939916e-07,577.5899289609131,577.5899289609133,577.5903136149464,577.5903136149462
0.4600000000000001,2.060587052733132e-17,-6.0,0.2426951761488405,-2.2625720487867217e-16,-3.5722845818312086e-15,-3.76502020653482e-05,1.955393603841121e-22,-6.0,0.3163233699747358,1.5158903541316461e-22,1.4185484272128534e-16,4.13706469684369e-18,1.1326186707440815,0.0,0.0,0.0,1.5548351117855845,3.509823776618715e-16,-2.1427212649716158e-16,2.7337214483125184e-08,576.5069551029828,576.506955102983,576.5070417789784,576.5070417789783
0.4640000000000001,2.0865684499462925e-17,-6.0,0.24727093651054513,-5.724153167917766e-16,-3.497048211139861e-15,-3.621157183786427e-05,1.9505705073670479e-22,-6.0,0.3204762601150138,1.5121513189789628e-22,1.3832527933158497e-16,-3.4600127820354515e-18,1.1391310650174096,0.0,0.0,0.0,1.5124341414771876,3.4243489515690866e-16,-2.5118595351536184e-16,-5.912733177219815e-08,575.430644764787,575.4306447647871,575.4304569436233,575.4304569436232
0.4680000000000001,2.1113183381858534e-17,-6.0,0.2518715212108659,-8.876330677495341e-16,-3.391444093492174e-15,-3.4753680026366913e-05,1.9457350675123983e-22,-6.0,0.3246397784282443,1.5084027148006284e-22,1.3417468791092505e-16,-1.0481315846743537e-17,1.1454694185737746,0.0,0.0,0.0,1.4704351610688438,3.303755674162965e-16,-2.8995436730311897e-16,-1.3817464970653988e-07,574.362539753408,574.362539753408,574.362100017842,574.3621000178417
0.4720000000000001,2.134863156313816e-17,-6.0,0.2564962272338619,-1.1615486218265922e-15,-3.2443753554692576e-15,-3.328329840859877e-05,1.940887606473574e-22,-6.0,0.32881364748969266,1.5046447913747011e-22,1.2939516162326297e-16,-1.690324869302352e-17,1.1516318187506676,0.0,0.0,0.0,1.4288456248462758,3.043206764075688e-16,-3.436398783301372e-16,-2.102041830889581e-07,573.3028766914804,573.3028766914805,573.3022064880462,573.3022064880461
0.4760000000000001,2.157262528608307e-17,-6.0,0.2611443593672964,-1.3996897101258138e-15,-3.0643301020345723e-15,-3.1806712661739904e-05,1.9360284430133825e-22,-6.0,0.332997592831094,1.5008777958173957e-22,1.2394272140672157e-16,-2.2645700534924413e-17,1.1576189413134237,0.0,0.0,0.0,1.3876692073770207,2.820875830209866e-16,-3.9427992729478265e-16,-2.7550657521105263e-07,572.2517968335695,572.2517968335696,572.2509168100105,572.2509168100104
0.4800000000000001,2.1785823678611945e-17,-6.0,0.26581522994418605,-1.618671510442547e-15,-2.8553642346910867e-15,-3.0329734657483828e-05,1.931157892490765e-22,-6.0,0.33719134291505654,1.4971019726061284e-22,1.1789086411756722e-16,-2.775866887721228e-17,1.1634327246220324,0.0,0.0,0.0,1.3469099029708893,2.7697648202923435e-16,-4.43641994679122e-16,-3.3437762880176336e-07,571.2094502845084,571.2094502845085,571.2083802657329,571.2083802657328
0.4840000000000001,2.198897043441475e-17,-6.0,0.27050815864549743,-1.8118342263363597e-15,-2.6207967030984245e-15,-2.8857715394448865e-05,1.9262762668902892e-22,-6.0,0.3413946291096666,1.4933175636023824e-22,1.113639026641814e-16,-3.237406179535524e-17,1.1690750444757425,0.0,0.0,0.0,1.3065719093932437,2.629312415568136e-16,-4.926438812583764e-16,-3.871170897212887e-07,570.1759930740138,570.175993074014,570.1747520418111,570.174752041811
0.488,2.218292330565862e-17,-6.0,0.27522247235015934,-1.9861886601454374e-15,-2.3676426740813942e-15,-2.7395559308782886e-05,1.9213838748514112e-22,-6.0,0.3456071856632933,1.4895248080743918e-22,1.0447616418139645e-16,-3.6576953315137154e-17,1.174547729931541,0.0,0.0,0.0,1.2666595377056786,2.554420248757097e-16,-5.371852333505917e-16,-4.3402653814200244e-07,569.1515848670699,569.1515848670699,569.1501909464939,569.1501909464937
0.492,2.2368559569646012e-17,-6.0,0.27995751070611585,-2.14283570276413e-15,-2.098854810199677e-15,-2.594755269826138e-05,1.9164810216975048e-22,-6.0,0.3498287496795927,1.4857239427196464e-22,9.732094014011389e-17,-4.038599663638716e-17,1.1798531429342787,0.0,0.0,0.0,1.2271656056855533,2.480739215696131e-16,-5.805493618829625e-16,-4.756259769186307e-07,568.1360905977731,568.136090597773,568.1345603458491,568.1345603458489
0.496,2.2546819938248228e-17,-6.0,0.2847126405410142,-2.28324592358641e-15,-1.8192354511405055e-15,-2.4517639397016835e-05,1.9115680094646643e-22,-6.0,0.35405906109270807,1.48191520168722e-22,9.00282038226787e-17,-4.384878274019831e-17,1.1849956366420167,0.0,0.0,0.0,1.188053319606283,2.4132153663848014e-16,-6.209268341561336e-16,-5.121384607405322e-07,567.128609854997,567.1286098549969,567.126959202592,567.1269592025918
0.5,2.2718474247467153e-17,-6.0,0.2894872266916499,-2.4055651715375284e-15,-1.5140017314092805e-15,-2.310959879369941e-05,1.9066451369302771e-22,-6.0,0.3582978626426667,1.478098816599922e-22,8.257023338810457e-17,-4.6980525236082125e-17,1.189978651311191,0.0,0.0,0.0,1.149344263205523,2.313917118655731e-16,-6.782040947592983e-16,-5.435928782628957e-07,566.1297429448448,566.1297429448448,566.1279878215877,566.1279878215875
0.504,2.2884653754991855e-17,-6.0,0.29428061662269184,-2.52752379923894e-15,-1.1975593305429294e-15,-2.1726793911005976e-05,1.901712699641373e-22,-6.0,0.3625448998509707,1.474275016576274e-22,7.491161808324554e-17,-4.984727621193617e-17,1.1948013524836265,0.0,0.0,0.0,1.1110913416553103,2.4101448555365974e-16,-7.253987720715218e-16,-5.703188898967609e-07,565.140904931082,565.140904931082,565.1390602942151,565.1390602942149
0.508,2.3046586692468798e-17,-6.0,0.2990921641773626,-2.64579544971714e-15,-8.894949373665585e-16,-2.0372174470070123e-05,1.896770989942749e-22,-6.0,0.3667999209963804,1.470444028252313e-22,6.723784285635361e-17,-5.257757225162808e-17,1.1994621731376056,0.0,0.0,0.0,1.073299852643066,2.468134475579116e-16,-7.527198232287315e-16,-5.926594389036712e-07,564.1622864126714,564.1622864126714,564.1603661923757,564.1603661923755
0.512,2.320521027957494e-17,-6.0,0.30392123131216847,-2.760377474484577e-15,-5.831628785770396e-16,-1.904834046912211e-05,1.8918202970048701e-22,-6.0,0.37106267709088936,1.4666060758032225e-22,5.980531233104499e-17,-5.527368226064675e-17,1.2039619541011126,0.0,0.0,0.0,1.0359714105702504,2.5243976177744567e-16,-7.850336822412027e-16,-6.108999641794734e-07,563.1939830407109,563.1939830407109,563.192000317825,563.1920003178247
0.516,2.3361384377543515e-17,-6.0,0.3087671879323843,-2.8745931011650094e-15,-2.6637179406074824e-16,-1.7757561324235905e-05,1.8868609068515538e-22,-6.0,0.3753329218558889,1.462761380964792e-22,5.258125349065849e-17,-5.791086540212474e-17,1.208302716046483,0.0,0.0,0.0,0.9991077453986794,2.6177440453927063e-16,-8.315332888624044e-16,-6.253177244344376e-07,562.2360935531119,562.2360935531118,562.2340605784614,562.234060578461
0.52,2.3516153825585223e-17,-6.0,0.3136294117654507,-2.984007560064673e-15,5.644509653770836e-17,-1.650179442293221e-05,1.8818931023874306e-22,-6.0,0.37961041169852167,1.458910163054708e-22,4.541832538906269e-17,-6.051722913946085e-17,1.2124864393644406,0.0,0.0,0.0,0.9627106305536621,2.6598510543855505e-16,-8.766535908186046e-16,-6.361817211686184e-07,561.2887179046454,561.2887179046453,561.2866461189166,561.2866461189162
0.524,2.3671056441205948e-17,-6.0,0.31850729344133655,-3.0461204499888784e-15,3.342893874136828e-16,-1.5282656554379772e-05,1.876917163425191e-22,-6.0,0.38389490568822165,1.4550526389936752e-22,3.857943613189127e-17,-6.287417810178499e-17,1.2165155921835424,0.0,0.0,0.0,0.9267713189436662,2.2031478146383475e-16,-8.694798040654294e-16,-6.438070061697487e-07,560.3516816814916,560.3516816814915,560.3495815572187,560.3495815572184
0.528,2.38275902910335e-17,-6.0,0.32340024450007493,-3.0080689891665734e-15,5.098617923982187e-16,-1.4101550988356156e-05,1.871933366712615e-22,-6.0,0.3881861655334405,1.451189023326371e-22,3.2924434122282206e-17,-6.428647844731077e-17,1.2203939454764057,0.0,0.0,0.0,0.8912644398470542,1.097236441374995e-16,-7.933620422999407e-16,-6.483740560955884e-07,559.4243739910409,559.4243739910409,559.4222554629436,559.4222554629433
0.532,2.3986480329996224e-17,-6.0,0.32830766784695786,-2.8613178796594185e-15,5.738853008230437e-16,-1.2959603785069214e-05,1.866941985959388e-22,-6.0,0.3924839555585575,1.4473195282422345e-22,2.935859483659347e-17,-6.388591758684706e-17,1.2241236297715954,0.0,0.0,0.0,0.8562239562960421,-1.771047794206706e-17,-6.918345027694136e-16,-6.501464176303288e-07,558.5077329105003,558.5077329105002,558.5056051047789,558.5056051047787
0.536,2.414790962484989e-17,-6.0,0.33322898577932053,-2.6117445816910015e-15,5.359286072201196e-16,-1.1857716861274086e-05,1.8619432918637052e-22,-6.0,0.39678804268097295,1.4434443635960912e-22,2.8219174535361333e-17,-6.123712530899286e-17,1.2277062756124169,0.0,0.0,0.0,0.8216272641147102,-1.45816890738362e-16,-5.882578880535712e-16,-6.493369523453135e-07,557.6012186306931,557.601218630693,557.5990900192388,557.5990900192387
0.54,2.4311700176054424e-17,-6.0,0.3381636079521554,-2.2733587914044494e-15,4.088923114922399e-16,-1.079656739388986e-05,1.8569375521386638e-22,-6.0,0.40109819638838295,1.439563736928612e-22,2.9270250843965296e-17,-5.638784452614942e-17,1.2311425278572372,0.0,0.0,0.0,0.7875161931685846,-2.647691876702146e-16,-4.887675843611553e-16,-6.461683595677182e-07,556.7059796821026,556.7059796821025,556.7038580513997,556.7038580513997
0.544,2.4477616524474624e-17,-6.0,0.3431109558089164,-1.8875252906390816e-15,1.8388056792035677e-16,-9.776626862539181e-06,1.8519250315384457e-22,-6.0,0.405414188716234,1.4356778534866132e-22,3.23464736322885e-17,-4.9670090119074656e-17,1.2344328817896266,0.0,0.0,0.0,0.7538834312445559,-3.4172793552550365e-16,-3.71967233671059e-16,-6.40850275192277e-07,555.821878525151,555.8218785251509,555.8197710089462,555.8197710089463
0.548,2.464509484991522e-17,-6.0,0.3480704717153729,-1.4738193399580337e-15,-1.4468108722328788e-16,-8.798164558796097e-06,1.846905991884295e-22,-6.0,0.4097357942253571,1.4317869162431928e-22,3.7434130831570963e-17,-4.167960921400604e-17,1.2375801207603288,0.0,0.0,0.0,0.7207027902534571,-3.993419670462414e-16,-2.378506132778799e-16,-6.335966494347405e-07,554.9482787152043,554.9482787152042,554.9461917733855,554.9461917733855
