Time_s,X,Y,Z,Roll_deg,Pitch_deg,Yaw_deg,Ref_X,Ref_Y,Ref_Z,Ref_Yaw,vx,vy,vz,p,q,r,T_pert,tau_x,tau_y,tau_z,RPM_0,RPM_1,RPM_2,RPM_3
0.0040000000000048885,-0.05394336386474313,2.044620042126585,1.9990275454583406,2.3876867832415094,0.8675707802722699,0.033312776741630516,-0.05391777223085655,2.0451052057991927,7.200000000017598e-05,0.0,-0.006387997691643446,-0.12061383379988619,0.0023252728298453072,0.022945326865694095,0.0404032801749063,8.020105488982496e-06,-10.19,-1.0,-0.7148726998529535,-0.03891459097844598,596.2675114862113,0.0,0.0,0.0
0.008000000000009777,-0.053964611980674336,2.0441274509665206,1.999016956406332,2.3926721090753964,0.8768712217925666,0.03370287852667399,-0.05391391337469213,2.045101977652067,0.00021513340800052478,0.0,-0.005792316852109046,-0.12206346147944117,0.0023738891153787167,0.022250952680682133,0.04052553688505124,8.039007096355247e-06,-10.19,-0.6249892249481699,-0.05479572756484025,-0.00182595605449868,330.7098864787965,0.0,0.0,289.4966951921236
0.012000000000000455,-0.05398343580575244,2.043629051024318,1.999006243936152,2.397495180763425,0.8861989509601302,0.03409492462231366,-0.05390815992392022,2.0450971645715117,0.0004285414703013474,0.0,-0.005191188601330304,-0.12351446038958977,0.002422627508561916,0.021548581570742877,0.04064612033522126,8.057773850797818e-06,-10.19,-0.6389280555697685,-0.05657370456863657,-0.0018465990561477793,334.83603492742935,0.0,0.0,293.0294009037776
0.016000000000005343,-0.053999813414656664,2.0431248376094957,1.9989954075724443,2.4021541612233364,0.8955535744433952,0.034488876526623004,-0.05390053482080029,2.045090785749998,0.0007113732083625512,0.0,-0.004584602139871798,-0.12496671921721403,0.0024714745531490066,0.020838201064936356,0.04076500118282157,8.07640215544426e-06,-10.19,-0.6530117755217821,-0.05840034134739855,-0.0018673042910858188,338.9613234234636,0.0,0.0,296.5477906187135
0.020000000000010232,-0.05401372284046078,2.042614806486001,1.9989844468534304,2.406647211033385,0.9049346927310457,0.034884694847307704,-0.05389106079966424,2.0450828602060556,0.0010627853561316913,0.0,-0.0039725469457892034,-0.12642012556889057,0.002520416549600622,0.02011980284953166,0.04088215669836006,8.094889732564934e-06,-10.19,-0.6672408453779374,-0.06027631304287853,-0.0018880692712646581,343.0860615836555,0.0,0.0,300.05231390527285
0.02400000000000091,-0.054025142075785765,2.0420989538765615,1.9989733613311114,2.4109724885644335,0.9143419000945874,0.03528233930120591,-0.05387976038859308,2.045073406785673,0.0014819422978532219,0.0,-0.003355012778327694,-0.12787456597093078,0.002569439556071633,0.019393375650369266,0.04099755704380576,8.11323290391463e-06,-10.19,-0.6816157166436765,-0.0622022980606446,-0.001908891468736243,347.2105427628911,0.0,0.0,303.543394247566
0.028000000000005798,-0.054034049073967964,2.041577276467041,1.9989621505714632,2.4151281501133566,0.9237747845510008,0.03568176871410407,-0.05386665591108074,2.045062444163691,0.0019680160063530122,0.0,-0.002731989681636366,-0.12932992586942602,0.0026185293891444568,0.01865890964175581,0.041111173935606135,8.131428306990027e-06,-10.19,-0.6961368317526498,-0.06417897803900416,-0.001929768315938426,351.335045004473,0.0,0.0,307.021430729586
0.03200000000001069,-0.05404042175024281,2.041049771410796,1.9989508141546313,2.419112350037776,0.9332329278254617,0.036082941020874726,-0.05385176948768574,2.0450499908451825,0.002520185981774745,0.0,-0.0021034679885056466,-0.13078608963005683,0.002667671624788242,0.01791639443665801,0.04122297618009502,8.149472012162038e-06,-10.19,-0.7108046241258722,-0.0662070378241241,-0.0019506972060155793,355.45983193855506,0.0,0.0,310.4867995997272
0.036000000000001364,-0.05404427061559034,2.040516530154816,1.998936719738057,2.421887999039845,0.941715434495855,0.035845946244263016,-0.05383512303766999,2.045036065166826,0.0031376391907938154,0.0,-0.0014681209443895844,-0.13224469487150686,0.002453179695325912,0.015377301135869118,0.03954117722834264,-0.0010336255574274664,-10.19,-0.723317332488411,-0.06673861695993533,-0.001224209629734063,356.75148223500713,0.0,0.0,315.9029037176487
0.04000000000000625,-0.054045941218077216,2.039978469526567,1.9988940924438472,2.4135401119658413,0.9435190860041794,0.03464479255093196,-0.05381673828062501,2.0450206852982635,0.0038195700062961225,0.0,-0.0008192988236981037,-0.1337225916428494,-0.0006103967704378728,-0.006250506940242652,0.026097453300570533,-0.0032641552886738616,-10.19,-0.7146382386128667,-0.05666232921027087,-9.069030368057856e-05,349.23866255628934,0.0,0.0,319.54242474511415
0.04400000000001114,-0.05404589525192408,2.039436613237885,1.998794413625864,2.383670164805602,0.9384296059458012,0.032779760070616844,-0.05379663673808646,2.045003869243453,0.004565180147492341,0.0,-0.00015830173856875665,-0.13523447620768345,-0.0093942660776931,-0.06512139602302155,0.0005419123977804925,-0.005955549340185285,-10.19,-0.6911909406550921,-0.044260627860801774,0.000731729671687685,338.06309051370516,0.0,0.0,318.915682216518
0.04800000000000182,-0.05404446666641759,2.038891681692516,1.9986181496139208,2.325735665678358,0.9270527547509698,0.0303296162704442,-0.05377483973513588,2.044985634842008,0.005373678620505963,0.0,0.0005045474077459957,-0.1367694372684126,-0.024619097078645076,-0.16414779438674792,-0.029087972158422525,-0.007535494305268517,-10.19,-0.6614271121063643,-0.033209870585127546,0.0014895279931351172,325.3737639942139,0.0,0.0,316.01841774858826
0.05200000000000671,-0.054041899852934054,2.038344207027652,1.9983516180852734,2.235957058824941,0.9101288388657287,0.027442446095733156,-0.053751368401990164,2.0449659997705254,0.006244281659416086,0.0,0.0011566499169345787,-0.13828374809716992,-0.04452758051569121,-0.2892238739235058,-0.05567016365720001,-0.00883355931434113,-10.19,-0.6270055551122837,-0.023359650118826677,0.002098537287746333,311.65000599178114,0.0,0.0,311.0411064384805
0.056000000000011596,-0.05403838383135603,2.0377946128170255,1.997984768424593,2.1127019665423816,0.8886092951822252,0.024246295237631527,-0.05372624367557972,2.0449449815439094,0.007176212667719711,0.0,0.0017890987072329925,-0.1397221656023219,-0.06777537405107079,-0.4288087431333752,-0.07878075120892206,-0.00979441891286169,-10.19,-0.5893718586634309,-0.014675143037612345,0.002576116239037,297.1042818612118,0.0,0.0,304.35315609619266
0.060000000000002274,-0.054034065610185505,2.0372432461565637,1.9975101003327151,1.9556588328943871,0.8633866621254535,0.020862346488974923,-0.05369948630111397,2.044922597516677,0.008168702160264074,0.0,0.002393736350862869,-0.14102378197058557,-0.09349595091064158,-0.5745324875284554,-0.09791174672577803,-0.010456955351294503,-10.19,-0.5496429220998655,-0.00703656140986067,0.0029250454002647786,281.9051538610641,0.0,0.0,296.20711833776005
0.06400000000000716,-0.05402906345981148,2.0366904043891667,1.9969218104181214,1.765413959320886,0.8353100150476762,0.017401933721136614,-0.05367111683363488,2.044898864884261,0.009220987705623782,0.0,0.002964160651412901,-0.14212585527205063,-0.12110301065244936,-0.7208531177825576,-0.11315438144523497,-0.0108853231698784,-10.19,-0.5085689498088157,-0.00032936025163159133,0.003151866824395978,266.1240179126743,0.0,0.0,286.75945748477346
0.06800000000001205,-0.05402347272723698,2.0361363455000236,1.9962153848188275,1.5429999285749791,0.8051293617367565,0.01396075287012044,-0.05364115563955952,2.044873800684298,0.01033231386888193,0.0,0.003495655187392129,-0.142966330886297,-0.1501828358880596,-0.8643902064966523,-0.12481561263936655,-0.011110975881027094,-10.19,-0.46660356218698995,0.005551937677769965,0.0032702817039757916,249.7205147058003,0.0,0.0,276.0964019839937
0.07200000000000273,-0.05401737408037009,2.035581303591993,1.9953870922143184,1.2898317878535888,0.7735398555616043,0.010635994532408596,-0.053609622898210155,2.04484742179791,0.011501932154877496,0.0,0.003985044616088314,-0.14348524551946995,-0.18044908043078908,-1.0029983044620905,-0.1332081966515105,-0.011148720725224109,-10.19,-0.4240899076928811,0.010700190985160889,0.0032746131134954825,232.67799973278395,0.0,0.0,264.193348801992
0.07600000000000762,-0.05401084137192853,2.0350255019548484,1.9944334781860165,1.0078327667062044,0.7412398359564396,0.007513498820692965,-0.05357653860333253,2.0448197449509737,0.012729100951887803,0.0,0.0044305864877592785,-0.1436256868348592,-0.21173060970701965,-1.1348189557468724,-0.13852519236159117,-0.010993039860909102,-10.19,-0.38156066122054083,0.015145913755285935,0.0031741211263604336,215.00639523812194,0.0,0.0,251.10091951477654
0.0800000000000125,-0.05400394008119846,2.0344691463551925,1.9933514184625571,0.6991186540215558,0.708860994862782,0.004655887759207612,-0.05354192256460372,2.0447907867153825,0.014013085475699875,0.0,0.0048320109034349365,-0.1433349041862291,-0.24392866439236843,-1.2582597850719204,-0.14090947784515304,-0.010664951868573478,-10.19,-0.3394358331553849,0.018897079693747966,0.0029923891495495336,196.60703814105497,0.0,0.0,236.86857595739534
0.08400000000000318,-0.053996728332372575,2.033912423677523,1.9921380312007004,0.3659122866000812,0.6769527099790352,0.002111729364790508,-0.05350579440912745,2.044760563510297,0.015353157714144272,0.0,0.005190511516733045,-0.142565133613828,-0.27696687230346007,-1.3723636422514205,-0.14062467969764744,-0.01020158107046305,-10.19,-0.2979936941311026,0.022012675312366982,0.002743244531788771,177.28874009873786,0.0,0.0,221.46482766868763
0.08800000000000807,-0.05398925766069307,2.0333555005659645,1.990790626926036,0.010477206873524311,0.6459808115254543,-9.281647256621999e-05,-0.05346817358291804,2.0447290916033856,0.016748596372054485,0.0,0.005508505528336129,-0.1412738682965186,-0.3107738374186006,-1.4767738438488238,-0.13803909837963696,-0.009633552547962566,-10.19,-0.257445325877461,0.02455616236278159,0.002450847266411366,156.65227969022908,0.0,0.0,204.84869348771988
0.09200000000001296,-0.05398157262922358,2.032798520877982,1.9893067512171139,-0.36500422928833814,0.6163212313243961,-0.0019430355118608687,-0.053429079352374155,2.0446963871120594,0.018198686816600536,0.0,0.005789330291227067,-0.13942376115808056,-0.34528625744649577,-1.5714487557899244,-0.13352796969648706,-0.008983878630545608,-10.19,-0.21787912252010272,0.02659094475581774,0.0021274697626735587,134.02283175392733,0.0,0.0,186.8268329730605
0.09600000000000364,-0.05397371331174971,2.0322416059506816,1.9876840085713798,-0.758303854100733,0.5882811486686601,-0.0034323771810147842,-0.053388530805740256,2.0446624660046933,0.019702721023081255,0.0,0.006037010364906435,-0.13698256140502024,-0.38045053322269784,-1.6564791084300352,-0.12745044093331143,-0.008262488078186666,-10.19,-0.1794974476279978,0.028194589053929846,0.001782019526030523,108.18072506273056,0.0,0.0,167.1377450263323
0.10000000000000853,-0.05396571548916085,2.0316848526638793,1.9859200682171998,-1.1671888437210947,0.5621051898291664,-0.004569296009381192,-0.05334654685455681,2.044627344101839,0.021259997521132806,0.0,0.00625605819267184,-0.13392321090749,-0.41623215655006546,-1.7318168415232709,-0.12011103765386995,-0.007481112114200881,-10.19,-0.14248510810073256,0.029417252948753886,0.0014317307061289014,75.85833970840207,0.0,0.0,145.35219496971595
0.10400000000001342,-0.05395761016598429,2.031128332331432,1.9840127409942676,-1.5895233466094518,0.5379832404888825,-0.005360596410286594,-0.053303146235100796,2.044591037077432,0.02286982134129713,0.0,0.00645133881722765,-0.1302239559156902,-0.45259604858658137,-1.7975573185169034,-0.11177282405745284,-0.006637452296923758,-10.19,-0.10690246389208102,0.030296251493163076,0.001074998272960661,11.1031416494552,0.0,0.0,120.39463410022645
0.10800000000000409,-0.05394942564750628,2.0305720885809473,1.9819598430539558,-2.02314492115861,0.5160938012677224,-0.005782543640242141,-0.05325834750981395,2.044553560459983,0.02453150396204526,0.0,0.006627960746427235,-0.12586826424348357,-0.4895073179551571,-1.8538825477239702,-0.10261115882879686,-0.005659226741078716,-10.19,-0.07296214850026828,0.030851244599642984,0.0006764029445985353,0.0,0.0,0.0,89.51611870247422
0.11200000000000898,-0.053941189562521336,2.0300161316910126,1.9797590646134477,-2.4657417321152892,0.4966660142987788,-0.005853103125398507,-0.05321216906872003,2.0445149296337664,0.02624436325720776,0.0,0.006791429362539696,-0.12084504992398915,-0.5269592734296236,-1.9005324622233597,-0.09260070775946444,-0.004532365744628631,-10.19,-0.041067021137876025,0.031031162303771388,0.00028365670255687126,0.0,0.0,0.0,42.77730368011727
0.11599999999999966,-0.05393292339530627,2.029460446504229,1.9774082872743837,-2.91518325932495,0.4797007471497926,-0.005677893930736621,-0.05316462913083294,2.044475159839998,0.02800772344374475,0.0,0.0069477393043360525,-0.11514927356070837,-0.5649320119523115,-1.9375231171586953,-0.0820387273332416,-0.003427029062005931,-10.19,-0.011092645371480525,0.03102139048466874,-1.3395563248642635e-07,0.0,0.0,0.0,0.0
0.12000000000000455,-0.05392464054520932,2.028905003622395,1.9749057852569736,-3.369729617479536,0.46490466732792435,-0.005402362381347289,-0.053115745745551605,2.0444342661780004,0.029820915030005665,0.0,0.007102298025392707,-0.10878084166471295,-0.6033608061686022,-1.9657048684696345,-0.07179767039762315,-0.0026848855909125838,-10.19,0.017385132921957314,0.031136382501600557,-0.00012412459148663252,0.0,0.0,0.0,0.0
0.12400000000000944,-0.05391634884629932,2.0283497640443295,1.9722501425732433,-3.8279496414095417,0.4518134017085622,-0.005132931192199801,-0.053065536794046804,2.0443922636063645,0.03168327476429051,0.0,0.0072580506133295055,-0.10174269061263826,-0.6421453723037873,-1.9865968285783624,-0.06291854420653278,-0.002411005399732062,-10.19,0.04465293442565271,0.03161732800483122,-0.0001279354620995529,0.0,47.58374711309644,0.0,0.0
0.1280000000000001,-0.05390805253880455,2.027794683100821,1.9694402042910288,-4.288671491451895,0.43990101677750004,-0.00496172223806037,-0.05301401999063566,2.0443491669440985,0.03359414558386561,0.0,0.007414947064138419,-0.09403937095981675,-0.6812007219872205,-2.0014735286990586,-0.056075365761573015,-0.002587381741368753,-10.19,0.07095529904878534,0.03258520117484127,-2.3901725191621164e-05,0.0,82.3007356282477,0.0,0.0
0.132000000000005,-0.05389975413415229,2.027239723394727,1.966475171378168,-4.751056070183098,0.4287848825977894,-0.004965432197272354,-0.052961212884145605,2.0443049908717694,0.03555287656437164,0.0,0.007570769633330679,-0.08567638576962192,-0.7204377140331676,-2.011661331065642,-0.05120395825661728,-0.003203379708856942,-10.19,0.09674750956598,0.03392666109836519,0.00017374722846166696,0.0,105.2993692507153,5.502129939111487,0.0
0.1360000000000099,-0.05389145535052513,2.026684859135362,1.9633545491519977,-5.214499248963825,0.41824496390179977,-0.005212012122716711,-0.052907132859269596,2.0442597499326367,0.03755882286955542,0.0,0.007722798308675061,-0.07665933072246921,-0.7597677417958069,-2.0183694213550654,-0.047797539626399446,-0.004190733955176577,-10.19,0.12230340341592277,0.035486993608334155,0.00045795674943744876,0.0,123.45555602475828,68.44578489476726,0.0
0.14000000000000057,-0.05388315762223561,2.026130078186439,1.9600780855121842,-5.678514157588023,0.4082168264344687,-0.005679971356857241,-0.05285179713790936,2.0442134585337763,0.03961134570144638,0.0,0.007869196597512689,-0.0669936146854668,-0.7991084428888875,-2.022507463470027,-0.04515659631256279,-0.0053216523103447435,-10.19,0.14775214985570134,0.0371044822883885,0.000727052020984744,0.0,139.3327090831819,96.35059244924278,0.0
0.14400000000000546,-0.05387486217883483,2.0255753809449644,1.9566457019715098,-6.14268076540219,0.39874284056552667,-0.006248809543988118,-0.05279522278050829,2.044166130947195,0.041709812250916745,0.0,0.008009531649656256,-0.056684889835595775,-0.8383949581936656,-2.024571806282259,-0.04271511552648002,-0.0062384138827683636,-10.19,0.1731367169661887,0.038659200159032875,0.0008645070388843535,0.0,154.28765335152278,116.79546964453232,0.0
0.14800000000001035,-0.05386656981261131,2.0250207868434273,1.9530575121786773,-6.606546939974426,0.38992278326513896,-0.006881687394614065,-0.05273742668737593,2.0441177813109386,0.043853595648552575,0.0,0.008144773409027571,-0.04573977629401556,-0.877571040130676,-2.024712560811271,-0.04007587759483823,-0.00677892410985564,-10.19,0.19847692797543498,0.04007800184259661,0.0009631100680958134,0.0,168.03484049150384,133.95405154240711,0.0
0.15200000000000102,-0.053858280408764204,2.0244663394996834,1.9493138268613148,-7.069568283437809,0.3818772398782785,-0.007588290672956455,-0.05267842560000062,2.0440684236301903,0.04604207491596563,0.0,0.008277107551383434,-0.03416679664944817,-0.9165809847668104,-2.0227530991857376,-0.03701011536832005,-0.0070627116614433594,-10.19,0.22370979357343146,0.04132351809302745,0.0010757014593984408,0.0,180.53477850488682,149.27533757354408,0.0
0.1560000000000059,-0.05384999281504403,2.023912110521853,1.945415147262885,-7.531077705187112,0.3747296010092475,-0.008396924041469918,-0.052618236102352,2.04401807177836,0.04827463491748058,0.0,0.008409655330992924,-0.02197758646803148,-0.9553680303388979,-2.01826963861762,-0.03341942231492707,-0.007294973269392861,-10.19,0.24871911159431997,0.04238144644367549,0.0012244339057768698,0.0,191.8671258404469,163.34757376526855,0.0
0.1600000000000108,-0.05384170496751293,2.023358197422274,1.9413621156365304,-7.99031117350168,0.36858923456992365,-0.009334592314926797,-0.05255687462217548,2.0439667394981678,0.05055066631212046,0.0,0.008546059490975092,-0.00918755378463891,-0.9938811807847552,-2.010783241508836,-0.02930289498147177,-0.007510276060260869,-10.19,0.27334488166521753,0.04325971584797303,0.001408958383169738,0.0,202.16503897302243,176.3860021921394,0.0
0.16400000000000148,-0.05383341398353925,2.022804724360767,1.9371554982160735,-8.446408421657429,0.36354725332257637,-0.010432404694021447,-0.0524943574322749,2.043914440402716,0.05286956550602918,0.0,0.00869017747145298,0.004183799152618014,-1.0320783061294918,-1.9998607258049081,-0.024717818288774167,-0.0077233175028432926,-10.19,0.29745245516069113,0.04397178694350576,0.001635187376292227,0.0,211.50470945691774,188.56613291715314,0.0
0.16800000000000637,-0.053825116315371145,2.0222518393317266,1.9327961470265418,-8.898440766421421,0.35967179640760866,-0.011715159828488001,-0.052430700651785345,2.043861187976555,0.055230734605261046,0.0,0.008845844353349373,0.018112978788950497,-1.069924838474325,-1.9851209003357002,-0.019747508339968963,-0.007929249867547797,-10.19,0.3208921277252213,0.044538583779054994,0.0018970377877796187,0.0,219.98304130953986,199.94349488276566,0.0
0.17200000000001125,-0.05381680782271473,2.0216997130624477,1.9282849825860975,-9.345421318377522,0.3570061528519712,-0.013211775062432896,-0.05236592024743819,2.0438069955767406,0.057633581368856476,0.0,0.009016726254642895,0.03257249808577906,-1.1073950059188544,-1.9662753147687646,-0.014492256702523108,-0.008133906740638356,-10.19,0.34353882160065813,0.044983916770827206,0.0022003521277596974,0.0,227.63449125360202,210.6126490927216,0.0
0.17600000000000193,-0.0538084842483996,2.021148525281969,1.9236229024734388,-9.786394130435443,0.3555718172412174,-0.014939008848956395,-0.05230003203481453,2.0437518764338836,0.06007751916235079,0.0,0.009206199635223435,0.04753156798508709,-1.144475475605431,-1.9432053998386425,-0.009054447190657665,-0.008328383838279685,-10.19,0.36521921384003997,0.045334443915074726,0.0025321292583116634,0.0,234.53678183211346,220.54437304817785,0.0
0.18000000000000682,-0.05380014046991315,2.020598484452858,1.9188108989947716,-10.220309158790535,0.35536285341539664,-0.01691158219782955,-0.05223305167958887,2.0436958436531887,0.06256196691164204,0.0,0.00941724609173636,0.06295625468860837,-1.181154518692733,-1.9157772364981416,-0.0035435271114272,-0.008508354622801355,-10.19,0.3859941555312022,0.045611007126929115,0.0028906933796502715,0.0,240.7899514142174,229.84262040604528,0.0
0.1840000000000117,-0.053791771065279444,2.0200498107946943,1.9138499566617553,-10.646125905613578,0.35635130347349614,-0.019140161291239258,-0.05216499469876544,2.043638910215491,0.0650863490571331,0.0,0.009652362046918399,0.07880950003812767,-1.2174225782864245,-1.8838562962247676,0.0019333152206778633,-0.008665746052689485,-10.19,0.405627464143008,0.0458446922520379,0.003271929431954165,0.0,246.38696408491026,238.4691550925151,0.0
0.1880000000000024,-0.05378337048553707,2.019502729651085,1.908741020443359,-11.062844909493668,0.35849220403199006,-0.021630567339214576,-0.05209587646190299,2.043581088978278,0.06765009550830312,0.0,0.009913515092252773,0.09505133661272509,-1.2532801160452065,-1.8474501855484295,0.007282961799412106,-0.008809070557353808,-10.19,0.4240263469161624,0.04605813177064404,0.003670633581947893,0.0,251.3665247051445,246.43486172067807,0.0
0.19200000000000728,-0.053774932969640026,2.018957471777395,1.903485003830596,-11.469498538180043,0.3617244096884833,-0.02438418980755608,-0.05202571219233001,2.0435223926767083,0.07025264159862991,0.0,0.010202158851890087,0.11163998149240306,-1.2887371381806225,-1.8067031682337482,0.01242655314607249,-0.00893720498408328,-10.19,0.4411646355620552,0.046271329258858296,0.00408188616813761,0.0,255.78020243935754,253.76857646650762,0.0
0.19600000000001216,-0.053766452617956,2.0184142694173817,1.8980827752767264,-11.865164586028362,0.3659749043709643,-0.027395021668450197,-0.05195451696835298,2.043462833924621,0.07289342804077538,0.0,0.010519250000191629,0.12853233579313234,-1.3238074954745969,-1.7617970580415505,0.01729850220421101,-0.009042829152513957,-10.19,0.4569848321080443,0.04650217615756605,0.0044971223483152405,0.0,259.673859026559,260.46869070878154,0.0
0.20000000000000284,-0.053757923148100795,2.017873361039318,1.892535187847156,-12.248935145072029,0.37115566462577354,-0.030646244918809136,-0.05188230572445307,2.0434024252155374,0.0755719008821961,0.0,0.010865231550516613,0.1456840164753112,-1.3585039439685083,-1.7128647221532667,0.021832702555071273,-0.009114058614396039,-10.19,0.4714932666014306,0.04676944540613441,0.0049034844825363525,0.0,263.123471469099,266.53487549026966,0.0
0.20400000000000773,-0.05374933705100118,2.0173350116278392,1.8868431766097038,-12.619814711995279,0.377141595887767,-0.03410698528617661,-0.051809093252473626,2.043341178923655,0.07828751146109755,0.0,0.01123987604388094,0.16304862469429077,-1.3928279504194936,-1.6598080113846811,0.02591819496272053,-0.00913365191873795,-10.19,0.4847629641196801,0.04711156326986557,0.005283878806582274,0.0,266.24107095576204,271.9630677971314,0.0
0.20800000000001262,-0.05374068617536889,2.016799496060593,1.88100768115236,-12.976800873243107,0.383784041094919,-0.0377443553789415,-0.05173489420280084,2.043279107304834,0.08103971636263972,0.0,0.011642016307753699,0.18057681215738708,-1.4267794029805567,-1.6024690080072037,0.02942893058990851,-0.009098496042272725,-10.19,0.4965416151741858,0.04756972784390274,0.005634700509059804,0.0,268.98282887148986,276.6875168212449,0.0
0.2120000000000033,-0.05373196220682392,2.01626708602604,1.8750295912091275,-13.31894119775722,0.39092657192943064,-0.04152108659311919,-0.05165972308553309,2.043216222497576,0.08382797737556441,0.0,0.012069517257743117,0.1982166541350367,-1.4603677921942526,-1.540829752258723,0.032270137585744554,-0.009025493957221057,-10.19,0.5066698667084175,0.04816765707065853,0.005949493510069455,0.0,271.338813861924,280.66653917348225,0.0
0.21600000000000819,-0.053723156897008975,2.0157380439825094,1.8689097284454814,-13.645352658502082,0.39841348945201793,-0.045397251156606436,-0.05158359427164121,2.043152536523995,0.0866517614491584,0.0,0.012519547795514702,0.21591519837741707,-1.4936182304873975,-1.4751231558202005,0.03441269806317383,-0.008920487940205201,-10.19,0.515084992457769,0.04891726279853986,0.006223630841142562,0.0,273.31845501544217,283.8939297646781,0.0
0.22000000000001307,-0.05371426210384695,2.01521262224617,1.862648850984714,-13.955217305498987,0.40609255362756425,-0.04932946434676643,-0.05150652199412225,2.0430880612907822,0.08951054065045722,0.0,0.012988819384351516,0.23361933929236117,-1.5265598561287823,-1.4056299462302977,0.035854680961849975,-0.008784656726368816,-10.19,0.5217779868328336,0.0498253173153163,0.0064514416164029535,0.0,274.9480331608017,286.37225552637875,0.0
0.22400000000000375,-0.05370526954096583,2.0146910701307847,1.8562476898704856,-14.247744367029474,0.4138089919261813,-0.053270850669123695,-0.051428520349142005,2.0430228085901616,0.09240379212186677,0.0,0.013473672299332828,0.25127589485073176,-1.559219883525513,-1.3325747905007017,0.03659587702636845,-0.008616180170941604,-10.19,0.5267924062462406,0.0509021038300422,0.006627070458958863,0.0,276.2699080183968,288.1122232871958,0.0
0.22800000000000864,-0.05369617117801897,2.0141736242115265,1.8497069156316268,-14.52220582888739,0.421416334846749,-0.05717715442596438,-0.05134960329716868,2.042956790100839,0.0953309980391133,0.0,0.013970097575971513,0.2688314827425072,-1.5916258909971241,-1.2561687404039241,0.036647472015602776,-0.008419453331015406,-10.19,0.5300239110160592,0.052152907218453504,0.006751653487407331,0.0,277.2539537872333,289.09808431121417,0.0
0.23200000000001353,-0.05368695951814248,2.013660502066733,1.843027120347361,-14.77795579954263,0.42878463439197595,-0.06100710174773697,-0.05126978466410033,2.042890017388945,0.09829164556942357,0.0,0.014473883800896658,0.2862329126365215,-1.6238097429165925,-1.1766823773197874,0.036049751740271606,-0.008204060483040638,-10.19,0.53142683811611,0.05357185295744713,0.006826854218018864,0.0,277.8823085843759,289.3309529087554,0.0
0.2360000000000042,-0.05367762762175465,2.0131519032160865,1.8362088283308713,-15.014419782709098,0.43580191163636667,-0.06472392953350108,-0.05118907814238118,2.0428225019089674,0.10128522683011901,0.0,0.01498086241375685,0.3034278462459598,-1.6558076016120278,-1.0944504106675086,0.03487509551160392,-0.007976155918021376,-10.19,0.5310265493896407,0.05514761895328252,0.006856241773231166,0.0,278.1500047375351,288.83488815328116,0.0
0.2400000000000091,-0.053668169279372686,2.012648005250619,1.8292524874060831,-15.231104408243006,0.4423773783744935,-0.06829646403308404,-0.05110749729210925,2.042754255004681,0.10431123884753084,0.0,0.015487090446587765,0.3203651130100704,-1.6876561316304581,-1.0098079287077666,0.03320890872904259,-0.007740896656937654,-10.19,0.5288087266352093,0.056865734936302675,0.006844827890079186,0.0,278.0326889936953,287.6220894734542,0.0
0.24399999999999977,-0.05365857911055764,2.0121489618802224,1.8221584672584645,-15.427599562233633,0.44844226449606944,-0.07170100698860934,-0.051025055542138355,2.0426852879100657,0.10736918351612436,0.0,0.015988972820904206,0.3369949367539499,-1.7193931478284195,-0.9231054760332578,0.03114682529824171,-0.00750538556296326,-10.19,0.5247855385162286,0.058708672428127384,0.006800054957651697,0.0,277.5036990583268,285.7161930043802,0.0
0.24800000000000466,-0.0536488526700856,2.011654901490822,1.8149270590905793,-15.603579308129085,0.45395354111314207,-0.07492119449661143,-0.050941766191167304,2.0426156117502208,0.11045856755809903,0.0,0.016483406855709086,0.3532692575279257,-1.7510572483607958,-0.8347068042298668,0.02879534269005888,-0.0072748604438126726,-10.19,0.5189795807866695,0.060653276916446175,0.006729505806874549,0.0,276.53543863462556,283.1416021783315,0.0
0.25200000000000955,-0.05363898645100635,2.0111659266354183,1.8075584780335991,-15.758799698481546,0.45889010664625,-0.0779493575889613,-0.05085764240882502,2.0425452375422712,0.11357890248313804,0.0,0.016967879244840063,0.36914191868908436,-1.7826868229469466,-0.7449749325973285,0.026263611234384136,-0.007056348114427279,-10.19,0.5114257045037258,0.06267801865271151,0.006642652672217517,0.0,275.09597429603843,279.92814826932096,0.0
0.2560000000000002,-0.05362897806645399,2.0106821101233865,1.8000528524463046,-15.89311045501733,0.4632582905628901,-0.08078692577559295,-0.05077269723674442,2.042474176196266,0.11672970454857601,0.0,0.01744057638741102,0.38456894017620363,-1.8143207376910024,-0.6542883525197289,0.023665525439688907,-0.006855097333346881,-10.19,0.5021373578676636,0.06475555690297594,0.00654979569645388,0.0,273.13901263256435,276.10035012571467,0.0
0.2600000000000051,-0.05361882617897659,2.010203495918651,1.792410230038462,-16.00644875827371,0.467086694859156,-0.08344298725977604,-0.05068694358962797,2.0424024385160693,0.11991049471987615,0.0,0.017900456903873416,0.3995087911138449,-1.8459979056425113,-0.5630372964150296,0.021114537186288067,-0.006676327921374627,-10.19,0.4911793473598155,0.06685992133143001,0.006459926838676976,0.0,270.63532742139455,271.6912802602369,0.0
0.26400000000001,-0.05360853048192031,2.0097300987973408,1.7846305786107701,-16.098838671929673,0.47042341808592486,-0.08593365704829173,-0.05060039425630769,2.0423300352002483,0.1231207986313109,0.0,0.01834729267408606,0.4139226085460074,-1.8777561262553608,-0.47160676009817964,0.01871247774377194,-0.006521983778935413,-10.19,0.4786075573781661,0.06896740545249672,0.006381615035883156,0.0,267.5506639677425,266.7271865998407,0.0
0.2680000000000007,-0.05359809166604169,2.0092619041720003,1.776713786589664,-16.17039070984471,0.47333304118833325,-0.08828100300079249,-0.05051306190079433,2.04225697684295,0.1263601465470462,0.0,0.018781617793901903,0.4277743131045185,-1.909631817837742,-0.3803748258293015,0.016545970270670007,-0.006394189520623673,-10.19,0.4644844970138539,0.07105628524954663,0.006322464349065178,0.0,263.85162724337147,261.2308158015539,0.0
0.27200000000000557,-0.053587511307756665,2.008798869889659,1.7686596697514214,-16.221294745361806,0.47589224629578963,-0.09051041642193486,-0.0504249590633184,2.042183273934773,0.12962807332252846,0.0,0.019204676438258912,0.4410307455102519,-1.9416595054828947,-0.28970644528333706,0.01468507312950548,-0.00629219006505316,-10.19,0.44889274741793234,0.07310785643736417,0.006287253258935017,0.0,259.51632660860764,255.2190853368442,0.0
0.27600000000001046,-0.05357679170993077,2.0083409292392105,1.7604679814378683,-16.251809165695924,0.4781835057493348,-0.0926511526094049,-0.05033609816136589,2.0421089368636327,0.13292411836606546,0.0,0.01961830481500232,0.45366157912324623,-1.973870679055772,-0.19993481427577497,0.013177973126346262,-0.006216971617779925,-10.19,0.43192290052699417,0.07510927248257471,0.006281529935825559,0.0,254.51864690149733,248.71084773069364,0.0
0.28000000000000114,-0.05356593637482484,2.007887978392758,1.7521383671716262,-16.26230906555995,0.48030661745304964,-0.09474246370413734,-0.05024649149070332,2.042033975915619,0.13624782560080706,0.0,0.020024898239282905,0.4656397389560637,-2.0062983817714946,-0.11144655253489973,0.012079345684786314,-0.006177214040526076,-10.19,0.4135473747374192,0.07704100999912009,0.006318167399276084,0.0,248.75507416108306,241.7117987989737,0.0
0.284000000000006,-0.05355494959124678,2.0074398853878916,1.7436703945358185,-16.25325422842484,0.48236903661296204,-0.09681512060594517,-0.050156151226394725,2.0419584012758483,0.1395987434270219,0.0,0.020427533472050705,0.47694197683008843,-2.038975932085536,-0.024662811243494162,0.011438911748888097,-0.006163917115545931,-10.19,0.3939494125823778,0.07888367147378078,0.00638886658719031,0.0,242.26052940819568,234.22010064119556,0.0
0.2880000000000109,-0.053543835991007004,2.0069964967541947,1.7350635740500588,-16.225166813005874,0.4844595628226615,-0.09889842831565393,-0.05006508942381368,2.0418822230293086,0.1429764246845589,0.0,0.020829693877894313,0.48754886257125907,-2.0719314806045555,0.06005657878134204,0.011253736193773645,-0.0061678885750896155,-10.19,0.37327181729565323,0.08064730095382096,0.006493177347631202,0.0,235.03220100739773,226.2355550202047,0.0
0.2920000000000016,-0.0535326007572283,2.0065576346106853,1.7263173458886178,-16.178645211301106,0.48666164289242014,-0.10101910221172708,-0.04997331801964467,2.0418054511616988,0.14638042661570475,0.0,0.021234870255885628,0.497444430024346,-2.105188302740924,0.14240869929493938,0.011474079086386663,-0.006184873903245367,-10.19,0.3515722749303704,0.08233485672197668,0.006629278693386347,0.0,227.0303509517597,217.71795642416757,0.0
0.2960000000000065,-0.05352124954885918,2.006123098471934,1.717431082691225,-16.11436076768229,0.489050619908376,-0.10320026991246387,-0.049880848832876655,2.0417280955602584,0.14981031082833074,0.0,0.021646395942093256,0.5066163356585004,-2.138768927585021,0.22207306161447932,0.012063439750780258,-0.006214985097707489,-10.19,0.3289623026188686,0.08394969263661593,0.006794079181287223,0.0,218.22819331141525,208.63314842341805,0.0
0.30000000000001137,-0.0535097884364543,2.005692667183834,1.7084040923930064,-16.033054443943634,0.49169160710957177,-0.10546073598055929,-0.04978769356579187,2.0416501660145947,0.15326564325921552,0.0,0.02206750667102128,0.5150561188571041,-2.1726937740815107,0.29873485687878737,0.01298143852881716,-0.006254129731349906,-10.19,0.30555758249642573,0.08549822421854394,0.006983482716504912,0.0,208.59279844930836,198.93193511569532,0.0
0.30400000000000205,-0.05349822384965943,2.005266100979378,1.6992356211179358,-15.935533392371882,0.49463797737852333,-0.10781452255242278,-0.04969386380494407,2.041571672217503,0.15674599413776,0.0,0.02250123937757694,0.5227592914639427,-2.206980645418905,0.3720939995797009,0.014178636043444945,-0.006298230019670703,-10.19,0.2814776996095625,0.08698937573926574,0.007192680380821489,0.0,198.08066407430155,188.5464416034969,0.0
0.30800000000000693,-0.05348656244719966,2.0048431467246774,1.6899248675461946,-15.822655354563132,0.4979306767778172,-0.11027082281882364,-0.04959937102212913,2.0414926237657762,0.1602509379499853,0.0,0.022950336978741857,0.5297253434600455,-2.241643573403741,0.441886485173031,0.015599876364716067,-0.006343525675574756,-10.19,0.2568676459930815,0.08843269885589644,0.007416613511144473,0.0,186.63977227731687,177.39622685222048,0.0
0.3120000000000118,-0.053474810953729406,2.004423544723227,1.6804710030765733,-15.69530692784462,0.5015983741939696,-0.11283401309403876,-0.04950422657535117,2.0414130301610145,0.1637800534026978,0.0,0.023417181117647366,0.5359572668805745,-2.2766911906201672,0.5079165066569254,0.017187895326119022,-0.006386427418110806,-10.19,0.2318733404643705,0.08983790240504647,0.007650039892869427,0.0,174.19162354028103,165.36863996245972,0.0
0.3160000000000025,-0.053462976632838215,2.0040070139866484,1.6708731124040583,-15.554466178427171,0.5056566154435028,-0.11550401910747889,-0.04940844170977817,2.0413329008104246,0.16733292338804268,0.0,0.023903742355170485,0.541462043765662,-2.3121331784399626,0.5699410076277757,0.018884245899666734,-0.006424244250034221,-10.19,0.20647097506523315,0.09122378232162351,0.007887947706981011,0.0,160.52787347626938,152.2016925334859,0.0
0.3200000000000074,-0.05345106677868453,2.003593271693018,1.6611302603646654,-15.401131455672811,0.5101102499915019,-0.11827667543834797,-0.04931202755869016,2.041252245027612,0.170909134948334,0.0,0.024411553683546788,0.546250697107099,-2.3479775011950523,0.6277203711191548,0.02063324408098372,-0.006454249658289689,-10.19,0.18094633553578116,0.09259615344295535,0.008125562250428599,0.0,145.50880319111394,137.7121789119657,0.0
0.3240000000000123,-0.05343908932192177,2.0031820145900383,1.651241415627379,-15.236401783759112,0.5149518997014382,-0.1211440993796844,-0.04921499514442309,2.0411710720333724,0.17450827924104384,0.0,0.024941689500119286,0.5503390729342039,-2.3842323618833197,0.6809822749802723,0.0223814447393926,-0.0064746884578343435,-10.19,0.15525377125574957,0.09397591159714257,0.008358377265951053,0.0,128.6760804610912,121.34640304946028,0.0
0.32800000000000296,-0.053427052342869694,2.0027729378860593,1.6412055166856607,-15.061406702447515,0.5201656299773452,-0.12409640869034058,-0.04911735537930237,2.0410893909564707,0.17812995150417563,0.0,0.025494767883446907,0.5537478593533792,-2.420904041269785,0.7294623142394927,0.02408114163941851,-0.006485071761902185,-10.19,0.12969440126202544,0.09536828710925266,0.008583739908147335,0.0,109.45777600691146,102.43247163682685,0.0
0.33200000000000784,-0.05341496378541101,2.0023657467401352,1.6310215120753935,-14.877263529381246,0.5257304319881283,-0.12712253532716133,-0.0490191190665691,2.041007210834417,0.1817737510219085,0.0,0.026070991737305836,0.5565019244229482,-2.457989080139091,0.7730482383168467,0.025697625039797528,-0.006486320396584004,-10.19,0.1044516603781091,0.09677697930752095,0.00879986510222108,0.0,86.47968466809263,79.33939419238793,60.41234575494589
0.33600000000001273,-0.05340283188546707,2.0019601439160155,1.6206883063005928,-14.685134139319779,0.5316231626418112,-0.13020004308115973,-0.04892029690130223,2.0409245406142382,0.18543928109039187,0.0,0.026670260236042864,0.5586295628289215,-2.4954805136421307,0.8116744994067553,0.027206803415837498,-0.006460483954648655,-10.19,0.07950711967903101,0.0982107046062315,0.008993023696822996,0.0,55.4450060071092,45.84932982225627,92.45741623444952
0.3400000000000034,-0.053390665345937234,2.0015558340079784,1.6102047945078775,-14.486196559460378,0.5378674453547975,-0.1331851515944418,-0.04882089947133047,2.0408413891532398,0.18912614898392113,0.0,0.027292641960507562,0.5601621170367179,-2.5333722743968456,0.8452315088045349,0.02862174368434912,-0.006163071890455391,-10.19,0.05499583546266762,0.09961864517245433,0.009020548822036989,0.0,0.0,0.0,114.30324765907577
0.3440000000000083,-0.05337847545899577,2.001152479203393,1.5995696982935468,-14.281890663849666,0.5445400849796822,-0.13598151230853217,-0.048720937258137045,2.0407577652197633,0.19283396592137766,0.0,0.027939600729675773,0.5611365897008008,-2.5716725923157346,0.8731945670572283,0.03007778383511389,-0.005406142397233512,-10.19,0.03078044854458184,0.10096212416629752,0.008931937785072532,0.0,0.0,0.0,131.5587636216074
0.3480000000000132,-0.05336627391604836,2.000749733607623,1.5887816359840539,-14.073910316113592,0.5516858497364351,-0.13854163130806985,-0.04862042063776065,2.0406736774939405,0.19656234703281167,0.0,0.02861409645944426,0.5616021308869955,-2.6103956174194143,0.8946353007674979,0.03168409054226125,-0.004210863273631635,-10.19,0.007611392409143103,0.10224983891607839,0.008780290975560871,0.0,0.0,0.0,145.75679313424337
0.35200000000000387,-0.053354069802475146,2.0003473559418974,1.5778396087132873,-13.8636979852255,0.5594148064184478,-0.14087596894401802,-0.04851935988168617,2.0405891345684384,0.200310911326402,0.0,0.02932012930360629,0.5616188314370775,-2.6495059626132775,0.9092698299725599,0.03358931316420381,-0.00282340964276305,-10.19,-0.013390960745615577,0.10336767818616736,0.008631341395083755,0.0,0.0,0.0,157.43143002655697
0.35600000000000875,-0.053341869310558614,1.9999452166978438,1.5667430662843442,-13.65234749836789,0.5679246108744571,-0.14301203219203787,-0.04841776515772848,2.0405041449491974,0.20407928165567474,0.0,0.030063633886013824,0.561245063232938,-2.688903231551485,0.9179870566284937,0.036075080374960745,-0.0013518533225032677,-10.19,-0.03237074078364138,0.10420010072991205,0.00850541596999942,0.0,0.0,0.0,167.23823543445047
0.35999999999999943,-0.05332967674958625,1.9995432614233024,1.5554917759625384,-13.440735212152754,0.5774888584350011,-0.14498741454039413,-0.04831564653091297,2.0404187170561694,0.2078670846868432,0.0,0.03085449742921039,0.5605285972716885,-2.7284700407588067,0.9221015295757384,0.039515466126867654,0.00019503588453492236,-10.19,-0.04984539464292814,0.10465387155075283,0.00841541302481695,0.0,0.0,0.0,175.7658632456809
0.3640000000000043,-0.05331749518793772,1.999141485729132,1.5440857295271788,-13.22960317355938,0.5884413908628343,-0.14685655740580916,-0.04821301396434377,2.0403328592240433,0.21167395086660232,0.0,0.03170694343697542,0.559509116740623,-2.7681189752255655,0.9224979581474756,0.04422752837712106,0.0018261307479118289,-10.19,-0.06614211331779679,0.10464521470617402,0.008382546096061717,0.0,0.0,0.0,183.4132263736914
0.3680000000000092,-0.05330532681416948,1.9987399158623782,1.5325250640367885,-13.019597535721383,0.6011517234053085,-0.1486799997761132,-0.04810987732007069,2.0402465797029707,0.21549951438997322,0.0,0.032638974368652,0.5582218157862855,-2.807787976027576,0.9197452160059084,0.050448712164709794,0.0035337386864281437,-10.19,-0.08150690667567631,0.10411193322933932,0.008416166233865366,0.0,0.0,0.0,190.4145858206692
0.3719999999999999,-0.05329317318672251,1.9983385962141231,1.520810011209324,-12.81129686398144,0.6160109306152741,-0.15051816126584378,-0.04800624635994572,2.040159886659282,0.219343413168532,0.0,0.033671598590571186,0.556699390497575,-2.8474339538239377,0.9142347887629079,0.058328492657065356,0.005309483374076692,-10.19,-0.0960936114761975,0.10300460121816502,0.00851861672650099,0.0,0.0,0.0,196.89546277984044
0.3760000000000048,-0.053281035393921636,1.9979375818342957,1.5089408672735576,-12.605235035998165,0.6334266277054983,-0.15242520924977115,-0.04790213074647293,2.0400727881761975,0.22320528879888762,0.0,0.034828126247790005,0.5549730473665393,-2.8870265907875052,0.9062392278775414,0.06795735865588377,0.007165926807162831,-9.562386850858562,-0.10998523866278576,0.10127705707676625,0.008685076020622212,0.0,0.0,0.0,243.97250816963074
0.38000000000000966,-0.05326891413106168,1.9975369331520652,1.4969179700595632,-12.401913872296493,0.6538171786917248,-0.15444280802447602,-0.04779754004365494,2.039985292254536,0.2270847865312823,0.0,0.03613378709321611,0.5530733054638561,-2.9265438785607762,0.8959463545005383,0.07939121934451486,0.009132312760229706,-8.718239995773299,-0.12323304913939989,0.09888764550419481,0.008903167639716866,140.88814149959427,107.04576648064962,99.62432780785679,294.073405900007
0.38400000000000034,-0.0532568102107817,1.997136738608244,1.4847418633590523,-12.201966583188051,0.6777606286890134,-0.15667436263064788,-0.04769248371782957,2.039897406813413,0.23098155523855932,0.0,0.03761681794639702,0.5510307531337955,-2.965950949033338,0.8832173409433388,0.0929533961245436,0.011179091508056408,-7.870382600562614,-0.13537830322669206,0.0956248774308357,0.009246733123952883,216.03688648503962,181.57882828278522,183.89561055442678,336.79833180683875
0.38800000000000523,-0.05324472564680392,1.9967371525657582,1.4724137755680267,-12.00631949405921,0.7061693525405126,-0.15944318392139126,-0.047586971138499884,2.0398091396909384,0.23489524738537418,0.0,0.0393139048805755,0.5488764354253415,-3.0051489639214304,0.8673461774916673,0.10959372178605445,0.013019365491236246,-7.020224638264821,-0.14556670658668472,0.09106910441562774,0.00997691831653545,269.70463285781,232.28845351067835,242.99011058016873,374.9680083798132
0.3920000000000101,-0.05323265566561832,1.9963384698678361,1.459935952244366,-11.816092401239807,0.7400971450268109,-0.16291874139773266,-0.04748101157916117,2.0397204986449045,0.2388255189975215,0.0,0.04127548309356509,0.5466489090390735,-3.0439408530948207,0.8472951846899616,0.13037955441425292,0.01457098849846702,-6.169872790498388,-0.1525800280010711,0.08489764830588596,0.010927325883676144,313.2788629562375,273.52665936380583,292.4116534688789,409.0862237116312
0.3960000000000008,-0.05322057944986397,1.9959411984076876,1.4473118621356196,-11.632508124538726,0.7805051380780358,-0.16720759420996864,-0.04737461421811804,2.039631491353472,0.24277202963162517,0.0,0.04356269824858834,0.5444026008613112,-3.082048651880953,0.8223113168411444,0.15561096683172987,0.016187231106028894,-5.321884259896322,-0.15525061779773952,0.07702925547643935,0.012031474890278861,350.343586507927,309.48593365239924,336.4783103035825,439.62846547843884
0.4000000000000057,-0.05320845660904403,1.9955460341191151,1.4345459907147182,-11.45675982958495,0.8281360411791465,-0.17236293254388851,-0.047267788139295205,2.039542125415848,0.2467344423450668,0.0,0.04623719028310845,0.5422094734739039,-3.1191754881798817,0.7921102926275948,0.1847468487069471,0.018040553139412434,-4.47843618390619,-0.15363114570516867,0.06759398704650599,0.013231454386861727,382.832059037682,341.91749948328584,376.80554017635336,467.14871294242425
0.4040000000000106,-0.05319621575271252,1.99515397629104,1.421644558121358,-11.290052591624738,0.8835608060650582,-0.17839601849003436,-0.04716054233304523,2.03945240835296,0.2507124236660228,0.0,0.04935344645028429,0.5401492842786744,-3.1549672971360296,0.7566624458276199,0.21696079114961458,0.020163641528152743,-3.6431951532136395,-0.14610922848792254,0.05658654102462736,0.014480530380437916,411.4658814094281,372.08879443670133,414.59013082304443,491.67500893605614
0.40800000000000125,-0.05318375182148203,1.9947662571953837,1.4086151279089232,-11.133455982505197,0.9471005665952579,-0.1852697264740529,-0.04705288569694664,2.0393623476081264,0.2547056435638612,0.0,0.05295543264016228,0.5383042949615497,-3.189042760739582,0.7162126948340662,0.2513064202636058,0.02256007240374698,-2.819088978474447,-0.13330594951513464,0.04419616816821698,0.015722702162907984,437.1077018698076,400.43894790456153,450.10855441472876,513.5893559565478
0.41200000000000614,-0.0531709238077419,1.9943842811056764,1.395466296451235,-10.98781964097439,1.018820545281931,-0.19290537570296848,-0.04694482703659577,2.039271950547717,0.25871377541977136,0.0,0.05707465323667279,0.5367558030025859,-3.2210571056532493,0.6713819290285222,0.2867286411950688,0.025222642410810896,-2.0084579240558114,-0.11589431435773515,0.030637842711483995,0.016907960858655854,460.3685488223363,427.26508923291874,483.5367052456623,533.207489993814
0.416000000000011,-0.053157554468194396,1.9940095510997071,1.3822073068237501,-10.8537251741421,1.0985545632809748,-0.20118821982844853,-0.046836375066395784,2.0391812244618124,0.2627364959974956,0.0,0.06172815540862803,0.5355784567413062,-3.2507671415407406,0.6231661046470451,0.3221353449325003,0.02813299254371331,-1.2128915302138736,-0.09480774892515946,0.016136069900240718,0.017990998503048847,481.7580743177628,452.7433649483802,514.9623634583716,550.8385923091294
0.4200000000000017,-0.05314342172134356,1.9936436965915938,1.368848222061851,-10.731439452917295,1.1859177252191935,-0.20996932119396378,-0.046727538410336195,2.0390901765648586,0.2667734854144169,0.0,0.0669181611690955,0.5348333580109295,-3.277969978461811,0.5727844113574053,0.3565102034841103,0.031278330966587206,-0.4343515730716021,-0.06993714046789368,0.0008187156851383465,0.018927207569869837,501.49914844898643,477.1578865078844,544.6017274953044,566.5484370262334
0.4240000000000066,-0.053128250471474105,1.993288485920658,1.3554000006749212,-10.620856127973278,1.2803047107962162,-0.21906893606135133,-0.046618325602766165,2.0389988139963116,0.2708244271128745,0.0,0.07263199779027142,0.5345630970169254,-3.3024537841926063,0.5216759390182436,0.3888796784234204,0.03465077485761982,0.3250207819275772,-0.04141196245442285,-0.015172078696957483,0.01967452060976907,519.7912618285474,500.6807354479879,572.5695106301138,580.4131731985707
0.4280000000000115,-0.053111711293327736,1.9929457753305406,1.341874200726067,-10.521471347431994,1.3809088122113942,-0.2282815428807614,-0.04650874508916527,2.038907143821283,0.27488900783157466,0.0,0.07884218861301291,0.5347887306333151,-3.324021039881676,0.47147078309333273,0.41830707207913964,0.038237534628562664,1.0636564016748906,-0.010143858485257347,-0.03162866552284101,0.02019546644269996,536.9166070822931,523.3378382277672,598.8433686806422,592.62856490028
0.43200000000000216,-0.05309342064969355,1.9926174682137177,1.3282827347217807,-10.43239246043322,1.486751994594586,-0.23738194816051014,-0.04639880522690477,2.0388151730311774,0.27896691757735403,0.0,0.08550689662324276,0.5355075209140702,-3.342536981779793,0.4238627595362776,0.4439496183316944,0.04201905072518054,1.780464495583793,0.02301723602158918,-0.0483483515435421,0.020458633642009172,553.1075033874611,545.158244215925,623.420353842586,603.3711155031052
0.43600000000000705,-0.05307294836210028,1.9923054363531967,1.3146374029937324,-10.35241164951919,1.5967421067766596,-0.24613737371911593,-0.046288514286002835,2.0387229085443237,0.2830578495971657,0.0,0.09257203216089213,0.536693192797898,-3.357950873480145,0.38043743430856825,0.46512846454608575,0.04597095467167865,2.4752899813213673,0.056804602416966755,-0.06509911497797717,0.0204459070879601,568.6257466099582,566.1064618044742,646.2651140074184,612.8983084642515
0.44000000000001194,-0.053049812615241713,1.9920115522143804,1.3009500648078771,-10.27997680257312,1.7096680964554354,-0.2543053774152792,-0.046177880449877425,2.0386303572066047,0.28716150035015414,0.0,0.09997326202894405,0.5382965006655736,-3.370272352294516,0.3426434488137983,0.4813109189712149,0.05006204051057347,3.1476340827151432,0.09112363913345004,-0.08177470219767859,0.020136415042102934,583.5434755588278,586.2977998355587,667.4900823463212,621.2514718106138
0.4440000000000026,-0.05302348206681015,1.9917376751756255,1.2872325516512888,-10.213226625441726,1.8242209905173066,-0.2616375442582275,-0.04606691181608972,2.0385375257920795,0.2912775694800796,0.0,0.10763737713473698,0.5402453978218368,-3.3795130013475556,0.31190291573329354,0.4920158960954251,0.05425735040460652,3.7971721280586763,0.1253864215379583,-0.09820666078089757,0.019513183807486633,597.9840898096605,605.7660509714369,687.1210307611038,628.548875892516
0.4480000000000075,-0.05299337459914514,1.991485664057183,1.2734967415487846,-10.149986879264963,1.938991506638878,-0.2678846259479784,-0.04595561639708169,2.0384444210035997,0.2954057597879592,0.0,0.11548309686555439,0.542445753330276,-3.385686341258256,0.2895881049841825,0.49680225497249986,0.058507291825231886,4.423429501476011,0.1592732844757467,-0.11425443165557168,0.018564980875763172,612.0120157721165,624.5594515914092,705.2104509367585,634.8622903422349
0.4520000000000124,-0.05295886445272594,1.9912573506951476,1.2597544176080846,-10.08783474568362,2.0525031811296466,-0.2727870548990774,-0.04584400212091146,2.0383510494734254,0.299545777204792,0.0,0.12342193484582462,0.5447826468903285,-3.3888209062940127,0.27693191310785853,0.4952994649072419,0.06277409383191548,5.026217185805795,0.1920735162601167,-0.1297125952469202,0.01726944099929882,625.7528452793254,642.6969650691439,721.7327316198993,640.3078713911664
0.45600000000000307,-0.05291929423516195,1.9910544953743037,1.2460170330704827,-10.024197103247968,2.1632525830243425,-0.27610653360568266,-0.04573207683197932,2.0382574177638326,0.3036973307646287,0.0,0.13136042838309916,0.5471246243142815,-3.388978260659318,0.27491338182733943,0.4872564874663121,0.06699636308960806,5.60582601964845,0.2229389948935102,-0.14435516353593922,0.01564065843969152,639.295449544796,660.1383814559753,736.6909459078826,645.0776554843862
0.46000000000000796,-0.05287397657316537,1.9908788066112215,1.2322958621717643,-9.956341345150346,2.2697049902828628,-0.27759910110839264,-0.04561984829174802,2.0381635323677147,0.3078601325778545,0.0,0.1392018862073188,0.5493271770490713,-3.386254260324585,0.2842219593746821,0.47255191111190864,0.0711283005290357,6.162251179872683,0.25171079400346047,-0.15805956870917115,0.013662121614385795,652.6799816939689,676.9550683703665,750.126116586993,649.2005455370384
0.46400000000001285,-0.05282221429858243,1.9907318745258367,1.218601658421266,-9.881526171996018,2.370356479403626,-0.27704891610132026,-0.04550732417946099,2.0380693997091854,0.3120338978045489,0.0,0.14684865773176523,0.5512374415364985,-3.380757807559179,0.30532310902046766,0.4511523532858731,0.07511012662036062,6.696187076530688,0.2774020955438889,-0.17055579402753174,0.011356533360769833,665.9928049376508,693.0881048015015,762.0172439415156,652.9020302402398
0.4680000000000035,-0.05276330360329782,1.9906151898987987,1.204944825108086,-9.796990512011373,2.4637239774327466,-0.27425435943398796,-0.04539451209285134,2.037975026144169,0.3162183446281871,0.0,0.1542039179685108,0.55269843128902,-3.372629929411731,0.3383403835797937,0.42316639380087384,0.07889276737731946,7.207998673793512,0.29995215520399127,-0.18174526059646334,0.0087315016556673,679.230956184365,708.5865074477488,772.4337783314213,656.2288892800229
0.4720000000000084,-0.0526965489384209,1.9905301116523755,1.1913352921999998,-9.70003896146638,2.5483753405347676,-0.26905572451533627,-0.04528141954884527,2.037880417960991,0.32041319422954984,0.0,0.16117356965236954,0.5535534646954676,-3.3620097777851354,0.38322192322105936,0.3887588558885818,0.08239687042660351,7.69831193629491,0.31881005890726766,-0.19142564841124193,0.005827551178316814,692.4018259741467,723.4110014834537,781.4107469236056,659.3553006845506
0.4760000000000133,-0.0526212590959725,1.9904779110450828,1.177782860404688,-9.587988108851695,2.6228986454235113,-0.26130620607417077,-0.04516805398426351,2.037785581380965,0.32461817076070404,0.0,0.1676664685307612,0.5536476502433886,-3.3490149591789793,0.43982721843232825,0.34810532272299777,0.08557025880093236,8.167069642185616,0.3342298058721277,-0.19956815525572225,0.002653026807488079,705.4626465679568,737.6237818922582,789.030485995377,662.2650573505821
0.480000000000004,-0.05253678440573606,1.9904596576405567,1.1642965964111698,-9.458364016030261,2.6859945664463147,-0.2509088177222597,-0.0450544227565137,2.03769052255897,0.3288330013193221,0.0,0.17359613145117242,0.5528320487773798,-3.3337859537148917,0.5077390503720196,0.3014956178565382,0.08834886693971519,8.615446059568509,0.34488650850062874,-0.20577641247610495,-0.0007400815058108898,718.4885385316028,751.1126679186532,795.2268578286087,665.2812377603974
0.48400000000000887,-0.05244249881100504,1.9904763122759832,1.150885492392962,-9.308789284450128,2.736405960224952,-0.2378180794114629,-0.044940533144277255,2.037595247584026,0.3330574159232041,0.0,0.17888162461960863,0.5509662393719766,-3.3164511552480938,0.5863908908657837,0.24926589446704459,0.09066844440303853,9.043300387916567,0.3516504235962828,-0.2101895101628427,-0.004295773640930494,731.3224413772715,763.9287827947003,800.2030233932679,668.3457771349314
0.48799999999999955,-0.05233781472606927,1.9905286955268806,1.1375583745871192,-9.13705499395951,2.7729503014455053,-0.22204266989148477,-0.044826392348194855,2.037499762479869,0.3372911474848513,0.0,0.1834481610272149,0.5479204688823343,-3.2971028344570756,0.6751492514008554,0.1917549842583628,0.09240579157416784,9.450679747794773,0.354105307816452,-0.21261897219778852,-0.007952839146482624,743.9263995107015,776.0089700483386,803.9872714549257,671.6199342535607
0.49200000000000443,-0.05222219082258925,1.990617481224511,1.1243239724694019,-8.94116795096967,2.794538685130985,-0.20364283903749703,-0.04471200749154051,2.0374040732055123,0.34153393178646424,0.0,0.18722684702730796,0.543576239178534,-3.275794605929387,0.7732937989687134,0.1293171751736599,0.09349666300662166,9.837496161592096,0.3521636496865682,-0.21297231689748056,-0.011650865840773105,756.2366348707573,787.3158871600967,806.6440068261813,675.2035036083628
0.4960000000000093,-0.05209515622022703,1.9907431363471166,1.111190636773573,-8.719413139435323,2.800213075429604,-0.18272495079959625,-0.04459738562089631,2.0373081856558124,0.3457855074549136,0.0,0.1901565806619394,0.5378303375552547,-3.252608712543341,0.8798160780616797,0.06244447211681851,0.09390053992641739,10.19,0.34519160012154554,-0.21100789579413248,-0.015333694357884252,767.9826976586467,797.5236655152967,807.9057008574835,678.9821825717955
0.5,-0.051956327523694806,1.9909058870719591,1.0981662067442524,-8.470381140050291,2.7891618876452733,-0.15945676095564074,-0.0444825337068179,2.0372121056620256,0.35004561593705813,0.0,0.19218564069663457,0.530597577672405,-3.227662526495012,0.9935171635687989,-0.008265901479466533,0.09360760961885321,10.19,0.3328567965399987,-0.20657273686418987,-0.018925417482642447,773.126119149791,800.7795872453205,802.0327091046369,676.270239441203
0.5040000000000049,-0.051805409674194426,1.9911057354942772,1.085258206999366,-8.19299711682471,2.7607308265380497,-0.13407769754072615,-0.04436745864449458,2.03711583899236,0.3543140014752582,0.0,0.19327280580691447,0.5218125892378278,-3.2010757632757594,1.1130532230872587,-0.082139839401693,0.09258541428131047,10.19,0.3154389294541365,-0.199709053722532,-0.022335586174727064,778.3162291338488,803.5313259181924,795.5116174519155,674.7535616223474
0.5080000000000098,-0.05164222728111794,1.9913423808147672,1.0724733549943306,-7.886542860193822,2.7144184838271537,-0.10690163589821876,-0.044252167254407934,2.0370193913525267,0.35859041108294687,0.0,0.19338762370984225,0.5114309061719357,-3.1729913947945247,1.236968324433985,-0.1584789733760449,0.09076714152594154,10.19,0.29216245275232305,-0.19010689355434446,-0.025467549887200285,783.4905619118998,805.6246212477154,788.3197508095056,674.709808885329
0.5120000000000005,-0.05146674509520675,1.9916151771198616,1.0598172699765376,-7.55078008854997,2.6499403039983047,-0.0783188705196908,-0.04413666628298158,2.036922768386283,0.3628745945205291,0.0,0.1925110489836075,0.49943098946306197,-3.143617415328454,1.3635327384092217,-0.23648415053744207,0.08808800069026314,10.19,0.26277567230101584,-0.17763969104107102,-0.02821927569333598,788.5448488467032,806.9356825394541,780.5162876693171,676.325363248201
0.5160000000000053,-0.05127906353496787,1.9919231632698555,1.0472946475526002,-7.185882383890296,2.567212969975716,-0.04873623354418621,-0.04402096240322575,2.0368259756759723,0.36716630427147273,0.0,0.19063637992494945,0.485815991015141,-3.113197993654385,1.4908723381891213,-0.3152828520126786,0.08458282803103716,10.19,0.22777947542497207,-0.16244867125663992,-0.03055551646411825,793.4017266764266,807.4668037670253,772.1960573880481,679.5543808728418
0.5200000000000102,-0.05107941220803705,1.9922650935414468,1.0349094199452995,-6.792236508641837,2.4662636404762646,-0.01860207937490172,-0.043905062215380465,2.0367290187430607,0.37146529551845137,0.0,0.18776788228190047,0.4706098360216447,-3.081938421819929,1.6174633839845936,-0.3941436359402678,0.08031826142691838,10.19,0.18749918164866097,-0.14460756400884128,-0.03241113159685687,797.9630313480565,807.1726249000758,763.4651876321107,684.4107744444092
0.5240000000000009,-0.05086814671512441,1.9926394572859734,1.022664874678837,-6.370820285388715,2.3473989635149386,0.011572887624466998,-0.04378897224754998,2.0366319030486695,0.37577132611981234,0.0,0.18391985457934398,0.45385525859393283,-3.049998609791559,1.7416189255137273,-0.4722569822649261,0.07532962330128104,10.19,0.14260868394898174,-0.12435995892318669,-0.03369491410688651,802.0836670108263,805.9948223478744,754.5246994530586,690.8664574765108
0.5280000000000058,-0.050645742681356236,1.9930445022859005,1.0105637621032615,-5.92324164634579,2.211230959664714,0.041249860334215176,-0.04367269895633215,2.0365346339941013,0.38008415658623185,0.0,0.17911880287458593,0.4356190143415016,-3.0174997545027438,1.8609775541023699,-0.5485085005990327,0.0696240989692948,10.19,0.093923320785581,-0.10203179585427039,-0.03435306721561374,805.6570350086062,803.9208061063684,745.5649166745893,698.8067552352572
0.5320000000000107,-0.0504127874917034,1.993478260979364,0.9986083882605051,-5.451542187053939,2.058591295458021,0.06988841382221753,-0.0435562487274465,2.036437216921364,0.3844035500574173,0.0,0.17340557853543254,0.4159965670528913,-2.984528776974211,1.9730851746582345,-0.6217417525444755,0.06328567713711807,10.19,0.04212173823948284,-0.07789984376237444,-0.03436154114191309,808.6203886501529,800.9594036874032,736.72672282767,708.0965211491892
0.5360000000000014,-0.05016997206405902,1.9939385748551133,0.9868006881364012,-4.958104624719463,1.8904913008853537,0.09696100842147572,-0.0434396278763537,2.0363396571136905,0.3887292722791311,0.0,0.16683271708821373,0.3951061731341171,-2.9511443441298737,2.0760647615962347,-0.691061048106316,0.05641572855574419,10.19,-0.012197864080257775,-0.052214241180911225,-0.033713123830867296,810.9353062258245,797.1300786327554,728.1239954378069,718.5908855607881
