Time_s,X,Y,Z,Roll_deg,Pitch_deg,Yaw_deg,Ref_X,Ref_Y,Ref_Z,Ref_Yaw,vx,vy,vz,p,q,r,T_pert,tau_x,tau_y,tau_z,RPM_0,RPM_1,RPM_2,RPM_3
0.0040000000000000036,1.0221975646044887e-22,-4.0,0.010006999594037988,-7.417734548572634e-19,7.147505149775166e-19,-9.884920825861219e-20,1.96820473696698e-22,-4.0,0.010074639714689831,-3.6950793544352725e-22,2.8463870859018855e-19,-800.0,2.0013999188075973,0.0,0.0,0.0,0.13727673356390743,8.661928940161907e-19,2.677392694381021e-19,9.074014405973438e-20,539.3555031529193,539.3555031529194,539.3555031529193,539.3555031529194
0.008000000000000007,2.008917082915978e-22,-4.0,0.01001099936604295,-5.913424319702663e-19,1.4619567972158598e-18,-9.667959719720586e-20,1.9680638739700902e-22,-4.0,0.01021705724096241,-3.694814900264507e-22,1.6908525933400032e-19,-444.44444444444446,1.112333262893661,0.0,0.0,0.0,0.2830776344539661,-1.2493895042154405e-19,-3.0944210420715264e-18,6.570283338890598e-22,543.2938902409245,543.2938902409246,543.2938902409245,543.2938902409246
0.01200000000000001,4.2285399936353977e-22,-4.0,0.010014999147004025,-1.5811111543524527e-19,2.4990920033296672e-18,-2.993303892225581e-20,1.9678538510297003e-22,-4.0,0.010429397942859043,-3.694420606207381e-22,2.691015351168395e-20,-9.849528835196493e-24,0.000999943864330756,0.0,0.0,0.0,0.42940121619331495,-4.654608452086265e-19,-2.8296758591174952e-18,-7.486721752149892e-20,547.2178991675321,547.2178991675322,547.2178991675321,547.2178991675321
0.016000000000000014,6.4904489927960335e-22,-4.0,0.010018998946059194,2.6055546661828647e-19,2.8688437773592573e-18,-6.296454035486172e-21,1.9675755056259578e-22,-4.0,0.010710815098006973,-3.6938980445371174e-22,5.148034312797344e-20,-2.801605854933285e-24,0.0009999466343935809,0.0,0.0,0.0,0.5762362185818668,-4.78078518014865e-19,-8.382570262460235e-19,-2.724782883190209e-20,551.1275382973164,551.1275382973165,551.1275382973164,551.1275382973165
0.01999999999999999,6.923756043690941e-22,-4.0,0.010022998767455523,1.0650046578648518e-18,2.597079581633841e-18,-2.1018962324308325e-20,1.9672296676488579e-22,-4.0,0.011060469657949597,-3.693248773277293e-22,4.998640277327169e-20,7.219316668772272e-24,0.0009999512762572105,0.0,0.0,0.0,0.723571509694873,-9.571987827437687e-19,2.059939279366475e-18,1.6592034497255163e-20,555.0228180220812,555.0228180220813,555.0228180220812,555.0228180220813
0.023999999999999994,6.420959422655558e-22,-4.0,0.010026998612467933,7.173700773912185e-19,2.2270959964347746e-18,-1.6737949762776016e-20,1.9668171594594476e-22,-4.0,0.011477530186265227,-3.6924743363167492e-22,1.0858856111216693e-20,1.2299370617972716e-23,0.0009999568559461783,0.0,0.0,0.0,0.8713960695567131,3.3311661689046103e-19,1.3042986760364496e-18,-5.001538815056466e-21,558.9037502654916,558.9037502654916,558.9037502654916,558.9037502654916
0.027999999999999997,5.287715816824023e-22,-4.0,0.010030998480673804,1.0282589450786085e-18,1.04183394488837e-18,-9.867688397760451e-20,1.9663387959505699e-22,-4.0,0.011961172797154362,-3.6915762635236243e-22,-1.7802562027600075e-20,1.6486178266754588e-23,0.0009999626832115846,0.0,0.0,0.0,1.0196989903957792,-4.120904700604579e-19,2.0035059869760173e-18,9.554221052152602e-20,562.7703484397223,562.7703484397223,562.7703484397223,562.7703484397223
0.032,6.681605562850336e-22,-4.0,0.010034998370675681,2.2065243945114657e-18,1.5626440213646255e-18,-1.8029736539771474e-20,1.9657953846071442e-22,-4.0,0.012510581094492131,-3.6905560708585302e-22,-1.6940310602887632e-21,2.407175081477041e-23,0.0009999683677602497,0.0,0.0,0.0,1.1684694767403838,-1.4462135226722401e-18,-3.533832818290408e-18,-9.101833759681896e-20,566.622627400352,566.6226274003521,566.622627400352,566.622627400352
0.036000000000000004,6.882866685013316e-22,-4.0,0.010038998280639214,2.6032522117510783e-18,1.9611979757328804e-18,-1.4307864414278056e-19,1.965187725565994e-22,-4.0,0.013124946111342446,-3.6894152604868663e-22,1.3043349975091483e-20,3.4289729970802644e-23,0.000999973690202563,0.0,0.0,0.0,1.3176968447948656,-6.141592969945011e-19,6.9706194895546995e-19,1.4595659730959731e-19,570.4606033851848,570.4606033851849,570.4606033851848,570.4606033851848
0.04000000000000001,6.538917392626625e-22,-4.0,0.010042998208496677,2.4145486021833956e-18,1.58523086358729e-18,6.892181209100537e-20,1.9645166116752172e-22,-4.0,0.013803466249930549,-3.6881553208902846e-22,6.014132131681771e-21,4.204592735262559e-23,0.000999978544534083,0.0,0.0,0.0,1.467370522132955,4.233875671878701e-20,9.184306475803524e-19,-2.426343809247122e-19,574.2842939641287,574.2842939641289,574.2842939641287,574.2842939641288
0.04400000000000001,6.084107119223106e-22,-4.0,0.010046998152277213,2.5029668378819326e-18,1.305414357496973e-18,4.126594884606335e-20,1.9637828285531093e-22,-4.0,0.014545347222070596,-3.68677772697731e-22,-8.673320183725629e-21,4.289015225047576e-23,0.0009999829000685925,0.0,0.0,0.0,1.6174800464735286,-2.6836139929346214e-19,3.7121987046596024e-19,2.8617759999650475e-20,578.0937179683553,578.0937179683555,578.0937179683553,578.0937179683553
0.048000000000000015,6.191901856340093e-22,-4.0,0.010050998110288508,2.6962510428197926e-18,1.4298318265156868e-18,-2.402988745153725e-19,1.962987154646639e-22,-4.0,0.01534980199004497,-3.6852839401931196e-22,-6.2653552340043705e-21,4.4059395881593264e-23,0.0009999867806174262,0.0,0.0,0.0,1.7680150650185207,-3.9686303754915195e-19,-8.568548713416213e-19,3.2636031653927158e-19,581.8888954368414,581.8888954368415,581.8888954368414,581.8888954368415
0.05200000000000002,6.386761021251645e-22,-4.0,0.010054998080853111,2.6795763649442793e-18,1.480516567846279e-18,-3.8100862865567827e-19,1.9621303612894789e-22,-4.0,0.016216050707932007,-3.683675408628493e-22,2.5167263536591144e-21,4.616514535515116e-23,0.0009999902371436373,0.0,0.0,0.0,1.918965334405418,-1.649044806075394e-19,-2.7188227093613815e-19,1.7338239945431425e-19,585.6698475807808,585.6698475807809,585.6698475807808,585.6698475807809
0.05600000000000002,6.303630692914126e-22,-4.0,0.01005899806263181,2.6951364713082232e-18,1.4246391694025305e-18,-3.8086331357485397e-19,1.9612132127595982e-22,-4.0,0.017143320663378918,-3.681953567127931e-22,4.893315594369008e-22,4.7051153393384314e-23,0.0009999933005105585,0.0,0.0,0.0,2.070320718586097,-2.0140582842686806e-19,2.6704673065064345e-19,1.462053735385452e-20,589.4365966983493,589.4365966983495,589.4365966983493,589.4365966983494
0.060000000000000026,6.156830901540759e-22,-4.0,0.01006299805445677,2.7032059981190095e-18,1.3866237538956484e-18,-4.3668634657234787e-20,1.960236466336417e-22,-4.0,0.01813084621981658,-3.6801198373969592e-22,-7.668657028802361e-22,4.6907547734545154e-23,0.0009999960353215473,0.0,0.0,0.0,2.2220711888806273,-1.9372287299867638e-19,2.3360784394366516e-20,-3.791112302965079e-19,593.1891661467318,593.189166146732,593.1891661467318,593.1891661467318
0.06400000000000003,4.435210646274819e-22,-4.0,0.01006733226156965,-3.512799991112674e-17,2.1109941844635385e-17,-1.9406252799133466e-18,1.9592008723575256e-22,-4.0,0.01917786875911308,-3.678175628108613e-22,-1.9226758212726975e-20,-5.742236471649994e-23,0.0010334191166340434,0.0,0.0,0.0,2.373528545682263,4.3991873096082254e-17,-2.1283656749972334e-17,2.2168856746238815e-18,596.9109650079794,596.9109650079794,596.9109650079794,596.9109650079794
0.06800000000000003,-8.030050274912961e-22,-4.0,0.010075732265221092,-2.576676441220646e-16,1.5141427566212988e-16,-1.0456191391020589e-17,1.9581071742749762e-22,-4.0,0.02028363662466269,-3.6761223350091147e-22,-1.4427754306323564e-19,-2.624986799203484e-21,0.0014734207871850563,0.0,0.0,0.0,2.5177772863518353,2.6226888798743935e-16,-1.4094482927082128e-16,1.0026364462153195e-17,600.4341764073083,600.4341764073085,600.4341764073084,600.4341764073084
0.07199999999999998,-2.7373903488774538e-21,-4.0,0.010093381811440484,-6.805720721451496e-16,3.8112219438811587e-16,-2.0940826768603362e-17,1.9569561087111435e-22,-4.0,0.021447405064907204,-3.67396134102275e-22,-3.4669442821348476e-19,-1.8948563751711825e-20,0.002838375765445121,0.0,0.0,0.0,2.65174153258159,5.114591259036066e-16,-2.6953317543129006e-16,1.2676226485249671e-17,603.6877786452119,603.6877786452121,603.6877786452121,603.6877786452119
0.07599999999999998,-4.3274066526319014e-21,-4.0,0.010124987351133702,-1.3018627310533714e-15,6.695895002586068e-16,-3.165869624829574e-17,1.955748405514163e-22,-4.0,0.022668436177286463,-3.6716940163559453e-22,-4.677032256577785e-19,-7.771860916501337e-20,0.005429875853808774,0.0,0.0,0.0,2.7762150664417695,7.720403626770241e-16,-3.652954487801539e-16,1.3379214885660008e-17,606.695241177327,606.6952411773273,606.6952411773274,606.695241177327
0.07999999999999999,-4.284027430949264e-21,-4.0,0.010174819646734699,-2.157235774986178e-15,9.75447257279424e-16,-4.593181743213305e-17,1.9544847878129479e-22,-4.0,0.023945998852614787,-3.669321718600553e-22,-3.6859592770555714e-19,-2.311866490779741e-19,0.009172370785935982,0.0,0.0,0.0,2.89192252772332,1.0878712761310455e-15,-4.206193299304223e-16,1.7972422514082493e-17,609.4775933209967,609.4775933209969,609.477593320997,609.4775933209966
0.08399999999999999,-1.7571601686975135e-21,-4.0,0.010246758848017741,-3.2440026832880036e-15,1.3112391054532646e-15,-6.2769012983662e-17,1.953165972071786e-22,-4.0,0.025279368719880478,-3.666845792836356e-22,-5.2250920672502826e-20,-5.559645102741969e-19,0.013959533156925575,0.0,0.0,0.0,2.999511047718663,1.4165698256786985e-15,-4.877497448016899e-16,2.1553768370142057e-17,612.0533657090207,612.0533657090211,612.0533657090211,612.0533657090207
0.088,4.355289523265468e-21,-4.0,0.01034433497941906,-4.539534376955235e-15,1.676606755059603e-15,-8.399066667686836e-17,1.9517926681445235e-22,-4.0,0.026667828091465066,-3.6642675717327876e-22,4.3240172524088113e-19,-1.1482395936214876e-18,0.019696097705632767,0.0,0.0,0.0,3.0995581253728575,1.7346669279149917e-15,-5.601746258279037e-16,2.7366899491318045e-17,614.4388997714523,614.4388997714526,614.4388997714528,614.4388997714522
0.092,1.5200761297232062e-20,-4.0,0.01047076409770968,-6.0400423973619046e-15,2.0792732890690315e-15,-1.037731520877386e-16,1.950365579328335e-22,-4.0,0.028110665908779347,-3.661588375649879e-22,1.0826304097162263e-18,-2.1150122138358363e-18,0.026296658713005284,0.0,0.0,0.0,3.1925791242302184,2.062615955521567e-15,-6.451181625124875e-16,2.6557154035644967e-17,616.6486240986809,616.6486240986814,616.6486240986816,616.6486240986808
0.096,3.204051997073161e-20,-4.0,0.010628980432769055,-7.772346440660583e-15,2.5299802489082675e-15,-1.2195828196335782e-16,1.9488854024170849e-22,-4.0,0.02960717768831314,-3.6588095127384424e-22,1.8983983754464364e-18,-3.579135033760336e-18,0.03368460881418532,0.0,0.0,0.0,3.2790342725351724,2.435899978639374e-15,-7.474804075565885e-16,2.5503523988580096e-17,618.6952996658462,618.6952996658468,618.695299665847,618.6952996658462
0.1,5.672913119525443e-20,-4.0,0.010821664856480789,-9.687930644508889e-15,2.9991380053028662e-15,-1.361655949271687e-16,1.9473528277542827e-22,-4.0,0.03115666546809575,-3.655932279039484e-22,2.918986219565896e-18,-5.67575522536739e-18,0.04179115721747485,0.0,0.0,0.0,3.3593350910376794,2.768381219456684e-15,-8.265943157560399e-16,2.160354608797122e-17,620.5902359842778,620.5902359842785,620.5902359842786,620.5902359842777
0.10400000000000001,9.120685398886373e-20,-4.0,0.011051291712180805,-1.1678840820964885e-14,3.460485420734839e-15,-1.5105650837907839e-16,1.9457685392856351e-22,-4.0,0.032758437754564114,-3.652957958582868e-22,4.213868634720934e-18,-8.509337197512484e-18,0.05055660190826372,0.0,0.0,0.0,3.4338062225667594,2.9873339898311065e-15,-8.789186632233471e-16,2.2985498871355904e-17,622.3424468660311,622.3424468660318,622.342446866032,622.342446866031
0.10800000000000001,1.3715695287149228e-19,-4.0,0.011320137676133607,-1.3727640540097015e-14,3.915141291778796e-15,-1.6280664177998088e-16,1.944133214611197e-22,-4.0,0.03441180946983569,-3.649887823485222e-22,5.790121200953145e-18,-1.2143705040930711e-17,0.0599281897190664,0.0,0.0,0.0,3.502760995780748,3.191076644786935e-15,-9.307274985970626e-16,1.992804128652765e-17,623.9604775333586,623.9604775333594,623.9604775333595,623.9604775333585
0.11200000000000002,1.9662699509845922e-19,-4.0,0.01163025361253627,-1.576735548218066e-14,4.327999507291771e-15,-1.7287249559590617e-16,1.9424475250371261e-22,-4.0,0.0361161018993831,-3.6467231340471028e-22,7.664039270466321e-18,-1.6611101588447332e-17,0.06985425232478322,0.0,0.0,0.0,3.5665762478701053,3.320569841124026e-15,-9.468405040223262e-16,1.8443036040517434e-17,625.4541793912605,625.4541793912612,625.4541793912614,625.4541793912603
0.11600000000000002,2.7131184157075167e-19,-4.0,0.011983513620024117,-1.777646925934484e-14,4.6883494068487396e-15,-1.8043841192700977e-16,1.9407121356270427e-22,-4.0,0.03787064264010756,-3.643465138849415e-22,9.857089590368595e-18,-2.192173800403681e-17,0.08028336035575799,0.0,0.0,0.0,3.625536560428541,3.4243164156861254e-15,-9.45312039513056e-16,1.5936051461811888e-17,626.8310798258632,626.831079825864,626.8310798258642,626.831079825863
0.12000000000000002,3.625109208099344e-19,-4.0,0.01238161601380474,-1.9835474687558396e-14,5.0083812727628884e-15,-1.8837700922354454e-16,1.9389277052529979e-22,-4.0,0.039674765548808284,-3.640115074849101e-22,1.233222114662856e-17,-2.810403686474627e-17,0.09117005413095351,0.0,0.0,0.0,3.67993024323665,3.619964478884308e-15,-9.513791776464375e-16,1.6682084015556916e-17,628.0986589601268,628.0986589601276,628.0986589601279,628.0986589601266
0.12400000000000003,4.714896918401741e-19,-4.0,0.012826155349329295,-2.1999734693442958e-14,5.289600155270285e-15,-1.914287854413313e-16,1.9370948866460523e-22,-4.0,0.041527810691044845,-3.636674167474096e-22,1.5044885704030928e-17,-3.5271122232532426e-17,0.10247729628116553,0.0,0.0,0.0,3.72990512287173,3.8836733345054935e-15,-9.572960706544728e-16,1.1299489990624246e-17,629.2610125425584,629.2610125425593,629.2610125425596,629.2610125425582
0.12800000000000003,5.998217419600479e-19,-4.0,0.013318599757800541,-2.426925343138441e-14,5.49026241006776e-15,-1.8703441709289102e-16,1.935214326446471e-22,-4.0,0.043429124290389684,-3.633143630717562e-22,1.803899257545225e-17,-4.357853110238522e-17,0.1141742862138393,0.0,0.0,0.0,3.775658417484942,4.1545845990361884e-15,-9.166344427731581e-16,2.726532841032748e-18,630.3232978098479,630.3232978098488,630.323297809849,630.3232978098476
0.13200000000000003,7.482914792554701e-19,-4.0,0.013860298259235274,-2.664613359863369e-14,5.6214430449221106e-15,-1.8328968896811156e-16,1.9332866652535325e-22,-4.0,0.045378058678067934,-3.629524667231401e-22,2.1333550181700445e-17,-5.314550234375414e-17,0.12623118495220415,0.0,0.0,0.0,3.8173766190710854,4.43514909305189e-15,-8.757028954302894e-16,3.3049698669683926e-18,631.2903395768024,631.2903395768035,631.2903395768036,631.2903395768021
0.13600000000000004,9.17474961156157e-19,-4.0,0.014452501335937333,-2.9149174598172333e-14,5.688273680310056e-15,-1.7128315837726055e-16,1.9313125376749602e-22,-4.0,0.047373972242981635,-3.625818468419053e-22,2.4887444267466864e-17,-6.408319049032529e-17,0.13861988981095816,0.0,0.0,0.0,3.855208347794337,4.7450078881730366e-15,-8.344414980195593e-16,-6.499891002834561e-18,632.1660126027869,632.1660126027881,632.1660126027881,632.1660126027867
0.13999999999999999,1.108199019338998e-18,-4.0,0.0150963619465191,-3.176684234674244e-14,5.647872300287931e-15,-1.5160983042155397e-16,1.9292925723759744e-22,-4.0,0.049416229382115595,-3.6220262145275906e-22,2.87212025969252e-17,-7.651253114963012e-17,0.15131496071352726,0.0,0.0,0.0,3.8893033919650137,5.050025137593012e-15,-7.42318281912089e-16,-1.594894800915669e-17,632.954156480465,632.9541564804663,632.9541564804663,632.9541564804648
0.144,1.3206050980639813e-18,-4.0,0.01579291758513576,-3.4520101582984385e-14,5.4887976430029284e-15,-1.2612572047657205e-16,1.9272273921279708e-22,-4.0,0.051504200451322216,-3.6181490747391025e-22,3.2908326187736534e-17,-9.054487837767049e-17,0.1642906539695786,0.0,0.0,0.0,3.9198511443675015,5.3873620405132e-15,-6.224233356729921e-16,-2.3544708924222096e-17,633.6594682563804,633.6594682563818,633.6594682563818,633.6594682563801
0.148,1.5540615810350089e-18,-4.0,0.01654311385211454,-3.739972372027717e-14,5.2321165519839624e-15,-9.622794300568735e-17,1.9251176138568267e-22,-4.0,0.053637261716482115,-3.614188207261386e-22,3.741201624643607e-17,-1.0630538373157608e-16,0.17752063561242598,0.0,0.0,0.0,3.946996925807582,5.723194491430669e-15,-5.103477901499295e-16,-2.9747028615713035e-17,634.2855743728401,634.2855743728417,634.2855743728416,634.2855743728398
0.152,1.8076309433468885e-18,-4.0,0.017347799479691964,-4.030668027952468e-14,4.8899657720797805e-15,-6.202172147652659e-17,1.9229638486908376e-22,-4.0,0.0558147953050383,-3.6101447594179404e-22,4.213901499900572e-17,-1.23838632609709e-16,0.19098079340243848,0.0,0.0,0.0,3.9708991656353065,5.952029174065644e-15,-4.0190201104034642e-16,-3.600767003765638e-17,634.8363583255918,634.8363583255936,634.8363583255933,634.8363583255917
0.156,2.0799396070245444e-18,-4.0,0.01820775382773436,-4.318928217278081e-14,4.483819080747678e-15,-2.657349319385208e-17,1.9207667020082875e-22,-4.0,0.05803618915790083,-3.606019867737277e-22,4.6992910781766914e-17,-1.4301504681242229e-16,0.2046497673561444,0.0,0.0,0.0,3.9916636615715646,6.122374026780318e-15,-3.0704068488181856e-16,-3.886314635800041e-17,635.3144510470984,635.3144510471001,635.3144510471,635.3144510470983
0.16,2.369544850847861e-18,-4.0,0.01912369717027318,-4.606992081571237e-14,4.0154974614038225e-15,1.0657111821107548e-17,1.9185267734846556e-22,-4.0,0.06030083698171933,-3.601814658041543e-22,5.192155113739577e-17,-1.6369510011335322e-16,0.21851014701470275,0.0,0.0,0.0,4.009377629024431,6.3172006311371975e-15,-2.08184513480423e-16,-4.2400861044575285e-17,635.7220225937987,635.7220225938004,635.7220225938003,635.7220225937984
0.164,2.674483554143671e-18,-4.0,0.020096273998706976,-4.905118248523699e-14,3.513809169221457e-15,4.7155903442892816e-17,1.9162446571394617e-22,-4.0,0.06260813820152066,-3.5975302455344687e-22,5.684649357733144e-17,-1.8597758109452529e-16,0.23254527181966714,0.0,0.0,0.0,4.024164135766603,6.6316863027611545e-15,-1.3164272514043194e-16,-4.307479420893207e-17,636.0620377189225,636.0620377189244,636.0620377189242,636.0620377189224
0.168,2.992916610742283e-18,-4.0,0.021126074883717993,-5.206136870825464e-14,2.9787190715716493e-15,8.732088835086911e-17,1.9139209413827533e-22,-4.0,0.06495749791370911,-3.5931677348886397e-22,6.171400805700974e-17,-2.1003879887452956e-16,0.24673894207155667,0.0,0.0,0.0,4.036104378212097,6.8693281858239844e-15,-5.27632365023534e-17,-4.885624400679528e-17,636.3364705224691,636.3364705224711,636.3364705224709,636.3364705224691
0.17200000000000001,3.3229198811978567e-18,-4.0,0.02221362690338322,-5.4983004970207625e-14,2.405080741510208e-15,1.3132213099848289e-16,1.9115562090612356e-22,-4.0,0.06734832683942642,-3.588728220332105e-22,6.650262178975016e-17,-2.3581393560016016e-16,0.2610758850869338,0.0,0.0,0.0,4.045300779386023,6.97176920206865e-15,3.677576138701513e-17,-5.498690166150331e-17,636.5477586191395,636.5477586191415,636.5477586191413,636.5477586191395
0.17600000000000002,3.662131983041325e-18,-4.0,0.02335939317173822,-5.775687978460793e-14,1.8158597403814907e-15,1.6987005274740806e-16,1.9091510375040498e-22,-4.0,0.0697800412782689,-3.5842127857343165e-22,7.118381986012829e-17,-2.6289262209357673e-16,0.2755406205523302,0.0,0.0,0.0,4.051858824057986,6.999011790913579e-15,1.086921611167116e-16,-5.042339158386503e-17,636.6983874234701,636.6983874234721,636.6983874234719,636.6983874234701
0.18000000000000002,4.007986874520464e-18,-4.0,0.024563786904953425,-6.033938479530601e-14,1.2450279302497899e-15,2.0453350385162025e-16,1.9067059985682e-22,-4.0,0.07225206306235925,-3.579622504691415e-22,7.563183025497926e-17,-2.90851486873694e-16,0.29011849427481023,0.0,0.0,0.0,4.055857568970628,6.965227211236721e-15,1.4623816919399253e-16,-4.746861576955992e-17,636.7902153263859,636.790215326388,636.7902153263876,636.7902153263858
0.18400000000000002,4.3578989882542365e-18,-4.0,0.025827167547498642,-6.277260722774044e-14,7.31735464283503e-16,2.3597708127836776e-16,1.9042216586836321e-22,-4.0,0.07476381951077027,-3.5749584406108592e-22,7.964712639630212e-17,-3.194391052585388e-16,0.30479613712410814,0.0,0.0,0.0,4.057385603451148,6.967502927047581e-15,1.3908122186965286e-16,-4.513068543037153e-17,636.8253018904529,636.8253018904549,636.8253018904546,636.8253018904528
0.18800000000000003,4.710174628093679e-18,-4.0,0.02714984266262404,-6.506687938252863e-14,2.4501136949018657e-16,2.634499681136258e-16,1.9016985788979664e-22,-4.0,0.07731474338429797,-3.5702216467954084e-22,8.317551035736789e-17,-3.4856262178264264e-16,0.3195604752701954,0.0,0.0,0.0,4.05652947362197,6.9716357081994485e-15,1.5584799191709438e-16,-4.1783463824099366e-17,636.8056437671556,636.8056437671576,636.8056437671573,636.8056437671555
0.19200000000000003,5.063199640940492e-18,-4.0,0.028532070217078997,-6.734035633865638e-14,-2.4022061276369636e-16,2.84639623509713e-16,1.8991373149208884e-22,-4.0,0.0799042728405815,-3.565413166526458e-22,8.633850175959165e-17,-3.7835890655305176e-16,0.334398675138707,0.0,0.0,0.0,4.053372821514042,7.10424025328726e-15,2.005163470905257e-16,-3.5571779482656813e-17,636.7331566932878,636.73315669329,636.7331566932896,636.7331566932879
0.19600000000000004,5.4150665870050985e-18,-4.0,0.029974060703131227,-6.959751814764663e-14,-7.188158039443626e-16,3.035761240607761e-16,1.896538417168198e-22,-4.0,0.08253185138956738,-3.5605340331467404e-22,8.927638652779744e-17,-4.090890613411576e-16,0.3492984652481878,0.0,0.0,0.0,4.0479966419235325,7.24065427466259e-15,2.438056814200366e-16,-3.3809852166523736e-17,636.6096829980241,636.6096829980263,636.609682998026,636.6096829980243
0.20000000000000004,5.763988657975173e-18,-4.0,0.03147597911933009,-7.170394032793617e-14,-1.1959355006812637e-15,3.188195973815293e-16,1.893902430805522e-22,-4.0,0.0851969278493154,-3.555585270142386e-22,9.198645206058942e-17,-4.4077112325040976e-16,0.3642480964372575,0.0,0.0,0.0,4.040479500931,7.218980805586248e-15,2.9283749006466214e-16,-3.027340441930006e-17,636.4369980853187,636.4369980853209,636.4369980853205,636.4369980853188
0.20400000000000004,6.107876119544138e-18,-4.0,0.033037946827440934,-7.36210551589664e-14,-1.645755528367789e-15,3.325559818910705e-16,1.891229895791689e-22,-4.0,0.08789895630214387,-3.550567891224359e-22,9.439837147561583e-17,-4.728882934326109e-16,0.37923630753013066,0.0,0.0,0.0,4.030897723553666,7.141962626374531e-15,3.166355281807174e-16,-2.913883081599143e-17,636.2168160807925,636.2168160807945,636.2168160807943,636.2168160807925
0.208,6.4449129591933656e-18,-4.0,0.03466004330054627,-7.537392712685575e-14,-2.0609367659025465e-15,3.436705773674192e-16,1.8885213469217737e-22,-4.0,0.09063739605111147,-3.5454829004092643e-22,9.64349995501043e-17,-5.049520404438778e-16,0.39425229524205835,0.0,0.0,0.0,4.019325554908883,7.081267773998371e-15,3.2857186158515894e-16,-2.6640225160267375e-17,635.9507947582929,635.950794758295,635.9507947582947,635.9507947582929
0.212,6.7735311501643784e-18,-4.0,0.03634230777521051,-7.703199535774956e-14,-2.4466098787403593e-15,3.509774203854061e-16,1.885777313869808e-22,-4.0,0.09341171157683367,-3.540331292099536e-22,9.805154145507136e-17,-5.369474304835611e-16,0.4092856877127356,0.0,0.0,0.0,4.005835298671622,7.090427922212073e-15,3.4279735386356654e-16,-2.2648567583956803e-17,635.6405398452371,635.6405398452392,635.6405398452389,635.6405398452372
0.216,7.092389775343339e-18,-4.0,0.038084740818796446,-7.855239460155322e-14,-2.817546862160703e-15,3.5953269237427574e-16,1.8829983212311668e-22,-4.0,0.09622137249463043,-3.5351140511630082e-22,9.929045384998765e-17,-5.689725914501852e-16,0.4243265211597763,0.0,0.0,0.0,3.990497436084918,7.043050024788724e-15,3.7097502166816533e-16,-2.440697087196926e-17,635.287608791867,635.2876087918692,635.2876087918688,635.287608791867
0.22,7.399866530095186e-18,-4.0,0.03988730582146359,-7.983009030361562e-14,-3.1538306325236383e-15,3.7450729999132484e-16,1.8801848885646248e-22,-4.0,0.09906585351200382,-3.5298321530118776e-22,1.0019463621591069e-16,-6.007339794470468e-16,0.4393652192145277,0.0,0.0,0.0,3.973380728333856,6.8636057432535096e-15,3.793584634126113e-16,-3.225707531240858e-17,634.8935140776573,634.8935140776592,634.893514077659,634.8935140776573
0.224,7.694627005524206e-18,-4.0,0.041749932838986564,-8.081113064585405e-14,-3.4531604063538216e-15,3.8920661968730065e-16,1.877337530434093e-22,-4.0,0.1019446343864423,-3.524486563681052e-22,1.0069614885633704e-16,-6.315192557973868e-16,0.4543928163581651,0.0,0.0,0.0,3.954547397431866,6.60456353199091e-15,3.807728645956198e-16,-3.25503993968567e-17,634.4596130205916,634.4596130205937,634.4596130205935,634.4596130205917
0.228,7.975643854888326e-18,-4.0,0.043672523738571965,-8.14489387965983e-14,-3.7281046286997805e-15,3.9772555597162604e-16,1.8744567564500318e-22,-4.0,0.1048571998835496,-3.5190782399059037e-22,1.007800440648029e-16,-6.605881681071237e-16,0.4694013196479176,0.0,0.0,0.0,3.9340503587280127,6.270846048256563e-15,3.919760545404695e-16,-2.593433395998111e-17,633.9870443337268,633.9870443337287,633.9870443337285,633.9870443337269
0.232,8.241336265662994e-18,-4.0,0.0456549373814556,-8.178410182337387e-14,-3.9269199380827054e-15,3.9458632944159967e-16,1.8715430713105473e-22,-4.0,0.10780303973549582,-3.5136081291994207e-22,1.0037962135999722e-16,-6.874469735035501e-16,0.48438208122813453,0.0,0.0,0.0,3.9119735719995465,5.9610523667008114e-15,3.485125454412132e-16,-1.2665569540791397e-17,633.4776594926169,633.4776594926187,633.4776594926185,633.477659492617
0.23600000000000002,8.490292797026632e-18,-4.0,0.04769700341994121,-8.188609499819868e-14,-3.990427455575134e-15,3.849496408911429e-16,1.8685969748421694e-22,-4.0,0.1107816485997882,-3.508077169928764e-22,9.91245516182727e-17,-7.119898930433406e-16,0.4993262583564424,0.0,0.0,0.0,3.8883744398462783,5.71169161953802e-15,2.3021328498085533e-16,-4.9465980207785906e-18,632.932695751548,632.9326957515497,632.9326957515495,632.9326957515481
0.24000000000000002,8.72216634460664e-18,-4.0,0.04979852918403765,-8.181688275401108e-14,-3.917886002810144e-15,3.7036771249348717e-16,1.8656189620403177e-22,-4.0,0.11379252601835949,-3.502486291391238e-22,9.666239007227378e-17,-7.345034384286242e-16,0.5142266333056714,0.0,0.0,0.0,3.8632973921018348,5.518744040555786e-15,9.071653389649466e-17,1.2259392554919682e-18,632.3530885051372,632.3530885051389,632.3530885051387,632.3530885051373
0.24400000000000002,8.937598816732753e-18,-4.0,0.05195927999413785,-8.1574320374263e-14,-3.752919833850504e-15,3.526300473012368e-16,1.862609523109455e-22,-4.0,0.11683517637697124,-3.496836413889672e-22,9.303304572685084e-17,-7.552416246184443e-16,0.5290755257383136,0.0,0.0,0.0,3.836827598026324,5.311584573905964e-15,-1.8221583606449023e-17,5.511121462139055e-18,631.7407137355856,631.7407137355872,631.7407137355871,631.7407137355856
0.24800000000000003,9.137410193254917e-18,-4.0,0.05417899616989576,-8.110516856647484e-14,-3.5176694740577048e-15,3.322010012097613e-16,1.8595691435029304e-22,-4.0,0.1199091088649301,-3.491128448807225e-22,8.856262988562473e-17,-7.741340016100874e-16,0.5438648377768271,0.0,0.0,0.0,3.809017117900428,5.030401767188613e-15,-1.1008061924138325e-16,9.383447270078639e-18,631.0966822778356,631.0966822778371,631.096682277837,631.0966822778356
0.252,9.322602473507849e-18,-4.0,0.056457404918488774,-8.03732344233144e-14,-3.224673275497301e-15,3.091715450460501e-16,1.856498303962518e-22,-4.0,0.1230138374351143,-3.4853632986816103e-22,8.350322832097723e-17,-7.906830277392932e-16,0.5585887615841723,0.0,0.0,0.0,3.7798947526448177,4.691460607471422e-15,-1.947602687791247e-16,1.3260021535003032e-17,630.4215651347027,630.4215651347041,630.4215651347041,630.4215651347027
0.256,9.494633011831044e-18,-4.0,0.05879420249377192,-7.939172901120306e-14,-2.907888355303772e-15,2.885313479163715e-16,1.853397480557648e-22,-4.0,0.12614888076430864,-3.47954185727875e-22,7.804692325905092e-17,-8.044342816207053e-16,0.5732418953821885,0.0,0.0,0.0,3.74952599997604,4.349976758559042e-15,-2.497369751324955e-16,1.1414654481257854e-17,629.7167832141453,629.7167832141465,629.7167832141465,629.7167832141453
0.26,9.655029625265938e-18,-4.0,0.061189043501289626,-7.812814537611836e-14,-2.5961535371401733e-15,2.6753509790200574e-16,1.8502671447243363e-22,-4.0,0.12931376221384513,-3.4736650096658626e-22,7.252991993006299e-17,-8.15035001798681e-16,0.5878161786001479,0.0,0.0,0.0,3.7179991200091447,3.953467210940792e-15,-2.7457154489802307e-16,1.2678135207165483e-17,628.9842886272575,628.9842886272586,628.9842886272586,628.9842886272575
0.264,9.804924568628234e-18,-4.0,0.06364156288327845,-7.655947388579231e-14,-2.280719946120562e-15,2.4550561673222315e-16,1.8471077633038143e-22,-4.0,0.1325080097905475,-3.4677336322839815e-22,6.712652515534464e-17,-8.22127506244722e-16,0.6023036804828914,0.0,0.0,0.0,3.685359151166606,3.510799392281576e-15,-3.0582668466027916e-16,1.4747287919760925e-17,628.2250327340329,628.2250327340339,628.2250327340339,628.2250327340329
0.268,9.945655088586238e-18,-4.0,0.06615138968773576,-7.462512467322335e-14,-1.9718586405229827e-15,2.2399037570004266e-16,1.8439197985808597e-22,-4.0,0.13573115610797695,-3.461748593019921e-22,6.188902586840079e-17,-8.251349645458861e-16,0.6166999531399548,0.0,0.0,0.0,3.651623883167846,2.9765161917828556e-15,-3.2857152762527945e-16,1.505117726387412e-17,627.4393329688767,627.4393329688775,627.4393329688775,627.4393329688767
0.272,1.0078275740987107e-17,-4.0,0.06871812530246188,-7.237086370646047e-14,-1.6547634552346392e-15,2.0256135461463852e-16,1.8407037083218316e-22,-4.0,0.13898273834797734,-3.4557107512776803e-22,5.679371395191227e-17,-8.235210186458847e-16,0.631000960267937,0.0,0.0,0.0,3.61685553642467,2.470669484745395e-15,-3.6588696339935223e-16,1.583394552565659e-17,626.6285417699108,626.6285417699115,626.6285417699116,626.6285417699108
0.276,1.0204068785822655e-17,-4.0,0.07134133080241929,-6.989804445772901e-14,-1.3353551392896688e-15,1.8163469646630512e-16,1.8374599458124122e-22,-4.0,0.14226229822251724,-3.4496209580493005e-22,5.180366693180221e-17,-8.172893942853451e-16,0.6451994287809778,0.0,0.0,0.0,3.581142959786137,2.0613001860881505e-15,-4.003053233056725e-16,1.6127052508407825e-17,625.7946376548355,625.7946376548362,625.7946376548362,625.7946376548355
0.28,1.0324402624166098e-17,-4.0,0.07402054722955533,-6.740679771178104e-14,-1.0269112543277895e-15,1.5985437337642651e-16,1.8341889598950567e-22,-4.0,0.14556938193582664,-3.4434800559851715e-22,4.69634596145764e-17,-8.074850612218256e-16,0.6592876425477706,0.0,0.0,0.0,3.5445351964716796,1.8706845545307223e-15,-4.21382414459197e-16,1.7983585849664418e-17,624.9386756134413,624.9386756134418,624.9386756134418,624.9386756134413
0.28400000000000003,1.0440252508741313e-17,-4.0,0.07675529782130733,-6.499911174777677e-14,-7.073252191811492e-16,1.378873577523574e-16,1.830891195006153e-22,-4.0,0.14890354014682664,-3.437288879463797e-22,4.228383207955836e-17,-7.956310518601866e-16,0.6732600227540477,0.0,0.0,0.0,3.5070774725120106,1.7979038246283128e-15,-4.640290473192426e-16,1.909604418688834e-17,624.0616245682088,624.0616245682093,624.0616245682094,624.0616245682087
0.28800000000000003,1.0552864595891195e-17,-4.0,0.07954508865873582,-6.270106399293169e-14,-3.802994768093611e-16,1.1603269191623392e-16,1.8275670912128962e-22,-4.0,0.15226432793184935,-3.4310482546610176e-22,3.770205217844706e-17,-7.830715863418597e-16,0.6871121603972034,0.0,0.0,0.0,3.468814332579164,1.7612886357860621e-15,-5.07040626094374e-16,1.9866840006862978e-17,623.1644407003506,623.1644407003511,623.1644407003512,623.1644407003505
0.29200000000000004,1.0663335889812243e-17,-4.0,0.08238940932931915,-6.0595466054289e-14,-3.1817632992743333e-17,9.103487058899695e-17,1.8242170842498748e-22,-4.0,0.15565130474764624,-3.4247589996187043e-22,3.3105868943794006e-17,-7.706693136305121e-16,0.7008398082090861,0.0,0.0,0.0,3.4297895890523478,1.828872564103185e-15,-5.661966665032761e-16,2.4435967347656477e-17,622.2480664799249,622.2480664799252,622.2480664799255,622.2480664799247
0.29600000000000004,1.0773203544207962e-17,-4.0,0.08528773359708439,-5.870826197188913e-14,3.1420083009644437e-16,6.377676809641701e-17,1.8208416055553766e-22,-4.0,0.15906403439468267,-3.418421924312912e-22,2.854021594347162e-17,-7.591824335470807e-16,0.7144388848917562,0.0,0.0,0.0,3.390046285485471,1.939912363416285e-15,-6.049109253668226e-16,2.8102825952211054e-17,621.3134300054156,621.3134300054161,621.3134300054163,621.3134300054156
0.30000000000000004,1.0883958283758476e-17,-4.0,0.08823952007667474,-5.70081092612902e-14,6.399478813755339e-16,2.933047677498935e-17,1.8174410823074123e-22,-4.0,0.16250208498071644,-3.4120378307215144e-22,2.4131482924026253e-17,-7.491024619218199e-16,0.727905476821919,0.0,0.0,0.0,3.349626666741738,2.029286818211555e-15,-6.23394215111631e-16,3.7619074381053523e-17,620.3614444739061,620.3614444739065,620.3614444739068,620.361444473906
0.30400000000000005,1.0997059245744818e-17,-4.0,0.09124421864851107,-5.550134197248171e-14,9.240286153290731e-16,-5.422687291842989e-18,1.8140159374594606e-22,-4.0,0.1659650288846585,-3.4056075128913072e-22,2.0187506446291843e-17,-7.405626189541374e-16,0.7412364128749349,0.0,0.0,0.0,3.308560505350485,2.138848764893554e-15,-6.163895485727108e-16,3.939202765336332e-17,619.3927327458514,619.392732745852,619.3927327458522,619.3927327458514
0.30800000000000005,1.111367270791034e-17,-4.0,0.09430128009570429,-5.424886748021357e-14,1.1590598825090817e-15,-4.046301648027989e-17,1.8105665897759356e-22,-4.0,0.16945244272071341,-3.399131757004599e-22,1.6928745120300083e-17,-7.338099912740997e-16,0.7544301608669215,0.0,0.0,0.0,3.2668583578732404,2.3327583801269498e-15,-5.957396739590758e-16,4.1154560492755856e-17,618.4074658294683,618.4074658294688,618.4074658294691,618.4074658294683
0.31200000000000006,1.1234674965920794e-17,-4.0,0.09741011849040301,-5.3239396425103104e-14,1.347982941771232e-15,-7.40397188823679e-17,1.807093453867381e-22,-4.0,0.1729639073027977,-3.3926113414452785e-22,1.4416559565729088e-17,-7.29320913417928e-16,0.7674829986975205,0.0,0.0,0.0,3.224607152923519,2.530874189317394e-15,-5.727983825655006e-16,4.0883683460663786e-17,617.4076232360939,617.4076232360945,617.4076232360947,617.4076232360939
0.31600000000000006,1.1360795971542218e-17,-4.0,0.10057013422264006,-5.237992435103305e-14,1.4907923653034248e-15,-1.0936008687209042e-16,1.80359694022539e-22,-4.0,0.1764990076092341,-3.386047036864378e-22,1.2655275668657392e-17,-7.271728117766268e-16,0.7803893977578428,0.0,0.0,0.0,3.181848314875902,2.637002833559653e-15,-5.457682177728438e-16,4.429932986964003e-17,616.3941167206636,616.3941167206642,616.3941167206646,616.3941167206636
0.32000000000000006,1.1492634762176602e-17,-4.0,0.10378071652880999,-5.162874939662829e-14,1.5822525301190722e-15,-1.466756539694577e-16,1.8000774552572547e-22,-4.0,0.18005733274771932,-3.3794396062451215e-22,1.1651796347634659e-17,-7.268010978340971e-16,0.7931452129744387,0.0,0.0,0.0,3.1386186350780414,2.704692149424983e-15,-5.086073275760181e-16,4.808040773024345e-17,615.3677530031404,615.367753003141,615.3677530031413,615.3677530031404
0.32400000000000007,1.1630425276857529e-17,-4.0,0.1070412440434058,-5.094380782201634e-14,1.634922383353019e-15,-1.8411377671814542e-16,1.7965354013203477e-22,-4.0,0.1836384759205638,-3.372789804967471e-22,1.1347012961038209e-17,-7.274889265620687e-16,0.8057476919888673,0.0,0.0,0.0,3.0949542025704977,2.7306678874654584e-15,-4.789057607873875e-16,4.975587121396503e-17,614.3293266362037,614.3293266362045,614.3293266362047,614.3293266362037
0.32800000000000007,1.1774276116078281e-17,-4.0,0.11035108535944733,-5.0297100340857295e-14,1.6584019909999906e-15,-2.2232479944476435e-16,1.7929711767562363e-22,-4.0,0.18724203439020098,-3.3660983808721733e-22,1.1652872062744248e-17,-7.287420360394003e-16,0.8181942195626775,0.0,0.0,0.0,3.050890368356537,2.7284771473954458e-15,-4.565610551673133e-16,5.2196072244402504e-17,613.2796192130356,613.2796192130364,613.2796192130365,613.2796192130357
0.3320000000000001,1.192415225042627e-17,-4.0,0.11370960585487025,-4.9690466604261e-14,1.6641512884359594e-15,-2.6062204211815963e-16,1.7893851759245308e-22,-4.0,0.1908676094449645,-3.359366074324308e-22,1.2392934066397515e-17,-7.302637407630999e-16,0.8304829469292729,0.0,0.0,0.0,3.0064490101668735,2.7310491655309474e-15,-4.4408585708723005e-16,5.386586017893799e-17,612.2190952367511,612.2190952367517,612.219095236752,612.2190952367512
0.3360000000000001,1.2079823933153355e-17,-4.0,0.11711617803296216,-4.907552799492781e-14,1.675811073938271e-15,-2.952072540403946e-16,1.7857777892364726e-22,-4.0,0.19451480636513083,-3.3525936182763414e-22,1.3347374638272311e-17,-7.317846187192361e-16,0.8426137700637979,0.0,0.0,0.0,2.9616311825058785,2.679868242666544e-15,-4.557733977217357e-16,5.1102231154664384e-17,611.1477236275485,611.1477236275493,611.1477236275495,611.1477236275487
0.3400000000000001,1.2241092670187926e-17,-4.0,0.12057014667509051,-4.847076612652101e-14,1.7133128606693638e-15,-3.2804404949478233e-16,1.7821494031882585e-22,-4.0,0.19818323438922603,-3.3457817383306924e-22,1.4211138347349033e-17,-7.330791803547145e-16,0.8545847887955704,0.0,0.0,0.0,2.9165084956496727,2.6497009919162972e-15,-4.913786739475717e-16,5.0479986196095784e-17,610.0671636184867,610.0671636184875,610.0671636184876,610.0671636184868
0.3440000000000001,1.2408089792395579e-17,-4.0,0.12407086375358972,-4.7882094267566765e-14,1.7726039231131604e-15,-3.623349699750938e-16,1.7785004003941083e-22,-4.0,0.20187250668059406,-3.338931152801811e-22,1.4770655644210036e-17,-7.340796058387583e-16,0.8663937208194694,0.0,0.0,0.0,2.8710826467202586,2.6271347660776555e-15,-5.277609371632996e-16,5.3527020517604955e-17,608.977407048334,608.9774070483347,608.9774070483348,608.977407048334
0.3480000000000001,1.2580943090226904e-17,-4.0,0.12761763579692026,-4.728626627776602e-14,1.8577711804382272e-15,-3.993284444522117e-16,1.7748311596190736e-22,-4.0,0.20558224029422517,-3.3320425727777757e-22,1.497048199305898e-17,-7.348368016411433e-16,0.8780358612998654,0.0,0.0,0.0,2.825461985714676,2.578523542134805e-15,-5.705382520441568e-16,5.809212834821819e-17,607.8810107738021,607.8810107738028,607.881010773803,607.8810107738021
0.3520000000000001,1.276024867522043e-17,-4.0,0.13120975709328125,-4.6613054515681096e-14,1.935549520938933e-15,-4.369651369356214e-16,1.771142055811593e-22,-4.0,0.20931205614384213,-3.325116702181409e-22,1.4973544082968965e-17,-7.349759545331799e-16,0.8895053135204639,0.0,0.0,0.0,2.7796889825373894,2.4474158729608346e-15,-5.818701113840881e-16,6.036258166748109e-17,606.7789622540115,606.7789622540122,606.7789622540124,606.7789622540115
0.3560000000000001,1.2946311633117486e-17,-4.0,0.13484654007948707,-4.586177876690181e-14,2.0015360324692846e-15,-4.750369759301757e-16,1.767433460135793e-22,-4.0,0.2130615789692425,-3.31815423783092e-22,1.5009713301832495e-17,-7.338477791641606e-16,0.9008001686864164,0.0,0.0,0.0,2.733744880607928,2.310222209470554e-15,-5.847308609709761e-16,6.241638718339807e-17,605.6707778077241,605.6707778077248,605.670777807725,605.6707778077242
0.3600000000000001,1.3139163488345759e-17,-4.0,0.13852729171996656,-4.50682916147985e-14,2.0741794193740533e-15,-5.145320592292719e-16,1.7637057400035377e-22,-4.0,0.21683043730389517,-3.311155869500075e-22,1.5179264803881803e-17,-7.312189181956729e-16,0.9119221079046669,0.0,0.0,0.0,2.6876583414594113,2.2095565684879944e-15,-6.054696457082397e-16,6.564231568978094e-17,604.5571169241064,604.5571169241069,604.5571169241073,604.5571169241065
0.3640000000000001,1.3339177017614445e-17,-4.0,0.1422513011309227,-4.416272658588337e-14,2.138314832078256e-15,-5.546466061335968e-16,1.7599592591062294e-22,-4.0,0.22061826344278906,-3.304122279977898e-22,1.5423528192592162e-17,-7.270658490367187e-16,0.9228692046956783,0.0,0.0,0.0,2.6414833750179136,2.024419067102294e-15,-6.130346905416098e-16,6.798774423261691e-17,603.4392580319152,603.4392580319156,603.4392580319159,603.4392580319152
0.3680000000000001,1.3546777317798245e-17,-4.0,0.14601785467763748,-4.3097729544014793e-14,2.1725614980953566e-15,-5.928783037182225e-16,1.756194377446361e-22,-4.0,0.2244246934105323,-3.297054145127908e-22,1.5864245153519192e-17,-7.208561249969855e-16,0.9336391330938083,0.0,0.0,0.0,2.595243976497066,1.7763204557615974e-15,-5.960504377237864e-16,6.7435512761583e-17,602.3177602833522,602.3177602833526,602.3177602833529,602.3177602833523
0.3720000000000001,1.3761865158369989e-17,-4.0,0.1498262620262539,-4.188930321700748e-14,2.1979114610005442e-15,-6.299739221199112e-16,1.7524114513688228e-22,-4.0,0.22824936692969985,-3.289952133946893e-22,1.6647529740249706e-17,-7.1185979560877e-16,0.9442326386476714,0.0,0.0,0.0,2.5489114123405834,1.5360064088817226e-15,-5.958632418004331e-16,6.767831104857851e-17,601.1919044510669,601.1919044510672,601.1919044510676,601.1919044510669
0.376,1.3984589629121708e-17,-4.0,0.15367579655246222,-4.061833565007438e-14,2.205129419423312e-15,-6.676170368206899e-16,1.748610833591966e-22,-4.0,0.2320919273894278,-3.2828169086232286e-22,1.7759024799477996e-17,-7.001326285619985e-16,0.9546495427849827,0.0,0.0,0.0,2.5025772032125864,1.4095841686269558e-15,-5.917191503561986e-16,6.988511981913165e-17,600.0638961774619,600.0638961774622,600.0638961774625,600.063896177462
0.38,1.4214630803926293e-17,-4.0,0.15756574995062603,-3.935875931110022e-14,2.2259769585732655e-15,-7.046169335151768e-16,1.744792873238422e-22,-4.0,0.2359520218142531,-3.2756491245947373e-22,1.8959877418169358e-17,-6.866438077630883e-16,0.9648876598411071,0.0,0.0,0.0,2.456223251668099,1.3643312451748909e-15,-6.182542376637038e-16,7.072609594483991e-17,598.9332814715858,598.933281471586,598.9332814715864,598.9332814715858
0.384,1.445229936148981e-17,-4.0,0.16149541052024782,-3.8152772902701334e-14,2.232409107828707e-15,-7.432861530510534e-16,1.7409579158656841e-22,-4.0,0.23982930083319517,-3.2684494306061027e-22,2.0214835955514857e-17,-6.724543673925521e-16,0.9749477931948359,0.0,0.0,0.0,2.409874998828244,1.3682547228708388e-15,-6.202327591244874e-16,7.424465594744654e-17,597.8006678395708,597.8006678395711,597.8006678395714,597.8006678395708
0.388,1.4697377276678723e-17,-4.0,0.1654640703467674,-3.704994897432118e-14,2.24616916062936e-15,-7.795637381127912e-16,1.7371063034964479e-22,-4.0,0.24372341864907995,-3.26121846876583e-22,2.1473483338591552e-17,-6.585893025979608e-16,0.9848305030232043,0.0,0.0,0.0,2.363543474586156,1.4328883417558776e-15,-6.408859750373277e-16,7.309062304153596e-17,596.666314204253,596.6663142042534,596.6663142042537,596.666314204253
0.392,1.4950221808730727e-17,-4.0,0.1694710427045122,-3.605174946330493e-14,2.232184452495862e-15,-8.078120507076172e-16,1.7332383746487164e-22,-4.0,0.24763403300810274,-3.253956874602765e-22,2.289870520922973e-17,-6.457693949767795e-16,0.9945381253699344,0.0,0.0,0.0,2.317204322175667,1.505513690993891e-15,-6.277840371118721e-16,6.525526193274975e-17,595.5296125801219,595.5296125801223,595.5296125801226,595.5296125801219
0.396,1.5211203213522933e-17,-4.0,0.17351563543887383,-3.510539425811358e-14,2.1490363308419506e-15,-8.281814476651778e-16,1.7293544643656705e-22,-4.0,0.251560805169629,-3.2466652771221706e-22,2.4810634446053388e-17,-6.340791613016198e-16,1.0040727619278573,0.0,0.0,0.0,2.2708865837153223,1.522963585222501e-15,-5.650305515876016e-16,5.72678057216551e-17,594.3912639469667,594.391263946967,594.3912639469672,594.3912639469665
0.4,1.5480502187575718e-17,-4.0,0.17759715004855825,-3.422236101984528e-14,1.9527830249903913e-15,-8.427186836725063e-16,1.725454904245304e-22,-4.0,0.2555033998762308,-3.2393442988613673e-22,2.799424863542673e-17,-6.23168557194338e-16,1.0134340065816094,0.0,0.0,0.0,2.2246213895753777,1.5567008721948462e-15,-4.444565008688821e-16,5.1349171065879803e-17,593.2520261170291,593.2520261170296,593.2520261170297,593.2520261170292
0.404,1.5757112492359625e-17,-4.0,0.18171487628007038,-3.3430463100974254e-14,1.6810697625294162e-15,-8.527346532461995e-16,1.7215400224698291e-22,-4.0,0.2594614853239578,-3.2319945559449344e-22,3.276077719550415e-17,-6.130426326539809e-16,1.0226196805898589,0.0,0.0,0.0,2.1784510951868192,1.6266303447130184e-15,-3.464747347665524e-16,4.6723396096992554e-17,592.1129399319931,592.1129399319934,592.1129399319937,592.1129399319931
0.40800000000000003,1.603950281576158e-17,-4.0,0.18586807632164956,-3.2721242550108816e-14,1.3940533250319558e-15,-8.571628690693517e-16,1.717610143834851e-22,-4.0,0.26343473313284044,-3.224616658139485e-22,3.8661030366692644e-17,-6.039730516761883e-16,1.0316255513847654,0.0,0.0,0.0,2.132450561030972,1.692362393668169e-15,-3.0660745061556856e-16,4.066683680166558e-17,590.9758585186675,590.9758585186679,590.975858518668,590.9758585186675
0.41200000000000003,1.6327202194636517e-17,-4.0,0.1900560128603915,-3.207407121434612e-14,1.0382133353895539e-15,-8.472605446997776e-16,1.7136655897783144e-22,-4.0,0.2674228183176237,-3.217211208908008e-22,4.522534526348602e-17,-5.95999680393698e-16,1.0404480098828217,0.0,0.0,0.0,2.0866386351081725,1.739164825397219e-15,-2.1422802510522132e-16,2.416817844952967e-17,589.8412607181104,589.8412607181109,589.841260718111,589.8412607181104
0.41600000000000004,1.6619209466814476e-17,-4.0,0.1942779513379555,-3.143284233799425e-14,5.961439655829998e-16,-8.287698374949272e-16,1.7097066784092244e-22,-4.0,0.27142541925873015,-3.2097788054637877e-22,5.267962421546827e-17,-5.88722998373178e-16,1.0490863103131105,0.0,0.0,0.0,2.0410296224575375,1.7242408425407723e-15,-9.013799187283363e-17,1.3788118494690639e-17,588.7095161973747,588.7095161973753,588.7095161973753,588.7095161973747
0.42000000000000004,1.6914041521438304e-17,-4.0,0.19853316646886365,-3.0817156726440635e-14,6.895191100013141e-17,-8.029945156510777e-16,1.7057337245361407e-22,-4.0,0.27544221767345,-3.2023200388239016e-22,6.147084188530814e-17,-5.816936809992439e-16,1.0575417952169404,0.0,0.0,0.0,1.9956245617862343,1.732164052395236e-15,4.518866318519718e-17,4.577108431927451e-18,587.5806672925231,587.5806672925237,587.5806672925236,587.5806672925231
0.42400000000000004,1.7209901342737242e-17,-4.0,0.20282095890491586,-3.0260289846040264e-14,-5.378297038754844e-16,-7.716307359537377e-16,1.7017470396954506e-22,-4.0,0.27947289858735697,-3.194835493862296e-22,7.154927562864755e-17,-5.748561768201283e-16,1.0658181232949009,0.0,0.0,0.0,1.950390425483395,1.7802609817129437e-15,1.8503239832308986e-16,-2.953451462701538e-18,586.4539072333289,586.4539072333296,586.4539072333293,586.453907233329
0.42800000000000005,1.7504255174196806e-17,-4.0,0.20714062210466205,-2.980995090263046e-14,-1.1724835142840094e-15,-7.368580146046363e-16,1.6977469321794198e-22,-4.0,0.28351715030594793,-3.1873257493624513e-22,8.261108957523232e-17,-5.68857294426865e-16,1.0739179579149465,0.0,0.0,0.0,1.9053606474898404,1.887702894232266e-15,2.803568949779213e-16,-8.169661449763418e-18,585.3300833070844,585.3300833070851,585.3300833070848,585.3300833070844
0.43200000000000005,1.7794289247889412e-17,-4.0,0.2114914246405901,-2.9415577066200195e-14,-1.7685076212192422e-15,-7.046588693836517e-16,1.6937337070640228e-22,-4.0,0.28757466438650475,-3.179791378069627e-22,9.37781370148891e-17,-5.641176442348343e-16,1.0818390979435712,0.0,0.0,0.0,1.8606048479394892,1.943071189231626e-15,3.05711664042751e-16,-6.539754358189108e-18,584.2109549945319,584.2109549945327,584.2109549945326,584.2109549945321
0.43600000000000005,1.8077661210483644e-17,-4.0,0.21587263765141085,-2.908087099297071e-14,-2.2959546848057344e-15,-6.770736327604484e-16,1.6897076662365563e-22,-4.0,0.291645135610177,-3.1722329467427066e-22,1.0400674281351404e-16,-5.605329986371668e-16,1.0895785291127615,0.0,0.0,0.0,1.8161377741283693,2.006314897747716e-15,2.907315685046431e-16,-2.4229849064817874e-18,583.0969191501412,583.096919150142,583.0969191501417,583.0969191501413
0.44000000000000006,1.8352537273561752e-17,-4.0,0.22028353698484665,-2.880810940778769e-14,-2.7521958175352005e-15,-6.534614621688407e-16,1.685669108423035e-22,-4.0,0.29572826195428326,-3.164651016205626e-22,1.1270082030693263e-16,-5.578934138493079e-16,1.0971360351665043,0.0,0.0,0.0,1.77196979097236,2.076063765890879e-15,2.644379707990132e-16,1.1327152181096809e-18,581.9882654337852,581.988265433786,581.9882654337857,581.9882654337853
0.44400000000000006,1.861751640268168e-17,-4.0,0.22472340315401662,-2.850424898266916e-14,-3.152366797175798e-15,-6.322147962102028e-16,1.6816183292153727e-22,-4.0,0.29982374456482985,-3.1570461413984076e-22,1.1981782056363943e-16,-5.558727399755482e-16,1.1045127935953247,0.0,0.0,0.0,1.7281112495921649,2.041208413205415e-15,2.478395018177477e-16,2.9720278664702582e-18,580.8852852250311,580.8852852250319,580.8852852250317,580.8852852250312
0.44800000000000006,1.8871420202141073e-17,-4.0,0.2291915213353053,-2.8171916987935285e-14,-3.512347200692916e-15,-6.1251797698469e-16,1.6775556210983506e-22,-4.0,0.30393128772924555,-3.1494188714277854e-22,1.255799529493426e-16,-5.536644800322327e-16,1.111709971826863,0.0,0.0,0.0,1.684572404068088,2.007082262146254e-15,2.4491515063282045e-16,3.954175047950619e-18,579.7882695123445,579.7882695123453,579.7882695123451,579.7882695123445
0.45200000000000007,1.911329463418429e-17,-4.0,0.2336871813963033,-2.7860994961623796e-14,-3.85429217953443e-15,-5.954161128482509e-16,1.673481273476373e-22,-4.0,0.30805059884933,-3.141769749617439e-22,1.303470416939187e-16,-5.509480966305789e-16,1.1187287383385371,0.0,0.0,0.0,1.64136335003551,2.029025434066082e-15,2.6386758471822734e-16,6.219440653505851e-18,578.697507308557,578.6975073085578,578.6975073085575,578.6975073085571
0.45600000000000007,1.9342171434078225e-17,-4.0,0.2382096779481009,-2.7592893895398582e-14,-4.189989001069347e-15,-5.793379781068034e-16,1.6693955727000143e-22,-4.0,0.3121813884144149,-3.134099313557831e-22,1.3450185973717467e-16,-5.482536581643719e-16,1.1255702699399295,0.0,0.0,0.0,1.5984939739321549,2.077217914495474e-15,2.967041734894287e-16,6.7546294663754415e-18,577.6132843167352,577.6132843167361,577.6132843167359,577.6132843167354
0.4600000000000001,1.955696669371487e-17,-4.0,0.2427583104170679,-2.7392836058749306e-14,-4.516490851294513e-15,-5.63037519229571e-16,1.6652988020923547e-22,-4.0,0.3163233699747358,-3.1264080951556496e-22,1.3826327583647628e-16,-5.461857876797172e-16,1.1322357575830277,0.0,0.0,0.0,1.5559739113491886,2.157604285092498e-15,3.282327016542977e-16,5.875145879293363e-18,576.5358818108683,576.5358818108692,576.5358818108691,576.5358818108685
0.4640000000000001,1.9756657652787148e-17,-4.0,0.24733238313199024,-2.7269342769037713e-14,-4.833051470693655e-15,-5.454933822616682e-16,1.6611912419751116e-22,-4.0,0.3204762601150138,-3.118696620682869e-22,1.416571401033345e-16,-5.452071606314706e-16,1.1387264109982809,0.0,0.0,0.0,1.5138125131453015,2.252454564760652e-15,3.5887069204579753e-16,3.792292039650696e-18,575.4655757004805,575.4655757004814,575.4655757004812,575.4655757004806
0.4680000000000001,1.9940326730682473e-17,-4.0,0.25193120542306413,-2.722908115269618e-14,-5.145252008788119e-15,-5.309745960137711e-16,1.6570731696945643e-22,-4.0,0.3246397784282443,-3.1109654108254173e-22,1.446885500676489e-16,-5.455841851858344e-16,1.1450434623343997,0.0,0.0,0.0,1.4720188181757194,2.360239714714859e-15,3.9540431732454534e-16,6.644044679782269e-18,574.4026357526826,574.4026357526835,574.4026357526833,574.4026357526828
0.4720000000000001,2.010691104214463e-17,-4.0,0.2565540800182727,-2.729876227817532e-14,-5.441623196946991e-15,-5.210530902829111e-16,1.6529448596472744e-22,-4.0,0.32881364748969266,-3.1032149807314652e-22,1.4738332713432075e-16,-5.476426101993639e-16,1.1511869978027278,0.0,0.0,0.0,1.4306253003655898,2.5048797159915167e-15,4.211511417123968e-16,1.1455276929686957e-17,573.3479311318455,573.3479311318464,573.3479311318463,573.3479311318457
0.4760000000000001,2.025486115438658e-17,-4.0,0.2612003104667975,-2.742521715273354e-14,-5.658596857792227e-15,-5.204296977165956e-16,1.6488065833056048e-22,-4.0,0.332997592831094,-3.095445840059334e-22,1.4928491291642141e-16,-5.514035944371941e-16,1.1571566906716704,0.0,0.0,0.0,1.3896496225611572,2.594999354047252e-15,3.785953318345993e-16,2.194591153817568e-17,572.3019586548536,572.3019586548545,572.3019586548544,572.3019586548538
0.4800000000000001,2.0383722275015116e-17,-4.0,0.2658692269188127,-2.7598156809370984e-14,-5.819023751166333e-15,-5.20098925255047e-16,1.6446586092430362e-22,-4.0,0.33719134291505654,-3.0876584930250263e-22,1.4987630162035433e-16,-5.565378594380913e-16,1.162954570601121,0.0,0.0,0.0,1.3490571449019853,2.677074837805209e-15,3.4625506373607215e-16,2.2298473146251522e-17,571.2638796309546,571.2638796309557,571.2638796309556,571.2638796309549
0.4840000000000001,2.0493131369972288e-17,-4.0,0.2705601699579697,-2.7833886671506398e-14,-5.933244267188628e-15,-5.229666475100065e-16,1.6405012031592858e-22,-4.0,0.3413946291096666,-3.0798534384493815e-22,1.490758248510507e-16,-5.627183558940365e-16,1.1685852216362478,0.0,0.0,0.0,1.308845235251717,2.781490167049113e-15,3.21834198463577e-16,2.605754864127498e-17,570.2336696739468,570.2336696739478,570.2336696739477,570.2336696739471
0.4880000000000001,2.058280070814191e-17,-4.0,0.27527249989815805,-2.8164196967236687e-14,-6.00382855807231e-15,-5.287046127751125e-16,1.6363346279052267e-22,-4.0,0.34560718566329346,-3.0720311698048603e-22,1.4722836505264076e-16,-5.701419434493806e-16,1.1740525257613101,0.0,0.0,0.0,1.2689921039935441,2.9274862892182507e-15,2.970585194682399e-16,2.9564714931339656e-17,569.2108117626275,569.2108117626286,569.2108117626285,569.2108117626277
0.4920000000000001,2.0652676199676325e-17,-4.0,0.28000555846348685,-2.863753743907066e-14,-6.04221806081124e-15,-5.38752693435651e-16,1.6321591435076116e-22,-4.0,0.3498287496795929,-3.06419217526196e-22,1.4447539223915974e-16,-5.794731642535587e-16,1.1793574120487318,0.0,0.0,0.0,1.2295531462309577,3.1367569798062154e-15,2.805326677058333e-16,3.487214185800561e-17,568.1967711742935,568.1967711742947,568.1967711742946,568.1967711742938
0.4960000000000001,2.0702405304652033e-17,-4.0,0.28475869151019095,-2.9238841168754403e-14,-6.0188709686515375e-15,-5.522888093744083e-16,1.6279750071936016e-22,-4.0,0.35405906109270824,-3.0563369377352656e-22,1.4077361948204042e-16,-5.913711677463021e-16,1.1844988774642904,0.0,0.0,0.0,1.190538277473849,3.338544738551967e-15,2.3116955830436577e-16,3.939693791249307e-17,567.1918508242468,567.191850824248,567.1918508242479,567.1918508242471
0.5000000000000001,2.073233112930791e-17,-4.0,0.28953125664908913,-2.9966670680806365e-14,-5.9555336824298826e-15,-5.654933309324914e-16,1.6237824734151008e-22,-4.0,0.3582978626426669,-3.048465934929133e-22,1.360459602662219e-16,-6.06022131951021e-16,1.1894777507896692,0.0,0.0,0.0,1.1519418534769015,3.547824130921469e-15,1.9546883092322158e-16,3.960397748376404e-17,566.1959535083848,566.1959535083861,566.1959535083861,566.1959535083851
0.5040000000000001,2.0742851547204342e-17,-4.0,0.29432263198657554,-3.084842804496058e-14,-5.864372357733915e-15,-5.76724736446836e-16,1.619581793872899e-22,-4.0,0.3625448998509709,-3.0405796393830166e-22,1.3046358000407755e-16,-6.234221267301586e-16,1.1942975657607657,0.0,0.0,0.0,1.1137401567400813,3.798262061836333e-15,1.7059105392961005e-16,3.788076569988322e-17,565.2085133356068,565.2085133356081,565.208513335608,565.208513335607
0.5080000000000001,2.073375700105935e-17,-4.0,0.2991321846079462,-3.1859414863656286e-14,-5.6899644584326145e-15,-5.83138912748465e-16,1.615373217540624e-22,-4.0,0.3667999209963806,-3.0326785185164355e-22,1.2399833690445532e-16,-6.438105331895163e-16,1.198960136047306,0.0,0.0,0.0,1.075972820992761,4.0310004082124106e-15,8.609048556915026e-17,3.2754941604936205e-17,564.2306018360265,564.2306018360279,564.2306018360279,564.2306018360267
0.512,2.0705416174688563e-17,-4.0,0.3039593007862944,-3.296827071413526e-14,-5.412331169542529e-15,-5.849629348533756e-16,1.6111569906885052e-22,-4.0,0.3710626770908894,-3.024763034673587e-22,1.1605252054608884e-16,-6.669790288537061e-16,1.2034667788275777,0.0,0.0,0.0,1.0386185625137714,4.236660991567005e-15,-3.379892433185606e-17,2.7697013900408713e-17,563.261716112909,563.2617161129103,563.2617161129103,563.2617161129091
0.516,2.0658954121556105e-17,-4.0,0.30880335161132755,-3.4216054500051925e-14,-5.0550957732784645e-15,-5.882743381456981e-16,1.6069333569069468e-22,-4.0,0.37533292185588896,-3.0168336451676044e-22,1.0628876593473376e-16,-6.927041866288532e-16,1.207817776825748,0.0,0.0,0.0,1.0017252830011372,4.497734030851005e-15,-1.4215829183402685e-16,2.955024940626902e-17,562.3031484749079,562.3031484749093,562.3031484749093,562.3031484749081
0.52,2.0595674643390356e-17,-4.0,0.3136637038298631,-3.555884005707062e-14,-4.633370249515598e-15,-5.919798013644088e-16,1.6027025571299185e-22,-4.0,0.3796104116985217,-3.0088908023244675e-22,9.49740015882073e-17,-7.209542959325348e-16,1.2120117193257618,0.0,0.0,0.0,0.9653194071210145,4.717884404188149e-15,-2.412789055373352e-16,3.018762063340064e-17,561.3556400951644,561.3556400951659,561.355640095166,561.3556400951645
0.524,2.0516888074058726e-17,-4.0,0.3185397280632677,-3.6987065974705106e-14,-4.143101887921746e-15,-5.966750337136731e-16,1.598464829658158e-22,-4.0,0.3838949056882217,-3.0009349535265645e-22,8.239518677727415e-17,-7.515588757504674e-16,1.2160479570819782,0.0,0.0,0.0,0.9294108601217133,4.934303496374462e-15,-3.507124124211559e-16,3.1537314472531687e-17,560.4195060347002,560.4195060347018,560.419506034702,560.4195060347002
0.528,2.0424712786190105e-17,-4.0,0.3234308213637826,-3.848856702449889e-14,-3.639326145655486e-15,-5.92627479620752e-16,1.5942204101821908e-22,-4.0,0.38818616553344054,-2.9929665412559095e-22,6.89692078902357e-17,-7.841098498203541e-16,1.2199290585444167,0.0,0.0,0.0,0.8939637044937352,5.143356561506109e-15,-4.111496995824544e-16,2.155881529306236e-17,559.4938641651502,559.4938641651518,559.4938641651519,559.4938641651502
0.532,2.0321007353983988e-17,-4.0,0.32833639272677256,-3.9955458137677696e-14,-3.1445743634654097e-15,-5.866512387431623e-16,1.5899695318051688e-22,-4.0,0.39248395555855753,-2.984986003137017e-22,5.538555092367373e-17,-8.179159492504043e-16,1.2236597929774327,0.0,0.0,0.0,0.8589706020052374,5.232487709580404e-15,-4.450527471240021e-16,1.9180972511459673e-17,558.5785745494089,558.5785745494105,558.5785745494106,558.5785745494089
0.536,2.0207267735709483e-17,-4.0,0.3332558710546121,-4.128128934855453e-14,-2.6485187097606763e-15,-5.765437445810619e-16,1.585712425065526e-22,-4.0,0.396788042680973,-2.9769937719794383e-22,4.2156254611608715e-17,-8.513480506364026e-16,1.2272442549825568,0.0,0.0,0.0,0.8244077091820898,5.19597115775057e-15,-4.878612657198833e-16,1.415056846354599e-17,557.6730629789804,557.673062978982,557.6730629789821,557.6730629789803
0.54,2.0084955288937827e-17,-4.0,0.3381886715752454,-4.2413917468395055e-14,-2.1393266970778456e-15,-5.647994796361102e-16,1.5814493179594566e-22,-4.0,0.401098196388383,-2.9689902758199595e-22,2.9223546220849826e-17,-8.823553046045324e-16,1.2306839190220353,0.0,0.0,0.0,0.7903187399202702,5.089844909251354e-15,-5.455848508335548e-16,1.186376624249822e-17,556.7785251920081,556.7785251920096,556.7785251920096,556.7785251920079
0.544,1.9955842106551434e-17,-4.0,0.3431342203921294,-4.331040279607147e-14,-1.6336336620797312e-15,-5.513495561452247e-16,1.5771804359632133e-22,-4.0,0.4054141887162341,-2.9609759379644648e-22,1.6503923602451483e-17,-9.094254163787314e-16,1.2339790242098192,0.0,0.0,0.0,0.7566980571225814,4.92115561858211e-15,-5.898177500931856e-16,9.42846124419994e-18,555.8948658863076,555.894865886309,555.8948658863092,555.8948658863075
