Time_s,X,Y,Z,Roll_deg,Pitch_deg,Yaw_deg,Ref_X,Ref_Y,Ref_Z,Ref_Yaw,vx,vy,vz,p,q,r,T_pert,tau_x,tau_y,tau_z,RPM_0,RPM_1,RPM_2,RPM_3
0.0040000000000000036,1.0221975646044887e-22,-4.0,0.010006999594037988,-7.417734548572634e-19,7.147505149775166e-19,-9.884920825861219e-20,1.96820473696698e-22,-4.0,0.010074639714689831,-3.6950793544352725e-22,2.8463870859018855e-19,-800.0,2.0013999188075973,0.0,0.0,0.0,0.13727673356390743,8.661928940161907e-19,2.677392694381021e-19,9.074014405973438e-20,539.3555031529193,539.3555031529194,539.3555031529193,539.3555031529194
0.007999999999999993,2.008917082915978e-22,-4.0,0.01001099936604295,-5.913424319702663e-19,1.4619567972158598e-18,-9.667959719720586e-20,1.9680638739700902e-22,-4.0,0.01021705724096241,-3.694814900264507e-22,1.6908525933400032e-19,-444.44444444444446,1.112333262893661,0.0,0.0,0.0,0.28307763445396705,-1.2493895042154463e-19,-3.0944210420715402e-18,6.570283338890512e-22,543.2938902409246,543.2938902409246,543.2938902409246,543.2938902409246
0.011999999999999997,1.6858415462831992e-22,-4.0,0.01001499914698505,-1.6645784885072188e-19,1.2856366229578426e-18,2.5054134997396235e-20,1.9678538510297003e-22,-4.0,0.010429397942859043,-3.694420606207381e-22,1.4867099774533787e-21,-1.0065346237908937e-23,0.000999943862433142,0.0,0.0,0.0,0.42940121623182737,-4.557140941953747e-19,1.5503068650094343e-18,-1.391009317730152e-19,547.2178991685612,547.2178991685613,547.2178991685612,547.2178991685613
0.016,-1.8070555048640856e-22,-4.0,0.010018998945963373,3.8732094638408395e-19,6.708667178667137e-19,-5.1781867529960765e-20,1.9675755056259578e-22,-4.0,0.010710815098006973,-3.6938980445371174e-22,-3.14768435238715e-20,-9.683550100807475e-25,0.0009999466248114888,0.0,0.0,0.0,0.5762362187384296,-6.352826570636112e-19,4.350712536704885e-18,8.786209067479121e-20,551.1275383014704,551.1275383014704,551.1275383014704,551.1275383014704
0.020000000000000004,-1.716445317067514e-22,-4.0,0.010022998767244459,-1.865085195897586e-20,5.78972846292487e-19,-1.2624242995102346e-19,1.9672296676488579e-22,-4.0,0.0110604696579496,-3.693248773277293e-22,-3.616252181296976e-20,1.5389395656731297e-25,0.00099995125515083,0.0,0.0,0.0,0.7235715099318142,4.4758049585556585e-19,-3.8212375978402336e-18,8.824330554148024e-20,555.0228180283236,555.0228180283236,555.0228180283236,555.0228180283236
0.024000000000000007,-1.4311862866820242e-24,-4.0,0.010026998612142115,-5.3545076836414e-19,1.642709603377091e-18,-9.547952474537078e-20,1.9668171594594476e-22,-4.0,0.011477530186265229,-3.6924743363167492e-22,1.0008654503105778e-20,-2.278208158439331e-24,0.000999956827501397,0.0,0.0,0.0,0.8713960697963373,6.047593943351966e-19,-3.163574507888126e-18,-3.161576281505592e-20,558.9037502717606,558.9037502717607,558.9037502717606,558.9037502717607
0.027999999999999997,-5.988525760846008e-23,-4.0,0.01003099848018789,-7.23186419084897e-20,1.1723936214513713e-18,-1.9231206045243398e-20,1.9663387959505699e-22,-4.0,0.011961172797154362,-3.6915762635236243e-22,1.3271757970730039e-20,-4.2099920787916104e-24,0.000999962649914088,0.0,0.0,0.0,1.0196989907310854,-5.0419899417073265e-19,2.962342104497483e-18,-8.601213255290228e-20,562.7703484484343,562.7703484484344,562.7703484484343,562.7703484484344
0.032,-8.110875508336783e-23,-4.0,0.010034998369995208,-9.625103060132054e-20,1.2550850927695059e-18,3.153249015090837e-19,1.9657953846071442e-22,-4.0,0.012510581094492131,-3.6905560708585302e-22,4.123553649524346e-21,-4.765724694213841e-24,0.000999968326611915,0.0,0.0,0.0,1.1684694771507405,3.2891945882344253e-20,-5.596375797630025e-19,-3.9088644878686386e-19,566.6226274109417,566.6226274109418,566.6226274109417,566.6226274109417
0.036000000000000004,-1.4006267461800533e-22,-4.0,0.01003899827978648,1.083173996489668e-19,6.516333848545867e-19,2.503660995131983e-19,1.965187725565994e-22,-4.0,0.013124946111342446,-3.6894152604868663e-22,-6.923356836512803e-21,-2.112729868408441e-25,0.0009999736430158293,0.0,0.0,0.0,1.317696845166169,-2.3229930948880888e-19,1.0788160014191335e-18,6.207323776023067e-20,570.4606033947022,570.4606033947023,570.4606033947022,570.4606033947023
0.04000000000000001,-1.0455214749272118e-22,-4.0,0.010042998207592123,4.862804711608124e-19,6.626813618791737e-19,2.8587988493143963e-19,1.9645166116752172e-22,-4.0,0.013803466249930549,-3.6881553208902846e-22,-1.5582062139780624e-20,2.866751327855607e-24,0.0009999785126686006,0.0,0.0,0.0,1.4673705222653217,-4.487667239728325e-19,-1.1060802737761562e-18,-5.2626148867046006e-20,574.284293967499,574.2842939674991,574.284293967499,574.2842939674991
0.044,-9.078184252672053e-23,-4.0,0.01004699815137837,8.212388735744508e-19,9.91962495824813e-19,1.1569761530883886e-19,1.9637828285531093e-22,-4.0,0.014545347222070593,-3.68677772697731e-22,5.484448776755748e-22,7.616455962777522e-24,0.000999982887126688,0.0,0.0,0.0,1.6174800464907868,-4.2439479007795714e-19,-2.0295931152109456e-19,1.8620214369368092e-19,578.0937179687919,578.093717968792,578.0937179687919,578.0937179687919
0.048,-2.7013697879184056e-23,-4.0,0.01005099810923611,8.085846263532739e-19,1.2707937558611044e-18,1.5121140072708018e-19,1.962987154646639e-22,-4.0,0.015349801990044966,-3.6852839401931196e-22,1.0939706274787114e-20,1.2000045382067626e-23,0.0009999867684214528,0.0,0.0,0.0,1.7680150653588333,-4.13814878271464e-20,-9.846316580284526e-19,-4.709404185036471e-20,581.8888954453931,581.8888954453932,581.8888954453931,581.8888954453931
0.052000000000000005,-5.091180310900585e-23,-4.0,0.0100549980797426,7.43776733006261e-19,1.2286884724388223e-18,-4.034982985216933e-20,1.9621303612894789e-22,-4.0,0.016216050707932004,-3.683675408628493e-22,5.267824577981043e-21,1.4100908045384016e-23,0.0009999902109352615,0.0,0.0,0.0,1.9189653345569304,2.0385341786142485e-20,9.33194458276827e-19,2.1670829330423528e-19,585.6698475845636,585.6698475845637,585.6698475845636,585.6698475845636
0.05600000000000001,-4.678804683036391e-23,-4.0,0.010058998061538184,7.902010102104085e-19,1.23811263114415e-18,-5.234484655981425e-20,1.9612132127595982e-22,-4.0,0.01714332066337891,-3.681953567127931e-22,1.2602389908488242e-21,1.3454639473461446e-23,0.0009999932890253013,0.0,0.0,0.0,2.070320718587251,-1.0507234980708729e-19,-3.9929966329489837e-19,1.4813818125403917e-20,589.4365966983779,589.436596698378,589.4365966983779,589.4365966983779
0.06,-5.008109104769038e-23,-4.0,0.010062998053302482,8.377275450786788e-19,1.2264835222671827e-18,-6.909074348004784e-20,1.960236466336417e-22,-4.0,0.01813084621981657,-3.6801198373969592e-22,1.2211072237408674e-21,1.3712020241565442e-23,0.000999996031904142,0.0,0.0,0.0,2.222071189038634,-1.0953409399022138e-19,1.4345407417132383e-20,2.085730543516239e-20,593.1891661506268,593.1891661506269,593.1891661506268,593.1891661506268
0.064,-6.344726606772921e-23,-4.0,0.01006731754243733,-4.437742688062798e-17,-4.2408306925519274e-19,3.6014907970494214e-20,1.9592008723575256e-22,-4.0,0.019177868759113068,-3.678175628108613e-22,-1.6662112110500884e-21,-1.099606537146577e-22,0.0010319473135721527,0.0,0.0,0.0,2.373558416096753,5.274191483377555e-17,1.9661222767923208e-18,-1.207957601371732e-19,596.9116967322472,596.9116967322474,596.9116967322472,596.9116967322473
0.068,-5.898577218965654e-23,-4.0,0.010075635137547318,-3.137703836571971e-16,-4.709697251239321e-18,1.552487663431399e-18,1.9581071742749762e-22,-4.0,0.02028363662466268,-3.6761223350091147e-22,-3.5773357553444903e-22,-3.214682047867549e-21,0.0014637081284313985,0.0,0.0,0.0,2.5179450051196497,3.1761351670534285e-16,4.839385318040398e-18,-1.7738105056317944e-18,600.4382608312627,600.4382608312629,600.4382608312628,600.4382608312627
0.07200000000000001,-8.479706052001584e-23,-4.0,0.010093141706967153,-8.241735642511512e-16,-7.143407271803874e-18,4.434490057933309e-18,1.9569561087111433e-22,-4.0,0.02144740506490721,-3.67396134102275e-22,-2.2062281879000983e-21,-2.283489401460916e-20,0.002814365439759818,0.0,0.0,0.0,2.6520348030677914,6.174706923363122e-16,3.5156159860572886e-18,-3.431235102379589e-18,603.6948820972568,603.6948820972572,603.694882097257,603.6948820972569
0.07600000000000001,-2.271124483829377e-22,-4.0,0.010124554339180036,-1.5595646776405797e-15,2.1373193061991363e-20,6.026976896795632e-18,1.9557484055141629e-22,-4.0,0.02266843617728647,-3.6716940163559453e-22,-1.6151233942082907e-20,-9.308845093027355e-20,0.005391337471784274,0.0,0.0,0.0,2.776614230903415,9.150989704885325e-16,-6.496224873767485e-18,-2.0432200948858135e-18,606.704861593711,606.7048615937115,606.7048615937114,606.7048615937111
0.08000000000000002,-3.327158256110107e-22,-4.0,0.010174153043945769,-2.482856403051569e-15,3.1167565368834804e-18,5.861545507385619e-18,1.9544847878129476e-22,-4.0,0.023945998852614794,-3.669321718600553e-22,-2.6924071352755288e-20,-2.7091187235975364e-19,0.009121884965624348,0.0,0.0,0.0,2.8924104110457893,1.1848043912227362e-15,-3.921631080373627e-18,-5.50850230562979e-20,609.4892982852352,609.4892982852357,609.4892982852356,609.4892982852352
0.08399999999999999,-4.554517935341195e-22,-4.0,0.010245825987822118,-3.618321361309852e-15,8.419921852578456e-18,4.4880676288997915e-18,1.9531659720717858e-22,-4.0,0.025279368719880475,-3.666845792836356e-22,-2.985124181219724e-20,-6.323412842717544e-19,0.013899339669741842,0.0,0.0,0.0,3.000072677565445,1.4957028272147977e-15,-6.113312698168759e-18,1.3628987013210706e-18,612.066783226244,612.0667832262444,612.0667832262443,612.066783226244
0.088,-5.362789447732715e-22,-4.0,0.010343110122186399,-5.0223781313684486e-15,1.186427279620261e-17,3.96350381174657e-18,1.9517926681445233e-22,-4.0,0.026667828091465062,-3.6642675717327876e-22,-3.02376083431119e-20,-1.278423671756006e-18,0.01962813699001552,0.0,0.0,0.0,3.100180485828454,1.886991974572638e-15,-4.977920620249284e-18,4.2763352771706303e-19,614.4537104203202,614.4537104203209,614.4537104203208,614.4537104203202
0.092,-6.205544114189819e-22,-4.0,0.010469213856428912,-6.695664321001896e-15,1.9369530052857442e-17,2.7190038019504014e-18,1.9503655793283348e-22,-4.0,0.028110665908779343,-3.661588375649879e-22,-2.935529895453317e-20,-2.33817331571204e-18,0.026221245086214394,0.0,0.0,0.0,3.19327855748688,2.2973926224102134e-15,-9.46086551716365e-18,1.2901744049042866e-18,616.6652092219564,616.6652092219572,616.6652092219571,616.6652092219565
0.096,-6.65143509115623e-22,-4.0,0.010627027812655822,-8.639535358710547e-15,2.835004887744831e-17,7.426903989798127e-19,1.9488854024170846e-22,-4.0,0.029607177688313134,-3.6588095127384424e-22,-2.5993990652102208e-20,-3.960336359845159e-18,0.03359695032213659,0.0,0.0,0.0,3.279900346911554,2.727786594375952e-15,-1.219572111925466e-17,2.19615264225126e-18,618.7157682226232,618.7157682226241,618.715768222624,618.7157682226233
0.1,-5.890649053677362e-22,-4.0,0.010819244275913005,-1.0763765370468151e-14,3.4003323646834087e-17,-2.59915264303178e-18,1.9473528277542825e-22,-4.0,0.031156665468095743,-3.655932279039484e-22,-2.278488655778868e-20,-6.289149562128457e-18,0.04168696008720209,0.0,0.0,0.0,3.36034709941844,3.0713241240224014e-15,-9.900585032301485e-18,3.87246229186957e-18,620.6140804096168,620.6140804096177,620.6140804096176,620.6140804096168
0.10400000000000001,-3.8027961673468464e-22,-4.0,0.01104832973413161,-1.3019124186105393e-14,3.74392984176189e-17,-7.278020042808847e-18,1.945768539285635e-22,-4.0,0.03275843775456411,-3.652957958582868e-22,-2.292757681745139e-21,-9.44229226320209e-18,0.0504346323817028,0.0,0.0,0.0,3.434982200137486,3.369707363562666e-15,-7.938980996468708e-18,5.571546321174892e-18,622.3700765557493,622.3700765557503,622.3700765557502,622.3700765557493
0.10800000000000001,-1.1343001270922148e-22,-4.0,0.011316542657628761,-1.5345283235944144e-14,4.7526023163610625e-17,-1.4016223433100627e-17,1.9441332146111968e-22,-4.0,0.034411809469835686,-3.649887823485222e-22,1.1909414960279538e-20,-1.3503256924425208e-17,0.05978661953673879,0.0,0.0,0.0,3.5041402350348836,3.606609876525805e-15,-1.5182472759881612e-17,8.16930709351093e-18,623.9927987210958,623.992798721097,623.9927987210968,623.9927987210958
0.11200000000000002,2.933701005701569e-22,-4.0,0.011625943753958683,-1.776321491072675e-14,5.909051884459045e-17,-1.867371187192105e-17,1.942447525037126e-22,-4.0,0.03611610189938309,-3.6467231340471028e-22,2.1596605363320072e-20,-1.8549863412876675e-17,0.06969111470397481,0.0,0.0,0.0,3.5681416955218737,3.87284401755041e-15,-1.860284277673061e-17,6.015396676732408e-18,625.4907764663903,625.4907764663915,625.4907764663914,625.4907764663903
0.11600000000000002,9.274770446870622e-22,-4.0,0.011978398364502393,-2.025028705840419e-14,6.769858536072207e-17,-2.3216475082689575e-17,1.9407121356270425e-22,-4.0,0.03787064264010755,-3.643465138849415e-22,3.7599495377307884e-20,-2.4665544552920604e-17,0.0800986677495662,0.0,0.0,0.0,3.6273085999741435,4.118925491217552e-15,-1.7079328054532586e-17,6.072632300879607e-18,626.8724154596833,626.8724154596846,626.8724154596845,626.8724154596835
0.12,1.806308939848562e-21,-4.0,0.012375655448378556,-2.2771667766795705e-14,7.482816357316647e-17,-3.1480770805043615e-17,1.9389277052529976e-22,-4.0,0.03967476554880826,-3.640115074849101e-22,6.880600643653949e-20,-3.191886176728873e-17,0.09096797042810745,0.0,0.0,0.0,3.681808982063519,4.329060602149803e-15,-1.633918773687339e-17,1.060651261839843e-17,628.14239500003,628.1423950000312,628.1423950000312,628.1423950000301
0.124,2.9003404017092055e-21,-4.0,0.01281932404186943,-2.5349496653189653e-14,8.639122643636899e-17,-4.160583278319042e-17,1.937094886646052e-22,-4.0,0.041527810691044824,-3.636674167474096e-22,9.575516574658887e-20,-4.036656449364857e-17,0.10226472727386127,0.0,0.0,0.0,3.7318624476406663,4.5673949621991645e-15,-2.187142222502917e-17,1.3119541820607249e-17,629.3064937939265,629.306493793928,629.3064937939279,629.3064937939266
0.128,4.291931730918688e-21,-4.0,0.013310881991738506,-2.7939727647512332e-14,9.795376146293531e-17,-5.255367898150059e-17,1.9352143264464707e-22,-4.0,0.04342912429038966,-3.633143630717562e-22,1.2591126643799192e-19,-5.00606280175981e-17,0.11395591566072791,0.0,0.0,0.0,3.777675424526249,4.758155359604131e-15,-2.3810600229599176e-17,1.4496452932848314e-17,630.370086831983,630.3700868319844,630.3700868319844,630.3700868319831
0.132,5.95996088533337e-21,-4.0,0.013851686553045259,-3.052087823798793e-14,1.1579725776953494e-16,-6.020088653873211e-17,1.9332866652535323e-22,-4.0,0.04537805867806791,-3.629524667231401e-22,1.4861791797092046e-19,-6.101837374602408e-17,0.1260093544944028,0.0,0.0,0.0,3.8194370997964606,4.92467801761229e-15,-3.19502477453212e-17,1.109034028774224e-17,631.3380638177765,631.338063817778,631.3380638177779,631.3380638177766
0.136,7.61763169461555e-21,-4.0,0.014442977915544263,-3.3077084477668794e-14,1.7391668380698423e-16,-6.643435155184701e-17,1.93131253767496e-22,-4.0,0.047373972242981614,-3.625818468419053e-22,1.0838171864622962e-19,-7.321987151752805e-17,0.13839485967993176,0.0,0.0,0.0,3.857333433176497,5.072054891280171e-15,-7.710585748459496e-17,9.752885827373371e-18,632.2151649645305,632.2151649645319,632.2151649645318,632.2151649645305
0.14,9.376714939132164e-21,-4.0,0.015085873045592516,-3.5632593521909676e-14,2.785950798800436e-16,-7.107450780697366e-17,1.9292925723759742e-22,-4.0,0.0494162293821156,-3.6220262145275906e-22,-4.675822589556539e-20,-8.667106004219494e-17,0.15108249694892484,0.0,0.0,0.0,3.8915666991331976,5.246040199897453e-15,-1.3675928686635747e-16,8.147616828817304e-18,633.0064405446067,633.0064405446083,633.0064405446082,633.0064405446068
0.14400000000000002,1.164672707646991e-20,-4.0,0.015781403511779167,-3.817890827627096e-14,4.2352607058215624e-16,-7.728351431607593e-17,1.9272273921279706e-22,-4.0,0.05150420045132223,-3.6181490747391025e-22,-3.123318585969547e-19,-1.0140428440356532e-16,0.1640453697314373,0.0,0.0,0.0,3.922266417204746,5.410055500184431e-15,-1.9579571592433534e-16,1.0170823215563676e-17,633.7152005867683,633.7152005867698,633.7152005867698,633.7152005867682
0.14800000000000002,1.5195833792438927e-20,-4.0,0.01653053034014246,-4.059035537713184e-14,5.82827682599416e-16,-8.414286515178886e-17,1.9251176138568265e-22,-4.0,0.05363726171648213,-3.614188207261386e-22,-6.083989686205772e-19,-1.17353257022462e-16,0.17726210450211033,0.0,0.0,0.0,3.9495347645668604,5.4266892150565416e-15,-2.3188541355010304e-16,1.1185491488096103e-17,634.3440769767191,634.3440769767205,634.3440769767205,634.3440769767191
0.152,2.05523073395188e-20,-4.0,0.017334120628729386,-4.2785964634623604e-14,7.620463052682291e-16,-9.029890787560289e-17,1.9229638486908374e-22,-4.0,0.0558147953050383,-3.6101447594179404e-22,-8.91337656167664e-19,-1.342423395641237e-16,0.19071240261338449,0.0,0.0,0.0,3.9735237120187348,5.339548846007678e-15,-2.7328858273467987e-16,1.0645584902451643e-17,634.8968071441594,634.8968071441609,634.8968071441609,634.8968071441594
0.156,2.8296101378066264e-20,-4.0,0.01819297968254502,-4.4764963083977436e-14,9.685814730912082e-16,-9.541934400389391e-17,1.9207667020082873e-22,-4.0,0.05803618915790083,-3.606019867737277e-22,-1.1763849582935402e-18,-1.5174776331544057e-16,0.20437677521000822,0.0,0.0,0.0,3.9943230895402038,5.236746357232267e-15,-3.257526685104122e-16,9.688621059154342e-18,635.3756571335078,635.3756571335093,635.3756571335093,635.3756571335078
0.16,3.94360096445524e-20,-4.0,0.01910783912284656,-4.64677106276889e-14,1.1773111509443286e-15,-1.0144165797880572e-16,1.9185267734846553e-22,-4.0,0.06030083698171933,-3.601814658041543e-22,-1.4355496112995418e-18,-1.6958985339693205e-16,0.2182373613552054,0.0,0.0,0.0,4.012048912151798,5.049487833588155e-15,-3.5625088561320955e-16,1.095242009066914e-17,635.7834620992903,635.7834620992918,635.7834620992917,635.7834620992903
0.164,5.474967194742607e-20,-4.0,0.020079357288407457,-4.788316836940076e-14,1.388962616586222e-15,-1.0746159651361127e-16,1.9162446571394615e-22,-4.0,0.06260813820152066,-3.5975302455344687e-22,-1.6239861761440546e-18,-1.874817117710857e-16,0.23227631505532945,0.0,0.0,0.0,4.026818811754923,4.830448140816859e-15,-3.8592514361883657e-16,1.1196942311877646e-17,636.1230626426271,636.1230626426285,636.1230626426286,636.1230626426271
0.168,7.493746591068732e-20,-4.0,0.021108119276146763,-4.903635836762207e-14,1.6138602074977116e-15,-1.1527983575849617e-16,1.913920941382753e-22,-4.0,0.06495749791370911,-3.5931677348886397e-22,-1.7495872903324693e-18,-2.051703457123332e-16,0.24647528216865142,0.0,0.0,0.0,4.0387527557961,4.620981958241804e-15,-4.276415834795258e-16,1.354484148517188e-17,636.3973244139394,636.3973244139406,636.3973244139407,636.3973244139394
0.17200000000000001,1.008355627828261e-19,-4.0,0.022194657071473868,-4.9863709909951e-14,1.8527804512115586e-15,-1.2413130615879789e-16,1.9115562090612353e-22,-4.0,0.06734832683942642,-3.588728220332105e-22,-1.8327361087318833e-18,-2.2240234654229495e-16,0.2608178907979309,0.0,0.0,0.0,4.047932273112857,4.319347704901073e-15,-4.73382788911733e-16,1.5072862463360425e-17,636.6082045066956,636.6082045066968,636.6082045066969,636.6082045066956
0.17600000000000002,1.3336836780448227e-19,-4.0,0.02333944311418901,-5.043319198913636e-14,2.1027537530111257e-15,-1.3279133314469652e-16,1.9091510375040496e-22,-4.0,0.0697800412782689,-3.5842127857343165e-22,-1.880880807722468e-18,-2.389271488365778e-16,0.27528949444215367,0.0,0.0,0.0,4.054453724657217,4.074801439798262e-15,-5.183943015929405e-16,1.521269769340121e-17,636.757978699609,636.75797869961,636.7579786996101,636.7579786996088
0.18000000000000002,1.7358551216105466e-19,-4.0,0.024542891514506796,-5.07801792027937e-14,2.353474722422748e-15,-1.454766858445293e-16,1.9067059985681999e-22,-4.0,0.07225206306235925,-3.579622504691415e-22,-1.8671326226499143e-18,-2.5462934853204757e-16,0.2898756210029892,0.0,0.0,0.0,4.058412982059713,3.853929512750976e-15,-5.544204912624618e-16,2.0270524790417504e-17,636.8488913612385,636.8488913612396,636.8488913612397,636.8488913612384
0.184,2.226511401505147e-19,-4.0,0.02580535935610897,-5.095633405370616e-14,2.584182982089136e-15,-1.649998926029421e-16,1.904221658683632e-22,-4.0,0.07476381951077025,-3.5749584406108592e-22,-1.7104846789448984e-18,-2.695426743642958e-16,0.3045617531993401,0.0,0.0,0.0,4.05990521174268,3.678170837190726e-15,-5.685377602387424e-16,2.877912257630948e-17,636.8831526447149,636.8831526447158,636.8831526447159,636.8831526447148
0.188,2.8175206793742733e-19,-4.0,0.02712715511656183,-5.099053502762397e-14,2.767559715075394e-15,-1.822699445163308e-16,1.9016985788979661e-22,-4.0,0.07731474338429796,-3.5702216467954084e-22,-1.2899625831627376e-18,-2.837294274129027e-16,0.31933440121873,0.0,0.0,0.0,4.059010388079019,3.5244525827987975e-15,-5.507046267205962e-16,2.6948768704864737e-17,636.862607900559,636.86260790056,636.8626079005601,636.8626079005589
0.192,3.5179836276684934e-19,-4.0,0.028508537097890054,-5.0919683057352926e-14,2.8872868746709604e-15,-2.006207363872621e-16,1.8991373149208881e-22,-4.0,0.07990427284058149,-3.565413166526458e-22,-4.741465743383011e-19,-2.972494628405168e-16,0.33418095490530925,0.0,0.0,0.0,4.055813298991766,3.4041176002593173e-15,-5.084408341657325e-16,2.892040937271464e-17,636.7891987750576,636.7891987750585,636.7891987750586,636.7891987750576
0.196,4.3331977593944993e-19,-4.0,0.029949717288131002,-5.082955817075503e-14,2.941958951549184e-15,-2.1823901076206917e-16,1.8965384171681978e-22,-4.0,0.08253185138956737,-3.5605340331467404e-22,8.112777779471128e-19,-3.1025887295225873e-16,0.3490893283693886,0.0,0.0,0.0,4.050392573211603,3.376766965694491e-15,-4.5661768352363e-16,2.8818257274946574e-17,636.6647128546542,636.6647128546551,636.6647128546552,636.6647128546542
0.2,5.262683491022661e-19,-4.0,0.03145086465798751,-5.0723061035782524e-14,2.961144858137781e-15,-2.33678473038097e-16,1.8939024308055218e-22,-4.0,0.08519692784931539,-3.555585270142386e-22,2.482886581885769e-18,-3.2300542262630426e-16,0.3640481116830768,0.0,0.0,0.0,4.04282170313358,3.351485607332404e-15,-4.286992736363959e-16,2.6996524863101964e-17,636.4908085372896,636.4908085372905,636.4908085372906,636.4908085372896
0.20400000000000001,6.309916783208541e-19,-4.0,0.033012100827629585,-5.0619363508083364e-14,2.9205224975079114e-15,-2.508402219408027e-16,1.8912298957916889e-22,-4.0,0.08789895630214385,-3.550567891224359e-22,4.493448446867625e-18,-3.356398133920792e-16,0.37904600269268035,0.0,0.0,0.0,4.033184424105869,3.347472272728326e-15,-3.746399660450315e-16,2.964242361621856e-17,636.2693696538721,636.269369653873,636.2693696538731,636.2693696538721
0.20800000000000002,7.471447498656714e-19,-4.0,0.03463350480433867,-5.062193329182149e-14,2.842931069578098e-15,-2.678879497184062e-16,1.8885213469217735e-22,-4.0,0.0906373960511115,-3.5454829004092643e-22,6.815435152141018e-18,-3.4837441920860574e-16,0.3940718358872996,0.0,0.0,0.0,4.021556442637734,3.4644729720425923e-15,-3.3549990016207103e-16,3.0213947180762684e-17,636.0020871227366,636.0020871227375,636.0020871227375,636.0020871227366
0.21200000000000002,8.747508148757049e-19,-4.0,0.03631511528678363,-5.0805442346369544e-14,2.698842881605104e-15,-2.8127423509003127e-16,1.8857773138698078e-22,-4.0,0.0934117115768337,-3.540331292099536e-22,9.503243995243479e-18,-3.6173237965456336e-16,0.40911495304228607,0.0,0.0,0.0,4.008010223413729,3.675937348253705e-15,-2.6347574792411284e-16,2.663683967100063e-17,635.6905699702199,635.690569970221,635.6905699702211,635.69056997022
0.21600000000000003,1.013148851624576e-18,-4.0,0.03805693415537489,-5.117959570221414e-14,2.5030349081745773e-15,-2.9357265418379473e-16,1.8829983212311665e-22,-4.0,0.09622137249463046,-3.5351140511630082e-22,1.2548056975195247e-17,-3.7627367430680833e-16,0.4241655644375064,0.0,0.0,0.0,3.9926125081507955,3.911107659521176e-15,-1.9632520424643601e-16,2.5915725439583868e-17,635.3362891963988,635.3362891963999,635.3362891963999,635.3362891963988
0.22000000000000003,1.1614876157661162e-18,-4.0,0.03985893096544856,-5.1654295489038064e-14,2.268685094209831e-15,-3.0246996204906543e-16,1.8801848885646245e-22,-4.0,0.09906585351200385,-3.5298321530118776e-22,1.5911615523556562e-17,-3.9219427013231415e-16,0.4392147605311731,0.0,0.0,0.0,3.9754221685415017,4.054104478329262e-15,-1.383754815675181e-16,2.2447704031592307e-17,634.9405290003915,634.9405290003928,634.9405290003928,634.9405290003916
0.22400000000000003,1.3187409770364707e-18,-4.0,0.04172102684823787,-5.212230253671163e-14,2.009854237402303e-15,-3.089970144011539e-16,1.8773375304340927e-22,-4.0,0.10194463438644233,-3.524486563681052e-22,1.946367210611424e-17,-4.091095245268341e-16,0.4542527403404238,0.0,0.0,0.0,3.956531854709047,4.0787502474747594e-15,-9.157176665190531e-17,2.004422454519483e-17,634.5053469115418,634.505346911543,634.505346911543,634.5053469115419
0.22800000000000004,1.4842173060944268e-18,-4.0,0.043643108968083336,-5.259394373374086e-14,1.6977914803281757e-15,-3.1122345311823485e-16,1.8744567564500316e-22,-4.0,0.10485719988354963,-3.5190782399059037e-22,2.3203398067492297e-17,-4.2647940122803574e-16,0.46926948613741776,0.0,0.0,0.0,3.9360064935595096,4.114997393503467e-15,-1.2664191116005149e-17,1.5288451215088643e-17,634.0321591282756,634.0321591282768,634.0321591282768,634.0321591282757
0.23200000000000004,1.6567502084461694e-18,-4.0,0.04562504711582782,-5.316237811893508e-14,1.3332111075679704e-15,-3.17293275895272e-16,1.871543071310547e-22,-4.0,0.10780303973549585,-3.5136081291994207e-22,2.722761623600059e-17,-4.442474772113423e-16,0.48425735860346125,0.0,0.0,0.0,3.9138784919610763,4.260277878919641e-15,7.506541959824171e-17,1.986955797515448e-17,633.5216284725594,633.5216284725607,633.5216284725606,633.5216284725594
0.236,1.83466873042977e-18,-4.0,0.0476666681425529,-5.389929865828119e-14,9.4561083823393e-16,-3.267143256585698e-16,1.8685969748421692e-22,-4.0,0.11078164859978819,-3.5080771699287644e-22,3.1501724873176476e-17,-4.629605030099157e-16,0.4992091531322719,0.0,0.0,0.0,3.890232770904296,4.495895511124361e-15,1.3870877331547662e-16,2.4033569174046378e-17,632.9756263417083,632.9756263417097,632.9756263417097,632.9756263417084
0.24,2.0159119528835873e-18,-4.0,0.049767770956147046,-5.476109159825559e-14,5.919798851240137e-16,-3.420316732549694e-16,1.8656189620403175e-22,-4.0,0.11379252601835947,-3.5024862913912385e-22,3.569299931093886e-17,-4.831519329518978e-16,0.5141164862698131,0.0,0.0,0.0,3.865125257104735,4.6921054333032656e-15,1.4324517423045242e-16,3.1308237745986176e-17,632.3953540033667,632.3953540033681,632.3953540033681,632.3953540033668
0.244,2.199063769898818e-18,-4.0,0.051928137369661787,-5.5661382956779747e-14,2.737781544297562e-16,-3.5996605900434905e-16,1.8626095231094547e-22,-4.0,0.11683517637697123,-3.4968364138896725e-22,3.9492461781826026e-17,-5.047696087121388e-16,0.5289728004708033,0.0,0.0,0.0,3.838590823266026,4.795992729372529e-15,1.379061928812459e-16,3.499433343374592e-17,631.7815241431913,631.7815241431927,631.7815241431927,631.7815241431914
0.248,2.3832415912983037e-18,-4.0,0.054147516455164156,-5.6586100058250256e-14,-4.522450860953561e-17,-3.8133314080655304e-16,1.8595691435029302e-22,-4.0,0.11990910886493009,-3.4911284488072255e-22,4.28940777004098e-17,-5.273562184548093e-16,0.543771943510727,0.0,0.0,0.0,3.810696712709205,4.886079519419506e-15,1.67380327768155e-16,3.9740710544255866e-17,631.1355967612723,631.1355967612736,631.1355967612737,631.1355967612724
0.252,2.567202219771841e-18,-4.0,0.056425614952980305,-5.756185056340687e-14,-3.628219544541546e-16,-4.0401349256545943e-16,1.8564983039625178e-22,-4.0,0.12301383743511429,-3.485363298681611e-22,4.60799420759371e-17,-5.506846686084253e-16,0.5585054288833068,0.0,0.0,0.0,3.7815307481283114,5.008907227148025e-15,1.992474152301618e-16,4.215222038381522e-17,630.4595100862301,630.4595100862317,630.4595100862316,630.4595100862304
0.256,2.7496256008797693e-18,-4.0,0.05876211325153066,-5.855396178911315e-14,-6.686498605455551e-16,-4.2731093248948825e-16,1.8533974805576477e-22,-4.0,0.12614888076430864,-3.4795418572787506e-22,4.910813156421296e-17,-5.747681993023274e-16,0.573164525406112,0.0,0.0,0.0,3.7511497409336028,5.094736304710301e-15,2.2083472349807662e-16,4.38044069016374e-17,629.7544860926835,629.754486092685,629.7544860926849,629.7544860926837
0.26,2.9291343013484323e-18,-4.0,0.06115666751592517,-5.951285285401387e-14,-9.435219360237143e-16,-4.504098026787952e-16,1.850267144724336e-22,-4.0,0.12931376221384513,-3.473665009665863e-22,5.183240860735796e-17,-5.994407514431808e-16,0.5877422324205566,0.0,0.0,0.0,3.719607092638409,5.1237869657536605e-15,2.209816941299282e-16,4.4529115645730037e-17,629.0216688584013,629.021668858403,629.0216688584029,629.0216688584017
0.264,3.104602930372064e-18,-4.0,0.06360891058244038,-6.035574964519625e-14,-1.1815182796229212e-15,-4.726692605671949e-16,1.847107763303814e-22,-4.0,0.1325080097905475,-3.467733632283982e-22,5.409685669020575e-17,-6.241522187217173e-16,0.6022325506101621,0.0,0.0,0.0,3.6869552311428206,5.053907940168248e-15,2.1032359597466726e-16,4.449706503105334e-17,628.2621813470806,628.2621813470822,628.2621813470821,628.2621813470809
0.268,3.2752536259959002e-18,-4.0,0.06611845284602354,-6.108851823796529e-14,-1.3973884782549638e-15,-4.944073519976736e-16,1.8439197985808594e-22,-4.0,0.13573115610797695,-3.4617485930199214e-22,5.592226819206674e-17,-6.48298607648337e-16,0.6166297029827815,0.0,0.0,0.0,3.6532455958498398,4.9829469571659e-15,2.1128178979148863e-16,4.4802073290272934e-17,627.4771254257506,627.4771254257522,627.4771254257521,627.4771254257508
0.272,3.440404297308062e-18,-4.0,0.06868488791641475,-6.167637992913947e-14,-1.6052018563746765e-15,-5.13593246260992e-16,1.8407037083218314e-22,-4.0,0.13898273834797736,-3.4557107512776808e-22,5.73944587094137e-17,-6.71457470927901e-16,0.6309286115992025,0.0,0.0,0.0,3.618518930864421,4.8638429283084835e-15,2.2672413771716104e-16,4.2713341168526283e-17,626.6673557032584,626.6673557032599,626.6673557032599,626.6673557032586
0.276,3.599514652285064e-18,-4.0,0.07130780094970775,-6.214957161347523e-14,-1.8277647133364437e-15,-5.334967012768473e-16,1.837459945812412e-22,-4.0,0.14226229822251726,-3.449620958049301e-22,5.873012780392431e-17,-6.934511224202413e-16,0.6451256415373807,0.0,0.0,0.0,3.582799674300834,4.770138423355414e-15,2.672064724096887e-16,4.43394019214716e-17,625.8333472331797,625.8333472331813,625.8333472331811,625.8333472331799
0.28,3.751464107635116e-18,-4.0,0.07398673762508771,-6.250521429096213e-14,-2.034830721488529e-15,-5.496809992212233e-16,1.8341889598950564e-22,-4.0,0.14556938193582666,-3.443480055985172e-22,6.000248975185231e-17,-7.141717483717698e-16,0.6592154103338854,0.0,0.0,0.0,3.5461755633773,4.6652306097413445e-15,2.8063966760572814e-16,4.081214003862437e-17,624.9770557303324,624.977055730334,624.9770557303337,624.9770557303326
0.28400000000000003,3.894936126949653e-18,-4.0,0.07672122360085153,-6.271121595121124e-14,-2.1735624282760673e-15,-5.587205703616149e-16,1.8308911950061528e-22,-4.0,0.14890354014682666,-3.4372888794637973e-22,6.087992575667479e-17,-7.335656845652686e-16,0.6731911043783915,0.0,0.0,0.0,3.508696174421795,4.514809636001285e-15,2.345887786343677e-16,3.3130550472371964e-17,624.0995510220687,624.09955102207,624.0995510220699,624.0995510220689
0.28800000000000003,4.029374140311046e-18,-4.0,0.07951077401923697,-6.274643474072095e-14,-2.2443415652650867e-15,-5.669991187246067e-16,1.827567091212896e-22,-4.0,0.15226432793184938,-3.431048254661018e-22,6.098671427877368e-17,-7.512819762727769e-16,0.6870478445723625,0.0,0.0,0.0,3.4703924982388408,4.329467827281297e-15,1.766230232594882e-16,3.2612751195569866e-17,623.2014706443342,623.2014706443356,623.2014706443355,623.2014706443344
0.29200000000000004,4.154497478922662e-18,-4.0,0.08235490815752167,-6.26170340082462e-14,-2.248253081186058e-15,-5.747515497494648e-16,1.8242170842498745e-22,-4.0,0.15565130474764627,-3.4247589996187047e-22,6.018127896765911e-17,-7.669866563053017e-16,0.700784084641977,0.0,0.0,0.0,3.4312661921280094,4.1396446227526e-15,1.126065244527703e-16,3.233810857936764e-17,622.2827644555135,622.2827644555149,622.2827644555148,622.2827644555138
0.29600000000000004,4.2706692800365075e-18,-4.0,0.08525308963094276,-6.229605111111572e-14,-2.225133654538129e-15,-5.822429454938876e-16,1.8208416055553764e-22,-4.0,0.1590640343946827,-3.4184219243129125e-22,5.867936085927593e-17,-7.80445325614397e-16,0.7143945111936348,0.0,0.0,0.0,3.391440206032394,3.907079193472491e-15,8.335251124542374e-17,3.2351519659032335e-17,621.3462343863503,621.3462343863515,621.3462343863514,621.3462343863504
0.30000000000000004,4.3781956917166495e-18,-4.0,0.08820479417295225,-6.174319561594962e-14,-2.195276386626555e-15,-5.910730369332325e-16,1.817441082307412e-22,-4.0,0.16250208498071647,-3.412037830721515e-22,5.678648421075451e-17,-7.912787315286193e-16,0.7278741718725168,0.0,0.0,0.0,3.3509017681295035,3.614364476993566e-15,7.639299643619818e-17,3.4222950540394776e-17,620.3914986919384,620.3914986919395,620.3914986919395,620.3914986919385
0.304,4.4771497779265e-18,-4.0,0.09120946048074657,-6.099878002244662e-14,-2.152091335013718e-15,-5.988912761781172e-16,1.8140159374594603e-22,-4.0,0.16596502888465847,-3.4056075128913077e-22,5.4748318122014356e-17,-7.990777193878171e-16,0.7412185908169916,0.0,0.0,0.0,3.309737544424228,3.3528679741068765e-15,6.382012401916747e-17,3.340354095403616e-17,619.4205190679751,619.4205190679761,619.4205190679761,619.4205190679752
0.308,4.567721535882288e-18,-4.0,0.09426651836403625,-6.016925933381757e-14,-2.0966427667160493e-15,-6.074121194319513e-16,1.8105665897759354e-22,-4.0,0.1694524427207134,-3.3991317570045992e-22,5.260210568655936e-17,-8.041035425909399e-16,0.7544232174161752,0.0,0.0,0.0,3.267978317106242,3.2025830932974357e-15,5.023548716568084e-17,3.454533741836169e-17,618.4339468199194,618.4339468199204,618.4339468199204,618.4339468199196
0.312,4.650033177549407e-18,-4.0,0.09737540826473079,-5.927567529667765e-14,-2.018987447929037e-15,-6.118071643844367e-16,1.8070934538673809e-22,-4.0,0.17296390730279768,-3.392611341445279e-22,5.0243759984340635e-17,-8.071063469977467e-16,0.7674865433749206,0.0,0.0,0.0,3.2256155995517815,3.071049653402149e-15,2.491217484546537e-17,3.0075647656786057e-17,617.4315062187754,617.4315062187763,617.4315062187763,617.4315062187756
0.316,4.7245803629692075e-18,-4.0,0.10053557831932547,-5.829551573072709e-14,-1.937559317203182e-15,-6.159197950955301e-16,1.8035969402253898e-22,-4.0,0.17649900760923407,-3.3860470368643787e-22,4.772108074699034e-17,-8.085568214324868e-16,0.7804103531374176,0.0,0.0,0.0,3.182646590921737,2.908847207519874e-15,1.5220904947214723e-17,2.992621968140089e-17,616.4130534064996,616.4130534065005,616.4130534065005,616.4130534064997
0.32,4.791415757060245e-18,-4.0,0.10374650187736179,-5.719184454743635e-14,-1.825421748512231e-15,-6.198314806317954e-16,1.8000774552572544e-22,-4.0,0.1800573327477193,-3.379439606245122e-22,4.5022861408657744e-17,-8.082917453767203e-16,0.7931983198540132,0.0,0.0,0.0,3.139032753286595,2.69759305443749e-15,-2.1358536751483477e-17,2.986036362612303e-17,615.3775931629742,615.3775931629751,615.3775931629751,615.3775931629743
0.324,4.850975332192628e-18,-4.0,0.10700769382855453,-5.592179165005034e-14,-1.6847963013294341e-15,-6.246616720954258e-16,1.7965354013203475e-22,-4.0,0.18363847592056376,-3.3727898049674715e-22,4.203935571694792e-17,-8.05727219078254e-16,0.8058575654669152,0.0,0.0,0.0,3.0947016703461805,2.4278320831588332e-15,-6.188100197726344e-17,3.1093952026415325e-17,614.3233158163338,614.3233158163345,614.3233158163345,614.3233158163339
0.328,4.904062422175029e-18,-4.0,0.11031858450439866,-5.4478650969623745e-14,-1.5430235782761894e-15,-6.323716083296276e-16,1.792971176756236e-22,-4.0,0.18724203439020096,-3.366098380872174e-22,3.8807357552378297e-17,-8.00356358302206e-16,0.8183859179885538,0.0,0.0,0.0,3.049835581163387,2.138862641631664e-15,-7.699809887670338e-17,3.4656294340028693e-17,613.2544696031077,613.2544696031084,613.2544696031084,613.2544696031079
0.332,4.951129873782602e-18,-4.0,0.11367852857424253,-5.2930410421393804e-14,-1.3905119980623387e-15,-6.395910588272904e-16,1.7893851759245305e-22,-4.0,0.19086760944496448,-3.3593660743243084e-22,3.549476273421943e-17,-7.920342772680626e-16,0.8307680473923952,0.0,0.0,0.0,3.004601426302462,1.9174487380990202e-15,-9.991419802441993e-17,3.439992607933334e-17,612.1749657400048,612.1749657400055,612.1749657400055,612.174965740005
0.336,4.992855157000873e-18,-4.0,0.11708681170244646,-5.139458487044634e-14,-1.2372131449152663e-15,-6.491760139579231e-16,1.7857777892364724e-22,-4.0,0.1945148063651308,-3.352593618276342e-22,3.218505886938431e-17,-7.814785708733085e-16,0.8429846152323368,0.0,0.0,0.0,2.9591551079170784,1.8260737713132564e-15,-1.1487942010746826e-16,3.745966526954809e-17,611.08847823131,611.0884782313107,611.0884782313107,611.0884782313102
0.34,5.029833533368715e-18,-4.0,0.12054271325146262,-4.9827961121341987e-14,-1.083867084822487e-15,-6.569911736597517e-16,1.7821494031882583e-22,-4.0,0.198183234389226,-3.345781738330693e-22,2.88938975669388e-17,-7.695744708026101e-16,0.8550244207591012,0.0,0.0,0.0,2.9135275311594837,1.6850863232257055e-15,-1.2858697430202695e-16,3.578585531017307e-17,609.9957105935782,609.9957105935788,609.9957105935788,609.9957105935783
0.34400000000000003,5.062608699072885e-18,-4.0,0.12404551413862511,-4.8246860301875006e-14,-9.263846922586476e-16,-6.637564741254196e-16,1.778500400394108e-22,-4.0,0.20187250668059403,-3.3389311528018115e-22,2.5660478331259792e-17,-7.566433204639805e-16,0.8668841279178384,0.0,0.0,0.0,2.8677339162450313,1.5610515309618342e-15,-1.4692006205011913e-16,3.4880371176230197e-17,608.8969945193979,608.8969945193985,608.8969945193985,608.896994519398
0.34800000000000003,5.091760086930862e-18,-4.0,0.1275945025248829,-4.6680521012280126e-14,-7.636706425880374e-16,-6.705003956301307e-16,1.7748311596190734e-22,-4.0,0.20558224029422514,-3.332042572777776e-22,2.2457166239471928e-17,-7.427171288111706e-16,0.8785647366898853,0.0,0.0,0.0,2.821777947568785,1.470169623004173e-15,-1.6764211198702344e-16,3.513320404285578e-17,607.7923863889521,607.7923863889527,607.7923863889525,607.7923863889522
0.35200000000000004,5.117878061699731e-18,-4.0,0.1311889833658111,-4.516217022737223e-14,-5.945857327652926e-16,-6.776580846850299e-16,1.7711420558115928e-22,-4.0,0.2093120561438421,-3.3251167021814093e-22,1.9259888386984727e-17,-7.281809586410687e-16,0.8900687166476642,0.0,0.0,0.0,2.775643753253109,1.4190973584006587e-15,-1.906253964161327e-16,3.5893478959443795e-17,606.6814714727572,606.6814714727575,606.6814714727576,606.6814714727572
0.35600000000000004,5.1416322196940314e-18,-4.0,0.1348282410602905,-4.376322927768527e-14,-4.239418880962323e-16,-6.859542283629726e-16,1.7674334601357927e-22,-4.0,0.21306157896924247,-3.3181542378309204e-22,1.606970298964431e-17,-7.137083247853391e-16,0.9013963707242139,0.0,0.0,0.0,2.729390789145278,1.4547076630400518e-15,-2.0980914181353552e-16,3.751729360299126e-17,605.5656507155248,605.5656507155252,605.5656507155253,605.5656507155248
0.36000000000000004,5.1636104669526255e-18,-4.0,0.1385115747682413,-4.2441985698498355e-14,-2.4769970207217905e-16,-6.934062088597954e-16,1.7637057400035375e-22,-4.0,0.21683043730389515,-3.3111558695000754e-22,1.2888474758241022e-17,-6.999101326623766e-16,0.912547336053629,0.0,0.0,0.0,2.6830075460563565,1.449774499079623e-15,-2.3339725866540133e-16,3.6871845754546796e-17,604.4446185259544,604.4446185259549,604.4446185259549,604.4446185259544
0.36400000000000005,5.184683778555275e-18,-4.0,0.14223824354207112,-4.116007774473267e-14,-8.877492167863545e-17,-7.008296840753426e-16,1.7599592591062292e-22,-4.0,0.22061826344278904,-3.3041222799778985e-22,9.852153212272694e-18,-6.867715364008646e-16,0.9235185618715447,0.0,0.0,0.0,2.636593457865942,1.405358213111695e-15,-2.3437811128653256e-16,3.714455126015384e-17,603.3207557759711,603.3207557759714,603.3207557759715,603.3207557759711
0.36800000000000005,5.205221316785264e-18,-4.0,0.14600749979495517,-3.9836965593134696e-14,7.461756583060702e-17,-7.101091746664699e-16,1.7561943774463607e-22,-4.0,0.22442469341053228,-3.2970541451279083e-22,6.980457451345242e-18,-6.735355889182672e-16,0.9343055996455576,0.0,0.0,0.0,2.5901813692575884,1.269582829706882e-15,-2.5448033134574975e-16,3.961750437711524e-17,602.1948441428364,602.1948441428367,602.1948441428368,602.1948441428364
0.372,5.225885645799936e-18,-4.0,0.14981861978268074,-3.8456109062693314e-14,2.344108603680482e-16,-7.192423552052137e-16,1.7524114513688226e-22,-4.0,0.22824936692969977,-3.2899521339468934e-22,4.260151825023003e-18,-6.593935760049779e-16,0.9449079245928832,0.0,0.0,0.0,2.543742529349863,1.1116753003038432e-15,-2.6918876778055145e-16,3.982763873436244e-17,601.0661726820716,601.066172682072,601.0661726820721,601.0661726820716
0.376,5.247198847101509e-18,-4.0,0.15367087895934958,-3.696842983345212e-14,3.9572635993691315e-16,-7.287750506535076e-16,1.7486108335919658e-22,-4.0,0.23209192738942783,-3.2828169086232286e-22,1.6205673186467354e-18,-6.435652665513371e-16,0.9553285497754832,0.0,0.0,0.0,2.497297498803444,9.193561579511236e-16,-2.89413435032085e-16,4.071958627322416e-17,599.9352269455742,599.9352269455745,599.9352269455746,599.9352269455743
0.38,5.269853263919692e-18,-4.0,0.15756355868679392,-3.542922653981516e-14,5.460138576309688e-16,-7.401946421987636e-16,1.7447928732384218e-22,-4.0,0.23595202181425312,-3.2756491245947373e-22,-8.724292038505174e-19,-6.258131311412647e-16,0.9655686583199928,0.0,0.0,0.0,2.4508533020798184,7.832676368962743e-16,-2.976328775392522e-16,4.336610112012206e-17,598.8021655794463,598.8021655794466,598.8021655794468,598.8021655794464
0.384,5.294256585472266e-18,-4.0,0.1614959566483898,-3.385228027352591e-14,6.981678601796428e-16,-7.536783206147468e-16,1.740957915865684e-22,-4.0,0.2398293008331952,-3.2684494306061027e-22,-3.2143701705751517e-18,-6.062720399901246e-16,0.9756304348795375,0.0,0.0,0.0,2.4043956949123193,6.586738387694977e-16,-3.1754563419798228e-16,4.629788207970234e-17,597.6666280558546,597.6666280558547,597.6666280558549,597.6666280558547
0.388,5.32088025192838e-18,-4.0,0.16546734289586812,-3.232224527342051e-14,8.570151559558817e-16,-7.674610413528663e-16,1.7371063034964476e-22,-4.0,0.24372341864907998,-3.26121846876583e-22,-5.453911475866437e-18,-5.857032762512885e-16,0.9855133753010641,0.0,0.0,0.0,2.357999170504856,6.292516676430098e-16,-3.4444493843425283e-16,4.7253511293795826e-17,596.5304262340437,596.530426234044,596.5304262340441,596.5304262340438
0.392,5.3500714939196425e-18,-4.0,0.1694769857864084,-3.085175477668377e-14,1.0417137235748297e-15,-7.828323199687613e-16,1.7332383746487162e-22,-4.0,0.24763403300810277,-3.253956874602765e-22,-7.821571291808112e-18,-5.648329972564422e-16,0.9952147391649484,0.0,0.0,0.0,2.3116865168501395,6.167214745727478e-16,-3.932713124793733e-16,4.9728740449249224e-17,595.3941159625584,595.3941159625585,595.3941159625587,595.3941159625585
0.396,1.7230784399898808e-11,-4.000000000017231,0.17352415598171944,-1.6786999273929072e-06,-1.6787089315639692e-06,-6.999780146519885e-07,1.7293544643656702e-22,-4.0,0.25156080516962903,-3.2466652771221706e-22,5.703527450879362e-09,-5.703500191237714e-09,1.0047333988860456,0.0,0.0,0.0,2.2654725129859346,1.7594843707642248e-06,1.7594935487500605e-06,8.17685007647409e-07,594.2562924812114,594.2573129322323,594.2593178337469,594.2593178364084
0.4,1.0867254039569839e-10,-4.0000000001086695,0.17760811617420696,-1.1007812706619124e-05,-1.100810242261857e-05,-1.921005447412965e-06,1.7254549042453038e-22,-4.0,0.25550339987623083,-3.2393442988613673e-22,6.429023362806695e-08,-6.428887920873177e-08,1.0140688196297503,0.0,0.0,0.0,2.21939276814144,1.013055572638003e-05,1.013085162874927e-05,1.455145339814403e-06,593.1179528809461,593.1238396387444,593.1253806894621,593.1253807754331
0.404,2.389204057903994e-10,-4.000000000238908,0.18172811831735558,-2.7040563656511963e-05,-2.7041814004129364e-05,-3.3970461474545857e-06,1.721540022469829e-22,-4.0,0.25946148532395785,-3.2319945559449344e-22,2.2524201405430926e-07,-2.2523373991559976e-07,1.0232193292070035,0.0,0.0,0.0,2.1734888188922854,1.895380486588915e-05,1.8954863515061798e-05,1.8033145882969002e-06,591.9820815255528,591.9931166111079,591.993167026879,591.9931673350453
0.40800000000000003,3.4413603701707933e-10,-4.000000000344107,0.18588344512846508,-4.841676956537583e-05,-4.84199187917454e-05,-5.05712382152482e-06,1.7176101438348507e-22,-4.0,0.2634347331328405,-3.224616658139485e-22,5.012372498443076e-07,-5.012105861056523e-07,1.032185952848246,0.0,0.0,0.0,2.127718365562755,2.7018285980040953e-05,2.7020506964389165e-05,2.0791470152488457e-06,590.8476634190436,590.8634240684974,590.8619755412614,590.8619761890141
0.41200000000000003,3.4252865503630957e-10,-4.0000000003424825,0.19007339660987876,-7.38974067268513e-05,-7.390351145535417e-05,-6.84065803462206e-06,1.7136655897783142e-22,-4.0,0.26742281831762377,-3.217211208908008e-22,8.653715348295897e-07,-8.653106825057937e-07,1.0409739348112876,0.0,0.0,0.0,2.082065534473016,3.427869765327189e-05,3.4282343440288085e-05,2.2918849602067714e-06,589.7143122852141,589.7343467683654,589.7314328724849,589.7314339378214
0.41600000000000004,1.382289850118631e-10,-4.000000000138173,0.19429723401725763,-0.00010228960072307568,-0.00010229970311584174,-8.694821351477012e-06,1.7097066784092242e-22,-4.0,0.2714254192587302,-3.2097788054637877e-22,1.2924715668336963e-06,-1.2923588391491881e-06,1.0495825093237776,0.0,0.0,0.0,2.036627669015698,4.0678216019755366e-05,4.0683379422663444e-05,2.4481061441242925e-06,588.5844590603078,588.6082796035669,588.6039712419878,588.6039727536775
0.42000000000000004,-3.7405896535042306e-10,-3.999999999625897,0.19855421361312858,-0.00013248159734654687,-0.0001324966102004388,-1.0577108167671498e-05,1.7057337245361404e-22,-4.0,0.27544221767345006,-3.2023200388239016e-22,1.7590103350916474e-06,-1.7588286456382512e-06,1.058007553709952,0.0,0.0,0.0,1.9914348948797058,4.6191084099676535e-05,4.6197767876827124e-05,2.5577037639777927e-06,587.4588659566651,587.485966741943,587.4803736178005,587.4803755783527
0.42400000000000004,-1.3047789282252233e-09,-3.999999998695229,0.2028436235564019,-0.00016347571743655778,-0.00016349633525209562,-1.245185251925397e-05,1.7017470396954504e-22,-4.0,0.279472898587357,-3.194835493862296e-22,2.24324336660078e-06,-2.2429784833033614e-06,1.0662495942352224,0.0,0.0,0.0,1.946442679110817,5.083552719292169e-05,5.084359952457198e-05,2.626924147875382e-06,586.3364318547266,586.3663148169293,586.3595614313427,586.3595638037256
0.42800000000000005,-2.7661266471335557e-09,-3.9999999972339944,0.20716477001186404,-0.00019437156188902843,-0.00019439818942091895,-1.4289026796848926e-05,1.6977469321794196e-22,-4.0,0.283517150305948,-3.1873257493624513e-22,2.7256394781857866e-06,-2.725281558772927e-06,1.0743144034691725,0.0,0.0,0.0,1.9016337124521336,5.4624097776564444e-05,5.463331953181627e-05,2.6608886997390566e-06,585.2167307610642,585.2489023153992,585.2411262262073,585.2411289415743
0.432,-4.869081475333396e-09,-3.9999999951312364,0.21151694098037432,-0.00022433690012672072,-0.0002243695919321281,-1.6064122761027357e-05,1.6937337070640228e-22,-4.0,0.28757466438650475,-3.1797913780696277e-22,3.1886852283658537e-06,-3.188230197979551e-06,1.082203375160889,0.0,0.0,0.0,1.8570635678361964,5.754358772627162e-05,5.755362066386174e-05,2.664809263288827e-06,584.1011653564656,584.1351211495752,584.1264809722304,584.1264839320894
0.436,-7.720393781617418e-09,-3.9999999922802294,0.21589944163601105,-0.0002526309031757106,-0.00025266932869384923,-1.775731299412831e-05,1.6897076662365563e-22,-4.0,0.291645135610177,-3.172232946742707e-22,3.616718159913591e-06,-3.616168592845291e-06,1.089916707375068,0.0,0.0,0.0,1.8127167285344554,5.960900772686916e-05,5.9619452007154294e-05,2.643143057465914e-06,582.9893587823619,583.0246004104822,583.0152652361934,583.0152683232768
0.44,-1.142010583608433e-08,-3.9999999885809543,0.22031155416166,-0.0002785832395521191,-0.00027862666062836123,-1.9352902445464078e-05,1.685669108423035e-22,-4.0,0.29572826195428326,-3.1646510162056267e-22,3.995830285629105e-06,-3.995196164959316e-06,1.0974534189459653,0.0,0.0,0.0,1.7686586928084624,6.0820395097626427e-05,6.0830761382696526e-05,2.5998974446739336e-06,581.8829722205858,581.9189982943576,581.9091508261395,581.9091538959938
0.444,-1.605928473334909e-08,-3.999999983942365,0.2247525690616361,-0.00030160748324417115,-0.00030165475285053923,-2.0838697281370226e-05,1.6816183292153727e-22,-4.0,0.29982374456482985,-3.157046141398408e-22,4.313906255453248e-06,-4.313205189146218e-06,1.104812412716837,0.0,0.0,0.0,1.7248921901441598,6.119808951175225e-05,6.120784741078928e-05,2.5385110969356266e-06,580.7820939263106,580.8184122228321,580.8082410216599,580.808243916825
0.448,-2.171812459348877e-08,-3.999999978284283,0.22922179721004277,-0.0003212032448461044,-0.00032125282323686237,-2.2205814632509017e-05,1.6775556210983506e-22,-4.0,0.30393128772924555,-3.149418871427786e-22,4.560630381195148e-06,-4.55988736287977e-06,1.1119955946725695,0.0,0.0,0.0,1.6813952797295668,6.0772547911769856e-05,6.078113246111571e-05,2.462343360987148e-06,579.6861874899437,579.7223211046952,579.7120173539107,579.7120199057598
0.452,-2.846419061552485e-08,-3.9999999715391574,0.23371852808459576,-0.00033694815283097124,-0.000336998139901308,-2.344809724875248e-05,1.673481273476373e-22,-4.0,0.30805059884933,-3.1417697496174396e-22,4.727530127056817e-06,-4.726777344779294e-06,1.119003704210237,0.0,0.0,0.0,1.6382301833506907,5.957027550345066e-05,5.957713844613551e-05,2.374205146616074e-06,578.59684129848,578.6323263164488,578.6220832984355,578.6220853423615
0.456,-3.635117664819823e-08,-3.9999999636532984,0.23824205431436618,-0.00034850093700688204,-0.0003485491183715703,-2.4561668814980754e-05,1.6693955727000143e-22,-4.0,0.3121813884144149,-3.1340993135578314e-22,4.8079239792190936e-06,-4.807199833909916e-06,1.1258353425688346,0.0,0.0,0.0,1.5954100313134445,5.763080998635086e-05,5.7635372895350394e-05,2.276499394983132e-06,577.5144093304641,577.5488027961117,577.5388107090869,577.5388120705642
0.46,-4.541788634433673e-08,-3.9999999545878997,0.24279167383149178,-0.0003556003374628862,-0.00035564424265082756,-2.5544635881502626e-05,1.6652988020923547e-22,-4.0,0.3163233699747358,-3.12640809515565e-22,4.79688568516335e-06,-4.796233794256027e-06,1.1324904678016101,0.0,0.0,0.0,1.552943532585193,5.499901328112607e-05,5.500074507097935e-05,2.171374246760114e-06,576.4391346290381,576.4720179499686,576.4624614468333,576.4624619645283
0.464,-5.568749335173324e-08,-3.9999999443197765,0.24736668988123617,-0.00035806327832683856,-0.0003581002494304735,-2.639679042871955e-05,1.6611912419751116e-22,-4.0,0.3204762601150138,-3.1186966206828695e-22,4.691232294147898e-06,-4.690700157235704e-06,1.13897040860964,0.0,0.0,0.0,1.5108392522869143,5.172509064217985e-05,5.172349995787292e-05,2.0607116817605296e-06,575.3712569609289,575.4022393217488,575.3932950111433,575.3932945347464
0.468,-6.716707713150094e-08,-3.9999999328418294,0.2519664110589678,-0.0003557826242228783,-0.00035580989285152737,-2.7119346512516403e-05,1.6570731696945643e-22,-4.0,0.3246397784282443,-3.110965410825418e-22,4.489472424581182e-06,-4.489110048182624e-06,1.1452764963533908,0.0,0.0,0.0,1.4691055563084685,4.786416865970928e-05,4.7858835850348064e-05,1.9461552346308245e-06,574.3110114218515,574.3397329870597,574.3315671140816,574.3315655139963
0.47200000000000003,-7.984742232231345e-08,-3.9999999201632437,0.2565901513650219,-0.0003487245048157986,-0.00034873927507029584,-2.7714707725248085e-05,1.6529448596472744e-22,-4.0,0.32881364748969266,-3.1032149807314657e-22,4.19174345578605e-06,-4.191601751476256e-06,1.1514100725300542,0.0,0.0,0.0,1.4277505734093534,4.347581438020913e-05,4.346637514252369e-05,1.8291352774310453e-06,573.2586275069965,573.2847623477728,573.2775286932826,573.2775258558747
0.47600000000000003,-9.37030683418145e-08,-3.9999999063094402,0.26123723027364354,-0.000336925200581539,-0.0003369247357314698,-2.818626221035479e-05,1.6488065833056048e-22,-4.0,0.332997592831094,-3.0954458400593344e-22,3.799738089538895e-06,-3.7998670576345434e-06,1.1573724931159295,0.0,0.0,0.0,1.386782164469571,3.862338344049775e-05,3.860957558226761e-05,1.7108917408753345e-06,572.2143283928444,572.2375870643078,572.231425075547,572.2314209173564
0.48000000000000004,-1.0869267126271638e-07,-3.9999998913217136,0.26590697864504736,-0.00032048343664835526,-0.00032046514360439614,-2.8537750647077965e-05,1.6446586092430362e-22,-4.0,0.33719134291505654,-3.087658493025027e-22,3.3166045873450507e-06,-3.317051555098115e-06,1.1631657151290034,0.0,0.0,0.0,1.3461960611697115,3.336947850283429e-05,3.33511263978901e-05,1.5919669272584265e-06,571.1780293860553,571.1981587760102,571.1931914445546,571.1931859078335
0.48400000000000004,-1.247596149143452e-07,-3.999999875256622,0.27059874791477956,-0.00029954993361223714,-0.0002995114402813951,-2.8774126304827433e-05,1.6405012031592858e-22,-4.0,0.3413946291096666,-3.079853438449382e-22,2.746750853588426e-06,-2.7475589109604955e-06,1.1687932093311226,0.0,0.0,0.0,1.3059690257449323,2.7771750561515915e-05,2.7748783893645036e-05,1.4739225557792408e-06,570.1491581990144,570.1659388399336,570.1622773275808,570.1622703861452
0.48800000000000004,-1.4183216830986945e-07,-3.9999998581858303,0.27531187129050094,-0.0002743507853424756,-0.0002742900407860922,-2.890090826384287e-05,1.6363346279052267e-22,-4.0,0.34560718566329346,-3.0720311698048608e-22,2.095848508972341e-06,-2.0970546779845187e-06,1.1742560724324254,0.0,0.0,0.0,1.2661559592933904,2.1913784092180918e-05,2.1886252364014228e-05,1.3576149437520086e-06,569.1291389585774,569.1424009387689,569.1401343735912,569.1401260374695
0.49200000000000005,-1.5982467472950654e-07,-3.9999998401949206,0.2800456865807988,-0.0002451666213140527,-0.00024508197707523015,-2.892387439150687e-05,1.6321591435076116e-22,-4.0,0.3498287496795929,-3.0641921752619606e-22,1.3708320301583452e-06,-1.3724654674393956e-06,1.1795534199409365,0.0,0.0,0.0,1.2267660552348585,1.5872016184828122e-05,1.5840089413881702e-05,1.2435653755929463e-06,568.1182319233766,568.1278509795338,568.127047362684,568.1270376785828
0.49600000000000005,-1.7863864734356488e-07,-3.9999998213823016,0.2847995381943614,-0.0002123262189340294,-0.00021221650243668895,-2.8849075030342973e-05,1.6279750071936016e-22,-4.0,0.35405906109270824,-3.056336937735266e-22,5.797887189963752e-07,-5.81869386899902e-07,1.18468563032188,0.0,0.0,0.0,1.1878043452507228,9.718976791933519e-06,9.682966433881855e-06,1.1323221554685233e-06,567.1165926126309,567.122488109359,567.1231954219637,567.1231844798855
0.5,-1.9816398488245141e-07,-3.99999980185799,0.2895727771397894,-0.00017620114989395043,-0.00017606572941950515,-2.8682743380750932e-05,1.6237824734151008e-22,-4.0,0.3582978626426669,-3.0484659349291335e-22,-2.682893452841653e-07,2.657523823014784e-07,1.1896543554753847,0.0,0.0,0.0,1.149275692883864,3.526597098563657e-06,3.486898841679709e-06,1.0243405115085376e-06,566.1243731945063,566.1265080656294,566.1287540185448,566.1287419346758
0.504,-2.1828031309368586e-07,-3.999999781742275,0.29436476104341697,-0.0001372001413165171,-0.00013703898081721474,-2.8431216996516373e-05,1.619581793872899e-22,-4.0,0.3625448998509709,-3.040579639383017e-22,-1.163642187906115e-06,1.160651663399642e-06,1.1944612469928528,0.0,0.0,0.0,1.1111847565898334,-2.6344048628319013e-06,-2.677240661976284e-06,9.199919100764824e-07,565.1417216280803,565.1401019745533,565.1438939377092,565.1438808760718
0.508,-2.388584310907241e-07,-3.9999997611642715,0.2991748541779152,-9.576323224234693e-05,-9.557693493458668e-05,-2.8100870218745285e-05,1.615373217540624e-22,-4.0,0.3667999209963806,-3.032678518516436e-22,-2.095881697659076e-06,2.0924531148193445e-06,1.1991079614210345,0.0,0.0,0.0,1.0735359668824187,-8.695101634384242e-06,-8.740440873232799e-06,8.195736172176501e-07,564.1687811915596,564.1634554725475,564.1687806576339,564.1687668087438
0.512,-2.597618417367095e-07,-3.999999740260391,0.30400242749914563,-5.2355781455291945e-05,-5.2145620886991854e-05,-2.769805633626958e-05,1.6111569906885052e-22,-4.0,0.3710626770908895,-3.0247630346735873e-22,-3.0541350729421915e-06,3.050297399533235e-06,1.2035961628957552,0.0,0.0,0.0,1.036333508279409,-1.4589139772568159e-05,-1.4636238831019587e-05,7.233172888036095e-07,563.2056901591723,563.1967479187036,563.203573805012,563.2035593939291
0.516,-2.808483451500098e-07,-3.9999997191727537,0.3088468586891156,-7.4623827214088275e-06,-7.230320587329653e-06,-2.72290583759238e-05,1.6069333569069468e-22,-4.0,0.37533292185588907,-3.016833645167605e-22,-4.027190353239948e-06,4.022986298536733e-06,1.2079275250819717,0.0,0.0,0.0,0.9995813053480407,-2.025336069979328e-05,-2.030137117131498e-05,6.313966750366729e-07,562.2525815533509,562.2401517384498,562.2484267307052,562.2484120157985
0.52,-3.0197167453526535e-07,-3.999999698047551,0.3137075322032277,3.84192545588721e-05,3.867056437801379e-05,-2.670004754084974e-05,1.6027025571299185e-22,-4.0,0.37961041169852183,-3.008890802324468e-22,-5.003642544552852e-06,4.999128590225112e-06,1.2121037325967192,0.0,0.0,0.0,0.9632830122265765,-2.5628373049981035e-05,-2.5676382845085904e-05,5.439345289411464e-07,561.3095829732664,561.29383186753,561.3034861723812,561.3034714329101
0.524,-3.22983153847518e-07,-3.999999677033394,0.3185838393203014,8.478440047724896e-05,8.505162212161634e-05,-2.611704841869085e-05,1.598464829658158e-22,-4.0,0.3838949056882218,-3.000934953526565e-22,-5.972038829072332e-06,5.967284973562577e-06,1.2161264819962354,0.0,0.0,0.0,0.9274420051020595,-3.0659175043624085e-05,-3.070618653894691e-05,4.610088002013559e-07,560.3768165011647,560.3579452699738,560.3688919757636,560.3688775187086
0.528,-3.4373335728360375e-07,-3.9999996562796527,0.323475178194092,0.0001311273173669327,0.00013140645737974346,-2.548591017520471e-05,1.5942204101821908e-22,-4.0,0.38818616553344065,-2.99296654125591e-22,-6.921021349315081e-06,6.916110487459789e-06,1.219997482396923,0.0,0.0,0.0,0.8920613771885801,-3.529558782304672e-05,-3.5340566909398606e-05,3.8265818817722047e-07,559.454398637755,559.4326405568978,559.4447768994837,559.4447630445902
0.532,-3.6407375125801005e-07,-3.999999635934818,0.3283809539052423,0.00017694713247626002,0.00017723357825092306,-2.4812283033192283e-05,1.5899695318051688e-22,-4.0,0.39248395555855764,-2.9849860031370175e-22,-7.83946607937423e-06,7.834493168183853e-06,1.223718455789559,0.0,0.0,0.0,0.8571439358226727,-3.9492755267663224e-05,-3.9534624553316146e-05,3.08887120860356e-07,558.5424402955518,558.5180576587857,558.5312664545352,558.5312535364587
0.536,-3.83858319513849e-07,-3.9999996161448785,0.33330058347981956,0.0002217571313157972,0.00022204570041065998,-2.4101306557480445e-05,1.585712425065526e-22,-4.0,0.3967880426809731,-2.976993771979439e-22,-8.71663054355823e-06,8.711701356872e-06,1.2272916338013826,0.0,0.0,0.0,0.8226821206580124,-4.321549065025717e-05,-4.325315200934421e-05,2.3932811903245345e-07,557.6407842706851,557.6140625572289,557.6282139032821,557.6282022646742
0.54,-4.0294512939212904e-07,-3.9999995970517546,0.33823350369251903,0.00026509581168217717,0.0002653808102659539,-2.3358261610489367e-05,1.5814493179594568e-22,-4.0,0.401098196388383,-2.96899027581996e-22,-9.542373415043266e-06,9.537603239905589e-06,1.230720532830801,0.0,0.0,0.0,0.7886521917566081,-4.644144502426756e-05,-4.6473809470345625e-05,1.7435468022117005e-07,556.7488495884035,556.7200896008094,556.7350472350679,556.7350372173361
0.544,-4.2119765939816723e-07,-3.999999578791974,0.34317914282872575,0.0003065106397009263,0.0003067859459956869,-2.2587957607647193e-05,1.5771804359632135e-22,-4.0,0.4054141887162341,-2.960975937964465e-22,-1.0307185975904949e-05,1.0302697953396486e-05,1.2340071250710771,0.0,0.0,0.0,0.7550871264963381,-4.913217746734492e-05,-4.915815863372907e-05,1.1363069019299668e-07,555.8675391641201,555.8370671475896,555.8526810594444,555.8526730047564
