Time_s,X,Y,Z,Roll_deg,Pitch_deg,Yaw_deg,Ref_X,Ref_Y,Ref_Z,Ref_Yaw,vx,vy,vz,p,q,r,T_pert,tau_x,tau_y,tau_z,RPM_0,RPM_1,RPM_2,RPM_3
0.0,-0.7824217414715073,-14.16395112110375,0.024999710540042675,-179.99988606994856,3.3549445526143335e-05,-108.51082211535551,-0.781717561904183,-14.147603565094757,0.0018,0.0,0.0,0.0,0.0,0.0,0.0,0.0,-0.7399422045922662,1.0,0.006819743022069937,0.2,0.0,270.50690480159375,895.5322696323603,677.9950517059871
0.0040000000000048885,-0.7824217414715073,-14.16395112110375,0.024999710540042675,-179.99988606994856,3.3549445526143335e-05,-108.51082211535551,-0.7815784413721439,-14.144373876539392,0.002227615200000605,0.0,0.0,0.0,0.0,0.0,0.0,0.0,0.12781705408093447,-1.0,1.0,0.2,0.0,0.0,558.1700208186155,1000.4279828375657
0.0040000000000048885,-0.7824217414715073,-14.16395112110375,0.024999710540042675,-179.99988606994856,3.3549445526143335e-05,-108.51082211535551,-0.7802211542743264,-14.11286440384031,0.006035401786320994,0.0,0.0,0.0,0.0,0.0,0.0,0.0,-0.6054114407599566,1.0,0.021876606804562607,0.2,0.0,282.31714440413896,896.2799029525135,682.7929954363717
0.008000000000002672,-0.7824217414715073,-14.16395112110375,0.024999710540042675,-179.99988606994856,3.3549445526143335e-05,-108.51082211535551,-0.7799530335649368,-14.106639971156797,0.006859603141313103,0.0,0.0,0.0,0.0,0.0,0.0,0.0,1.0672428615902994,-1.0,1.0,0.2,0.0,0.0,582.2601873701065,1014.0657288854891
0.008000000000002672,-0.7824217414715073,-14.16395112110375,0.024999710540042675,-179.99988606994856,3.3549445526143335e-05,-108.51082211535551,-0.7786950880679213,-14.07743671757922,0.012527175866950985,0.0,0.0,0.0,0.0,0.0,0.0,0.0,-0.39881166848147703,1.0,0.03841263350053747,0.2,0.0,297.6482540174599,898.0590271693255,689.2733766163524
0.012000000000000455,-0.7824217414715073,-14.16395112110375,0.024999710540042675,-179.99988606994856,3.3549445526143335e-05,-108.51082211535551,-0.7784466521972337,-14.07166926919082,0.013718637259205127,0.0,0.0,0.0,0.0,0.0,0.0,0.0,2.019228866412002,-1.0,1.0,0.2,0.0,0.0,605.695796326955,1027.701208713861
0.012000000000000455,-0.7824217414715073,-14.16395112110375,0.024999710540042675,-179.99988606994856,3.3549445526143335e-05,-108.51082211535551,-0.7772825811853482,-14.044645315432051,0.021106159029269416,0.0,0.0,0.0,0.0,0.0,0.0,0.0,-0.1254842211876862,1.0,0.055078961818508625,0.2,0.0,315.37259903846683,900.9058438730981,697.1105943942778
0.016000000000005343,-0.7824217414715073,-14.16395112110375,0.024999710540042675,-179.99988606994856,3.3549445526143335e-05,-108.51082211535551,-0.7770527457631696,-14.039309677178316,0.022637173509311003,0.0,0.0,0.0,0.0,0.0,0.0,0.0,2.981719186971771,-1.0,1.0,0.2,92.2591986853456,92.25919868534685,628.5022389256285,1041.3056424692584
0.016000000000005343,-0.7824217414715073,-14.16395112110375,0.024999710540042675,-179.99988606994856,3.3549445526143335e-05,-108.51082211535551,-0.7752731718077449,-13.997996798676331,0.03161256810933928,0.0,0.0,0.0,0.0,0.0,0.0,0.0,0.2095246858234155,1.0,0.07869265301552647,0.2,0.0,336.63976117755226,904.0792583472281,706.9863035435305
0.020000000000003126,-0.7824217414715073,-14.16395112110375,0.024999710540042675,-179.99988606994856,3.3549445526143335e-05,-108.51082211535551,-0.7749217853426611,-13.98983934823995,0.03345696802985188,0.0,0.0,0.0,0.0,0.0,0.0,0.0,3.952791007816198,-1.0,1.0,0.2,192.12076704448768,192.1207670444883,650.7024617459412,1054.8535777187349
0.020000000000003126,-0.7824217414715073,-14.16395112110375,0.024999710540042675,-179.99988606994856,3.3549445526143335e-05,-108.51082211535551,-0.7732770189172821,-13.951656031784518,0.043895536385039055,0.0,0.0,0.0,0.0,0.0,0.0,0.0,0.6014493936983845,1.0,0.10383942632952199,0.2,0.0,359.3347350557346,908.0129751714373,718.070161202957
0.02400000000000091,-0.7824217414715073,-14.16395112110375,0.024999710540042675,-179.99988606994856,3.3549445526143335e-05,-108.51082211535551,-0.7729523422816393,-13.944118651076144,0.04602861725271297,0.0,0.0,0.0,0.0,0.0,0.0,0.0,4.93064756164813,-1.0,1.0,0.2,255.9442038343613,255.94420383436176,672.3174399559116,1068.3225714982614
0.02400000000000091,-0.7824217414715073,-14.16395112110375,0.024999710540042675,-179.99988606994856,3.3549445526143335e-05,-108.51082211535551,-0.7714348845533884,-13.908890810969792,0.05781267157525849,0.0,0.0,0.0,0.0,0.0,0.0,0.0,1.045790916342047,1.0,0.1291683301710073,0.2,0.0,382.72819411690995,912.752619840383,730.0576519456918
0.028000000000005798,-0.7824217414715073,-14.16395112110375,0.024999710540042675,-179.99988606994856,3.3549445526143335e-05,-108.51082211535551,-0.7711354304331347,-13.901938971935934,0.06021111945321976,0.0,0.0,0.0,0.0,0.0,0.0,0.0,5.913611449879384,1.0,1.0,0.2,0.0,662.4990809385409,908.5198604526358,908.519860452636
0.028000000000005798,-0.7824217414715073,-14.16395112110375,0.024999710540042675,-179.99988606994856,3.3549445526143335e-05,-108.51082211535551,-0.7690339741805542,-13.853153583402097,0.07322963447211604,0.0,0.0,0.0,0.0,0.0,0.0,0.0,1.538303704216446,1.0,0.16149441799859157,0.2,0.0,407.98876664621935,917.5783800735773,743.611550678154
0.03200000000000358,-0.7824217414715073,-14.16395112110375,0.024999710540042675,-179.99988606994856,3.3549445526143335e-05,-108.51082211535551,-0.768619208384667,-13.843524779339173,0.07587145677300747,0.0,0.0,0.0,0.0,0.0,0.0,0.0,6.900118286143427,1.0,1.0,0.2,0.0,683.9262042357698,924.2609790707456,924.2609790707457
0.03200000000000358,-0.7824217414715073,-14.16395112110375,0.024999710540042675,-179.99988606994856,3.3549445526143335e-05,-108.51082211535551,-0.7666822314237742,-13.798557783950994,0.09001973727610833,0.0,0.0,0.0,0.0,0.0,0.0,0.0,2.074983026454872,1.0,0.1954014804467734,0.2,0.0,433.58144896694046,922.9312072906251,757.9552608701501
0.036000000000001364,-0.7824217414715073,-14.16395112110375,0.024999710540042675,-179.99988606994856,3.3549445526143335e-05,-108.51082211535551,-0.7663000513986638,-13.789685459822431,0.09288419679297752,0.0,0.0,0.0,0.0,0.0,0.0,0.0,7.888710647905542,1.0,1.0,0.2,0.0,704.7453893736423,939.7709127419683,939.7709127419683
0.036000000000001364,-0.7824217414715073,-14.16395112110375,0.024999710540042675,-179.99988606994856,3.3549445526143335e-05,-108.51082211535551,-0.7645183148017091,-13.748322375513322,0.10806356074515647,0.0,0.0,0.0,0.0,0.0,0.0,0.0,2.6520529434079427,1.0,0.22953671334704417,0.2,0.0,459.0767249538164,928.8680376206484,772.8225824772381
0.04000000000000625,-0.7824217414715073,-14.16395112110375,0.024999710540042675,-179.99988606994856,3.3549445526143335e-05,-108.51082211535551,-0.7641668881735105,-13.740163992688673,0.11113111277392398,0.0,0.0,0.0,0.0,0.0,0.0,0.0,8.878032321964206,1.0,1.0,0.2,0.0,724.9816572229179,955.0401603608897,955.0401603608898
0.04000000000000625,-0.7824217414715073,-14.16395112110375,0.024999710540042675,-179.99988606994856,3.3549445526143335e-05,-108.51082211535551,-0.7625316123889475,-13.702201001828445,0.12724858930761718,0.0,0.0,0.0,0.0,0.0,0.0,0.0,3.2659548429645535,1.0,0.26389125966078697,0.2,0.0,484.3809829703493,935.3229353383314,788.1168956796876
0.044000000000004036,-0.7824217414715073,-14.16395112110375,0.024999710540042675,-179.99988606994856,3.3549445526143335e-05,-108.51082211535551,-0.7621810307558721,-13.694062235598404,0.13050082172145805,0.0,0.0,0.0,0.0,0.0,0.0,0.0,9.866822830280865,1.0,1.0,0.2,0.0,744.6577798116731,970.0610875746515,970.0610875746515
0.044000000000004036,-0.7824217414715073,-14.16395112110375,0.024999710540042675,-179.99988606994856,3.3549445526143335e-05,-108.51082211535551,-0.7598473341527363,-13.639885378305145,0.14746886332696937,0.0,0.0,0.0,0.0,0.0,0.0,0.0,3.913336515170746,1.0,0.3068353964047974,0.2,0.0,510.8402328899,941.4674994305584,804.6496430941064
0.04800000000000182,-0.7824217414715073,-14.16395112110375,0.024999710540042675,-179.99988606994856,3.3549445526143335e-05,-108.51082211535551,-0.7593588411999275,-13.628544995430385,0.15088843946913671,0.0,0.0,0.0,0.0,0.0,0.0,0.0,10.19,1.0,1.0,0.2,0.0,750.9769660593531,974.9203598982721,974.9203598982722
0.04800000000000182,-0.7824217414715073,-14.16395112110375,0.024999710540042675,-179.99988606994856,3.3549445526143335e-05,-108.51082211535551,-0.7563795013646447,-13.559379505423095,0.16862464774180996,0.0,0.0,0.0,0.0,0.0,0.0,0.0,4.590538185880116,1.0,0.35978674422177204,0.2,0.0,538.4116674306605,947.1223192494888,822.4295886080034
0.05200000000000671,-0.7824217414715073,-14.16395112110375,0.024999710540042675,-179.99988606994856,3.3549445526143335e-05,-108.51082211535551,-0.7557635541511429,-13.545080266935441,0.17219525200917588,0.0,0.0,0.0,0.0,0.0,0.0,0.0,10.19,1.0,1.0,0.2,0.0,750.9769660593531,974.9203598982721,974.9203598982722
0.05200000000000671,-0.7824217414715073,-14.16395112110375,0.024999710540042675,-179.99988606994856,3.3549445526143335e-05,-108.51082211535551,-0.7521884150489521,-13.462083273803309,0.19062211633896695,0.0,0.0,0.0,0.0,0.0,0.0,0.0,5.295008033484847,1.0,0.4228164618517751,0.2,0.0,566.8780400877758,952.2504971099567,841.3406069638049
0.05600000000000449,-0.7824217414715073,-14.16395112110375,0.024999710540042675,-179.99988606994856,3.3549445526143335e-05,-108.51082211535551,-0.7514548887794178,-13.445054432962552,0.1943284023343434,0.0,0.0,0.0,0.0,0.0,0.0,0.0,10.19,1.0,1.0,0.2,0.0,750.9769660593531,974.9203598982721,974.9203598982722
0.05600000000000449,-0.7824217414715073,-14.16395112110375,0.024999710540042675,-179.99988606994856,3.3549445526143335e-05,-108.51082211535551,-0.7473310059127034,-13.349318332021285,0.21337305095052145,0.0,0.0,0.0,0.0,0.0,0.0,0.0,6.023949220974621,1.0,0.4959929426325867,0.2,0.0,596.0524332156242,956.8116005746124,861.2675587381262
0.060000000000002274,-0.7824217414715073,-14.16395112110375,0.024999710540042675,-179.99988606994856,3.3549445526143335e-05,-108.51082211535551,-0.7464892227420282,-13.329776303015349,0.21720059208724188,0.0,0.0,0.0,0.0,0.0,0.0,0.0,10.19,1.0,1.0,0.2,0.0,750.9769660593531,974.9203598982721,974.9203598982722
0.060000000000002274,-0.7824217414715073,-14.16395112110375,0.024999710540042675,-179.99988606994856,3.3549445526143335e-05,-108.51082211535551,-0.741861001539385,-13.222331968014684,0.23679455489695936,0.0,0.0,0.0,0.0,0.0,0.0,0.0,6.774732872966745,1.0,0.5793819238684852,0.2,0.0,625.7834639883891,960.767801383241,882.1044430189506
0.06400000000000006,-0.7824217414715073,-14.16395112110375,0.024999710540042675,-179.99988606994856,3.3549445526143335e-05,-108.51082211535551,-0.7409197580336877,-13.200480963467717,0.24072979734418104,0.0,0.0,0.0,0.0,0.0,0.0,0.0,10.19,1.0,1.0,0.2,0.0,750.9769660593531,974.9203598982721,974.9203598982722
0.06400000000000006,-0.7824217414715073,-14.16395112110375,0.024999710540042675,-179.99988606994856,3.3549445526143335e-05,-108.51082211535551,-0.7358290857746781,-13.082300809229793,0.2608087800285235,0.0,0.0,0.0,0.0,0.0,0.0,0.0,7.544889476267657,1.0,0.6730465918108031,0.2,0.0,655.9487045010768,964.0834446235527,903.754395579411
0.06800000000000495,-0.7824217414715073,-14.16395112110375,0.024999710540042675,-179.99988606994856,3.3549445526143335e-05,-108.51082211535551,-0.7347966790892086,-13.058333447923216,0.26483899789087345,0.0,0.0,0.0,0.0,0.0,0.0,0.0,10.19,1.0,1.0,0.2,0.0,750.9769660593531,974.9203598982721,974.9203598982722
0.06800000000000495,-0.7824217414715073,-14.16395112110375,0.024999710540042675,-179.99988606994856,3.3549445526143335e-05,-108.51082211535551,-0.7292830506563278,-12.930334349679317,0.28534266674579345,0.0,0.0,0.0,0.0,0.0,0.0,0.0,8.332100688940702,1.0,0.7770476824285761,0.2,0.0,686.4491589871037,966.7246421103412,926.1294469276785
0.07200000000000273,-0.7824217414715073,-14.16395112110375,0.024999710540042675,-179.99988606994856,3.3549445526143335e-05,-108.51082211535551,-0.7281954706708605,-12.905086138070107,0.2894559193755205,0.0,0.0,0.0,0.0,0.0,0.0,0.0,10.19,1.0,1.0,0.2,0.0,750.9769660593531,974.9203598982721,974.9203598982722
0.07200000000000273,-0.7824217414715073,-14.16395112110375,0.024999710540042675,-179.99988606994856,3.3549445526143335e-05,-108.51082211535551,-0.7231326483828819,-12.787552521991486,0.31032769640781044,0.0,0.0,0.0,0.0,0.0,0.0,0.0,9.134191539268357,1.0,0.8830647940333705,0.2,0.0,716.1974268460144,969.4038975111922,948.3891916367024
0.07600000000000051,-0.7824217414715073,-14.16395112110375,0.024999710540042675,-179.99988606994856,3.3549445526143335e-05,-108.51082211535551,-0.722134369106129,-12.76437742980393,0.3145127877523179,0.0,0.0,0.0,0.0,0.0,0.0,0.0,10.19,1.0,1.0,0.2,0.0,750.9769660593531,974.9203598982721,974.9203598982722
0.07600000000000051,-0.7824217414715073,-14.16395112110375,0.024999710540042675,-179.99988606994856,3.3549445526143335e-05,-108.51082211535551,-0.7174967151405169,-12.656714112844533,0.33569965556253684,0.0,0.0,0.0,0.0,0.0,0.0,0.0,9.949122996829573,1.0,0.9897282565352925,0.2,0.0,745.0852045831443,972.2116206221405,970.3892346276166
0.0800000000000054,-0.7824217414715073,-14.16395112110375,0.024999710540042675,-179.99988606994856,3.3549445526143335e-05,-108.51082211535551,-0.7165826520178588,-12.635494101945628,0.33994609545424104,0.0,0.0,0.0,0.0,0.0,0.0,0.0,10.19,1.0,1.0,0.2,0.0,750.9769660593531,974.9203598982721,974.9203598982722
0.0800000000000054,-0.7824217414715073,-14.16395112110375,0.024999710540042675,-179.99988606994856,3.3549445526143335e-05,-108.51082211535551,-0.7123458105218791,-12.537135662038137,0.36139841145931767,0.0,0.0,0.0,0.0,0.0,0.0,0.0,10.19,1.0,1.0,0.2,0.0,750.9769660593531,974.9203598982721,974.9203598982722
0.08400000000000318,-0.7824217414715073,-14.16395112110375,0.024999710540042675,-179.99988606994856,3.3549445526143335e-05,-108.51082211535551,-0.7115111333757881,-12.517758599668953,0.3656963787591059,0.0,0.0,0.0,0.0,0.0,0.0,0.0,10.19,1.0,1.0,0.2,0.0,750.9769660593531,974.9203598982721,974.9203598982722
0.08400000000000318,-0.7824217414715073,-14.16395112110375,0.024999710540042675,-179.99988606994856,3.3549445526143335e-05,-108.51082211535551,-0.7076519703364447,-12.428167979803034,0.3873676983272385,0.0,0.0,0.0,0.0,0.0,0.0,0.0,10.19,1.0,1.0,0.2,0.0,750.9769660593531,974.9203598982721,974.9203598982722
0.08800000000000097,-0.7824217414715073,-14.16395112110375,0.024999710540042675,-179.99988606994856,3.3549445526143335e-05,-108.51082211535551,-0.7068920914316317,-12.410527361510624,0.3917080058367593,0.0,0.0,0.0,0.0,0.0,0.0,0.0,10.19,1.0,1.0,0.2,0.0,750.9769660593531,974.9203598982721,974.9203598982722
0.08800000000000097,-0.7824217414715073,-14.16395112110375,0.024999710540042675,-179.99988606994856,3.3549445526143335e-05,-108.51082211535551,-0.7033886372640445,-12.329194536919887,0.41355491392626537,0.0,0.0,0.0,0.0,0.0,0.0,0.0,10.19,1.0,1.0,0.2,0.0,750.9769660593531,974.9203598982721,974.9203598982722
0.09200000000000585,-0.7824217414715073,-14.16395112110375,0.024999710540042675,-179.99988606994856,3.3549445526143335e-05,-108.51082211535551,-0.7026991999122799,-12.313189222017769,0.41792897498785575,0.0,0.0,0.0,0.0,0.0,0.0,0.0,10.19,1.0,1.0,0.2,0.0,750.9769660593531,974.9203598982721,974.9203598982722
0.09200000000000585,-0.7824217414715073,-14.16395112110375,0.024999710540042675,-179.99988606994856,3.3549445526143335e-05,-108.51082211535551,-0.6995305946463937,-12.239629927687083,0.43991092589981645,0.0,0.0,0.0,0.0,0.0,0.0,0.0,10.19,1.0,1.0,0.2,0.0,750.9769660593531,974.9203598982721,974.9203598982722
0.09600000000000364,-0.7824217414715073,-14.16395112110375,0.024999710540042675,-179.99988606994856,3.3549445526143335e-05,-108.51082211535551,-0.6989074623271406,-12.22516388669031,0.444310722606685,0.0,0.0,0.0,0.0,0.0,0.0,0.0,10.19,1.0,1.0,0.2,0.0,750.9769660593531,974.9203598982721,974.9203598982722
0.09600000000000364,-0.7824217414715073,-14.16395112110375,0.024999710540042675,-179.99988606994856,3.3549445526143335e-05,-108.51082211535551,-0.6960539032778794,-12.158918402516415,0.4663898874786329,0.0,0.0,0.0,0.0,0.0,0.0,0.0,10.19,1.0,1.0,0.2,0.0,750.9769660593531,974.9203598982721,974.9203598982722
0.10000000000000142,-0.7824217414715073,-14.16395112110375,0.024999710540042675,-179.99988606994856,3.3549445526143335e-05,-108.51082211535551,-0.6954931492519206,-12.145900476021529,0.47080794042137813,0.0,0.0,0.0,0.0,0.0,0.0,0.0,10.19,1.0,1.0,0.2,0.0,750.9769660593531,974.9203598982721,974.9203598982722
0.10000000000000142,-0.7824217414715073,-14.16395112110375,0.024999710540042675,-179.99988606994856,3.3549445526143335e-05,-108.51082211535551,-0.6929358410629107,-12.086532467076106,0.49294906210591294,0.0,0.0,0.0,0.0,0.0,0.0,0.0,10.19,1.0,1.0,0.2,0.0,750.9769660593531,974.9203598982721,974.9203598982722
0.10400000000000631,-0.7824217414715073,-14.16395112110375,0.024999710540042675,-179.99988606994856,3.3549445526143335e-05,-108.51082211535551,-0.6924337384571765,-12.074876135580022,0.4973784015845466,0.0,0.0,0.0,0.0,0.0,0.0,0.0,10.19,1.0,1.0,0.2,0.0,750.9769660593531,974.9203598982721,974.9203598982722
0.10400000000000631,-0.7824217414715073,-14.16395112110375,0.024999710540042675,-179.99988606994856,3.3549445526143335e-05,-108.51082211535551,-0.6901548454129414,-12.021971545035463,0.5195486565726734,0.0,0.0,0.0,0.0,0.0,0.0,0.0,10.19,1.0,1.0,0.2,0.0,750.9769660593531,974.9203598982721,974.9203598982722
0.10800000000000409,-0.7824217414715073,-14.16395112110375,0.024999710540042675,-179.99988606994856,3.3549445526143335e-05,-108.51082211535551,-0.6897078577556588,-12.011594709208602,0.5239827952066881,0.0,0.0,0.0,0.0,0.0,0.0,0.0,10.19,1.0,1.0,0.2,0.0,750.9769660593531,974.9203598982721,974.9203598982722
0.10800000000000409,-0.7824217414715073,-14.16395112110375,0.024999710540042675,-179.99988606994856,3.3549445526143335e-05,-108.51082211535551,-0.6876904582617741,-11.964760701593034,0.5461516622708831,0.0,0.0,0.0,0.0,0.0,0.0,0.0,10.19,1.0,1.0,0.2,0.0,750.9769660593531,974.9203598982721,974.9203598982722
0.11200000000000188,-0.7824217414715073,-14.16395112110375,0.024999710540042675,-179.99988606994856,3.3549445526143335e-05,-108.51082211535551,-0.6872952304479782,-11.955585472543305,0.5505845689429237,0.0,0.0,0.0,0.0,0.0,0.0,0.0,10.19,1.0,1.0,0.2,0.0,750.9769660593531,974.9203598982721,974.9203598982722
0.11200000000000188,-0.7824217414715073,-14.16395112110375,0.024999710540042675,-179.99988606994856,3.3549445526143335e-05,-108.51082211535551,-0.6855232735830579,-11.914449425093261,0.572723704189478,0.0,0.0,0.0,0.0,0.0,0.0,0.0,10.19,1.0,1.0,0.2,0.0,750.9769660593531,974.9203598982721,974.9203598982722
0.11600000000000676,-0.7824217414715073,-14.16395112110375,0.024999710540042675,-179.99988606994856,3.3549445526143335e-05,-108.51082211535551,-0.6851766232513932,-11.90640192417818,0.5771497792608518,0.0,0.0,0.0,0.0,0.0,0.0,0.0,10.19,1.0,1.0,0.2,0.0,750.9769660593531,974.9203598982721,974.9203598982722
0.11600000000000676,-0.7824217414715073,-14.16395112110375,0.024999710540042675,-179.99988606994856,3.3549445526143335e-05,-108.51082211535551,-0.6836348872989692,-11.870610464154574,0.599232897294948,0.0,0.0,0.0,0.0,0.0,0.0,0.0,10.19,1.0,1.0,0.2,0.0,750.9769660593531,974.9203598982721,974.9203598982722
0.12000000000000455,-0.7824217414715073,-14.16395112110375,0.024999710540042675,-179.99988606994856,3.3549445526143335e-05,-108.51082211535551,-0.6833337966015205,-11.863620631917563,0.6036469490341804,0.0,0.0,0.0,0.0,0.0,0.0,0.0,10.19,1.0,1.0,0.2,0.0,750.9769660593531,974.9203598982721,974.9203598982722
0.12000000000000455,-0.7824217414715073,-14.16395112110375,0.024999710540042675,-179.99988606994856,3.3549445526143335e-05,-108.51082211535551,-0.6820078494738943,-11.832838717843861,0.6256497099544531,0.0,0.0,0.0,0.0,0.0,0.0,0.0,10.19,1.0,1.0,0.2,0.0,750.9769660593531,974.9203598982721,974.9203598982722
0.12400000000000233,-0.7824217414715073,-14.16395112110375,0.024999710540042675,-179.99988606994856,3.3549445526143335e-05,-108.51082211535551,-0.6817494572215874,-11.82684013166942,0.6300469321227382,0.0,0.0,0.0,0.0,0.0,0.0,0.0,10.19,1.0,1.0,0.2,0.0,750.9769660593531,974.9203598982721,974.9203598982722
0.12400000000000233,-0.7824217414715073,-14.16395112110375,0.024999710540042675,-179.99988606994856,3.3549445526143335e-05,-108.51082211535551,-0.6806256186915692,-11.800750176540014,0.6519468340747793,0.0,0.0,0.0,0.0,0.0,0.0,0.0,10.19,1.0,1.0,0.2,0.0,750.9769660593531,974.9203598982721,974.9203598982722
0.1280000000000001,-0.7824217414715073,-14.16395112110375,0.024999710540042675,-179.99988606994856,3.3549445526143335e-05,-108.51082211535551,-0.6804072128584578,-11.79567987664045,0.6563227846144735,0.0,0.0,0.0,0.0,0.0,0.0,0.0,10.19,1.0,1.0,0.2,0.0,750.9769660593531,974.9203598982721,974.9203598982722
0.1280000000000001,-0.7824217414715073,-14.16395112110375,0.024999710540042675,-179.99988606994856,3.3549445526143335e-05,-108.51082211535551,-0.6794725185185855,-11.773980911232506,0.6780990616448945,0.0,0.0,0.0,0.0,0.0,0.0,0.0,10.19,1.0,1.0,0.2,0.0,750.9769660593531,974.9203598982721,974.9203598982722
0.132000000000005,-0.7824217414715073,-14.16395112110375,0.024999710540042675,-179.99988606994856,3.3549445526143335e-05,-108.51082211535551,-0.6792915290890528,-11.769779234595447,0.6824496424198918,0.0,0.0,0.0,0.0,0.0,0.0,0.0,10.19,1.0,1.0,0.2,0.0,750.9769660593531,974.9203598982721,974.9203598982722
0.132000000000005,-0.7824217414715073,-14.16395112110375,0.024999710540042675,-179.99988606994856,3.3549445526143335e-05,-108.51082211535551,-0.6785336959613943,-11.75218610909915,0.7040831673841762,0.0,0.0,0.0,0.0,0.0,0.0,0.0,10.19,1.0,1.0,0.2,0.0,750.9769660593531,974.9203598982721,974.9203598982722
0.13600000000000279,-0.7824217414715073,-14.16395112110375,0.024999710540042675,-179.99988606994856,3.3549445526143335e-05,-108.51082211535551,-0.6783876881050075,-11.748796531041515,0.7084046049230905,0.0,0.0,0.0,0.0,0.0,0.0,0.0,10.19,1.0,1.0,0.2,0.0,750.9769660593531,974.9203598982721,974.9203598982722
0.13600000000000279,-0.7824217414715073,-14.16395112110375,0.024999710540042675,-179.99988606994856,3.3549445526143335e-05,-108.51082211535551,-0.6777950818280187,-11.735039153301681,0.7298777972115685,0.0,0.0,0.0,0.0,0.0,0.0,0.0,10.19,1.0,1.0,0.2,0.0,750.9769660593531,974.9203598982721,974.9203598982722
0.14000000000000057,-0.7824217414715073,-14.16395112110375,0.024999710540042675,-179.99988606994856,3.3549445526143335e-05,-108.51082211535551,-0.677681749387433,-11.732408136291133,0.7341666244070698,0.0,0.0,0.0,0.0,0.0,0.0,0.0,10.19,1.0,1.0,0.2,0.0,750.9769660593531,974.9203598982721,974.9203598982722
0.14000000000000057,-0.7824217414715073,-14.16395112110375,0.024999710540042675,-179.99988606994856,3.3549445526143335e-05,-108.51082211535551,-0.6772433529095553,-11.722230745027877,0.7554633622639706,0.0,0.0,0.0,0.0,0.0,0.0,0.0,10.19,1.0,1.0,0.2,0.0,750.9769660593531,974.9203598982721,974.9203598982722
0.14400000000000546,-0.7824217414715073,-14.16395112110375,0.024999710540042675,-179.99988606994856,3.3549445526143335e-05,-108.51082211535551,-0.6771605121875148,-11.720307594447794,0.7597164009834578,0.0,0.0,0.0,0.0,0.0,0.0,0.0,10.19,1.0,1.0,0.2,0.0,750.9769660593531,974.9203598982721,974.9203598982722
0.14400000000000546,-0.7824217414715073,-14.16395112110375,0.024999710540042675,-179.99988606994856,3.3549445526143335e-05,-108.51082211535551,-0.6768658959002806,-11.713468065895405,0.7808219382041385,0.0,0.0,0.0,0.0,0.0,0.0,0.0,10.19,1.0,1.0,0.2,0.0,750.9769660593531,974.9203598982721,974.9203598982722
0.14800000000000324,-0.7824217414715073,-14.16395112110375,0.024999710540042675,-179.99988606994856,3.3549445526143335e-05,-108.51082211535551,-0.6768114797323637,-11.712204792443442,0.7850362827691673,0.0,0.0,0.0,0.0,0.0,0.0,0.0,10.19,1.0,1.0,0.2,0.0,750.9769660593531,974.9203598982721,974.9203598982722
0.14800000000000324,-0.7824217414715073,-14.16395112110375,0.024999710540042675,-179.99988606994856,3.3549445526143335e-05,-108.51082211535551,-0.6766507729787193,-11.708473978915004,0.8059371695703215,0.0,0.0,0.0,0.0,0.0,0.0,0.0,10.19,1.0,1.0,0.2,0.0,750.9769660593531,974.9203598982721,974.9203598982722
0.15200000000000102,-0.7824217414715073,-14.16395112110375,0.024999710540042675,-179.99988606994856,3.3549445526143335e-05,-108.51082211535551,-0.676622825079065,-11.707825167338903,0.8101101710641226,0.0,0.0,0.0,0.0,0.0,0.0,0.0,10.19,1.0,1.0,0.2,0.0,750.9769660593531,974.9203598982721,974.9203598982722
0.15200000000000102,-0.7824217414715073,-14.16395112110375,0.024999710540042675,-179.99988606994856,3.3549445526143335e-05,-108.51082211535551,-0.6765866889754426,-11.706986266289618,0.8307941789310416,0.0,0.0,0.0,0.0,0.0,0.0,0.0,10.19,1.0,1.0,0.2,0.0,750.9769660593531,974.9203598982721,974.9203598982722
0.1560000000000059,-0.7824217414715073,-14.16395112110375,0.024999710540042675,-179.99988606994856,3.3549445526143335e-05,-108.51082211535551,-0.6765833585432567,-11.706908950177054,0.8349234302951083,0.0,0.0,0.0,0.0,0.0,0.0,0.0,10.19,1.0,1.0,0.2,0.0,750.9769660593531,974.9203598982721,974.9203598982722
0.1560000000000059,-0.7824217414715073,-14.16395112110375,0.024999710540042675,-179.99988606994856,3.3549445526143335e-05,-108.51082211535551,-0.6766629600566183,-11.70875690240183,0.8553794806189324,0.0,0.0,0.0,0.0,0.0,0.0,0.0,10.19,1.0,1.0,0.2,0.0,750.9769660593531,974.9203598982721,974.9203598982722
0.1600000000000037,-0.7824217414715073,-14.16395112110375,0.024999710540042675,-179.99988606994856,3.3549445526143335e-05,-108.51082211535551,-0.6766824966317895,-11.70921044475332,0.8594628025016156,0.0,0.0,0.0,0.0,0.0,0.0,0.0,10.19,1.0,1.0,0.2,0.0,750.9769660593531,974.9203598982721,974.9203598982722
0.1600000000000037,-0.7824217414715073,-14.16395112110375,0.024999710540042675,-179.99988606994856,3.3549445526143335e-05,-108.51082211535551,-0.6768694838554498,-11.713551360414034,0.8796808988279854,0.0,0.0,0.0,0.0,0.0,0.0,0.0,10.19,1.0,1.0,0.2,0.0,750.9769660593531,974.9203598982721,974.9203598982722
0.16400000000000148,-0.7824217414715073,-14.16395112110375,0.024999710540042675,-179.99988606994856,3.3549445526143335e-05,-108.51082211535551,-0.6769102324121192,-11.714497339739975,0.8837163261497161,0.0,0.0,0.0,0.0,0.0,0.0,0.0,10.19,1.0,1.0,0.2,0.0,750.9769660593531,974.9203598982721,974.9203598982722
0.16400000000000148,-0.7824217414715073,-14.16395112110375,0.024999710540042675,-179.99988606994856,3.3549445526143335e-05,-108.51082211535551,-0.6771967109866192,-11.72114795097513,0.9036874898683258,0.0,0.0,0.0,0.0,0.0,0.0,0.0,10.19,1.0,1.0,0.2,0.0,750.9769660593531,974.9203598982721,974.9203598982722
0.16800000000000637,-0.7824217414715073,-14.16395112110375,0.024999710540042675,-179.99988606994856,3.3549445526143335e-05,-108.51082211535551,-0.6772571072540379,-11.722550052669323,0.9076732590694927,0.0,0.0,0.0,0.0,0.0,0.0,0.0,10.19,1.0,1.0,0.2,0.0,750.9769660593531,974.9203598982721,974.9203598982722
0.16800000000000637,-0.7824217414715073,-14.16395112110375,0.024999710540042675,-179.99988606994856,3.3549445526143335e-05,-108.51082211535551,-0.6776356178817012,-11.731337191593614,0.9273894683817916,0.0,0.0,0.0,0.0,0.0,0.0,0.0,10.19,1.0,1.0,0.2,0.0,750.9769660593531,974.9203598982721,974.9203598982722
0.17200000000000415,-0.7824217414715073,-14.16395112110375,0.024999710540042675,-179.99988606994856,3.3549445526143335e-05,-108.51082211535551,-0.6777141838821767,-11.733161104346514,0.931324005321038,0.0,0.0,0.0,0.0,0.0,0.0,0.0,10.19,1.0,1.0,0.2,0.0,750.9769660593531,974.9203598982721,974.9203598982722
0.17200000000000415,-0.7824217414715073,-14.16395112110375,0.024999710540042675,-179.99988606994856,3.3549445526143335e-05,-108.51082211535551,-0.678177680886242,-11.743921205300236,0.9507781373307171,0.0,0.0,0.0,0.0,0.0,0.0,0.0,10.19,1.0,1.0,0.2,0.0,750.9769660593531,974.9203598982721,974.9203598982722
0.17600000000000193,-0.7824217414715073,-14.16395112110375,0.024999710540042675,-179.99988606994856,3.3549445526143335e-05,-108.51082211535551,-0.6782730206804263,-11.746134522325658,0.9546600458028837,0.0,0.0,0.0,0.0,0.0,0.0,0.0,10.19,1.0,1.0,0.2,0.0,750.9769660593531,974.9203598982721,974.9203598982722
0.17600000000000193,-0.7824217414715073,-14.16395112110375,0.024999710540042675,-179.99988606994856,3.3549445526143335e-05,-108.51082211535551,-0.6788148515618048,-11.758713147284052,0.973845821580854,0.0,0.0,0.0,0.0,0.0,0.0,0.0,10.19,1.0,1.0,0.2,0.0,750.9769660593531,974.9203598982721,974.9203598982722
0.18000000000000682,-0.7824217414715073,-14.16395112110375,0.024999710540042675,-179.99988606994856,3.3549445526143335e-05,-108.51082211535551,-0.678925647192002,-11.76128527214289,0.9776738724250087,0.0,0.0,0.0,0.0,0.0,0.0,0.0,10.19,1.0,1.0,0.2,0.0,750.9769660593531,974.9203598982721,974.9203598982722
0.18000000000000682,-0.7824217414715073,-14.16395112110375,0.024999710540042675,-179.99988606994856,3.3549445526143335e-05,-108.51082211535551,-0.6795395331387801,-11.775536658243485,0.9965858049073313,0.0,0.0,0.0,0.0,0.0,0.0,0.0,10.19,1.0,1.0,0.2,0.0,750.9769660593531,974.9203598982721,974.9203598982722
0.1840000000000046,-0.7824217414715073,-14.16395112110375,0.024999710540042675,-179.99988606994856,3.3549445526143335e-05,-108.51082211535551,-0.6796645407613634,-11.778438715057623,1.0003589256768595,0.0,0.0,0.0,0.0,0.0,0.0,0.0,10.19,1.0,0.9577377934992617,0.2,0.0,746.1122862580971,978.64833724408,971.1780723933949
0.1840000000000046,-0.7824217414715073,-14.16395112110375,0.024999710540042675,-179.99988606994856,3.3549445526143335e-05,-108.51082211535551,-0.6803445580681442,-11.794225343249526,1.0189922702605425,0.0,0.0,0.0,0.0,0.0,0.0,0.0,10.19,1.0,1.0,0.2,0.0,750.9769660593531,974.9203598982721,974.9203598982722
0.1880000000000024,-0.7824217414715073,-14.16395112110375,0.024999710540042675,-179.99988606994856,3.3549445526143335e-05,-108.51082211535551,-0.6804826042665665,-11.797430091108247,1.022709535428547,0.0,0.0,0.0,0.0,0.0,0.0,0.0,10.19,1.0,0.8460276090648031,0.2,0.0,733.0982333883447,988.4346674913701,961.2160654033918
0.1880000000000024,-0.7824217414715073,-14.16395112110375,0.024999710540042675,-179.99988606994856,3.3549445526143335e-05,-108.51082211535551,-0.6812231666226363,-11.814622274971239,1.0410602431362914,0.0,0.0,0.0,0.0,0.0,0.0,0.0,10.19,1.0,1.0,0.2,0.0,750.9769660593531,974.9203598982721,974.9203598982722
0.19200000000000017,-0.7824217414715073,-14.16395112110375,0.024999710540042675,-179.99988606994856,3.3549445526143335e-05,-108.51082211535551,-0.6813731448928901,-11.818104026341025,1.0447208648105868,0.0,0.0,0.0,0.0,0.0,0.0,0.0,10.19,1.0,0.7463687607117391,0.2,0.0,721.2899899068194,997.0841800751367,952.2408067984932
0.19200000000000017,-0.7824217414715073,-14.16395112110375,0.024999710540042675,-179.99988606994856,3.3549445526143335e-05,-108.51082211535551,-0.6821689865000045,-11.836579520164316,1.062785537901455,0.0,0.0,0.0,0.0,0.0,0.0,0.0,10.19,1.0,1.0,0.2,0.0,750.9769660593531,974.9203598982721,974.9203598982722
0.19600000000000506,-0.7824217414715073,-14.16395112110375,0.024999710540042675,-179.99988606994856,3.3549445526143335e-05,-108.51082211535551,-0.6823298539007494,-11.840314063121436,1.0663888570248505,0.0,0.0,0.0,0.0,0.0,0.0,0.0,10.19,1.0,0.6580616651971307,0.2,0.0,710.66284329158,1004.686237021596,944.21659667035
0.19600000000000506,-0.7824217414715073,-14.16395112110375,0.024999710540042675,-179.99988606994856,3.3549445526143335e-05,-108.51082211535551,-0.6831760133830634,-11.859957688372065,1.0841647069334663,0.0,0.0,0.0,0.0,0.0,0.0,0.0,10.19,1.0,1.0,0.2,0.0,750.9769660593531,974.9203598982721,974.9203598982722
0.20000000000000284,-0.7824217414715073,-14.16395112110375,0.024999710540042675,-179.99988606994856,3.3549445526143335e-05,-108.51082211535551,-0.6833467873429798,-11.863922212485166,1.0877101849459572,0.0,0.0,0.0,0.0,0.0,0.0,0.0,10.19,1.0,0.5804420411704716,0.2,0.0,701.1888682838348,1011.3210581663581,937.1067887907069
0.20000000000000284,-0.7824217414715073,-14.16395112110375,0.024999710540042675,-179.99988606994856,3.3549445526143335e-05,-108.51082211535551,-0.6842385924133028,-11.884625501834504,1.1051949924382223,0.0,0.0,0.0,0.0,0.0,0.0,0.0,10.19,1.0,1.0,0.2,0.0,750.9769660593531,974.9203598982721,974.9203598982722
0.20400000000000063,-0.7824217414715073,-14.16395112110375,0.024999710540042675,-179.99988606994856,3.3549445526143335e-05,-108.51082211535551,-0.6844183476885646,-11.888798527532225,1.1086822033789643,0.0,0.0,0.0,0.0,0.0,0.0,0.0,10.19,1.0,0.5128792451698727,0.2,0.0,692.836943328063,1017.0610019343549,930.873962807339
0.20400000000000063,-0.7824217414715073,-14.16395112110375,0.024999710540042675,-179.99988606994856,3.3549445526143335e-05,-108.51082211535551,-0.6853514005367002,-11.910459385645739,1.1258742808174191,0.0,0.0,0.0,0.0,0.0,0.0,0.0,10.19,1.0,1.0,0.2,0.0,750.9769660593531,974.9203598982721,974.9203598982722
0.2080000000000055,-0.7824217414715073,-14.16395112110375,0.024999710540042675,-179.99988606994856,3.3549445526143335e-05,-108.51082211535551,-0.6855392663117656,-11.91482069691145,1.1293029038451525,0.0,0.0,0.0,0.0,0.0,0.0,0.0,10.19,1.0,0.4547746830021362,0.2,0.0,685.5728457576811,1021.9716164628068,925.4801086099856
0.2080000000000055,-0.7824217414715073,-14.16395112110375,0.024999710540042675,-179.99988606994856,3.3549445526143335e-05,-108.51082211535551,-0.6865094296822161,-11.937343077242044,1.1462010594620193,0.0,0.0,0.0,0.0,0.0,0.0,0.0,10.19,1.0,1.0,0.2,0.0,750.9769660593531,974.9203598982721,974.9203598982722
0.2120000000000033,-0.7824217414715073,-14.16395112110375,0.024999710540042675,-179.99988606994856,3.3549445526143335e-05,-108.51082211535551,-0.6867045868074414,-11.941873657484946,1.1495708717737698,0.0,0.0,0.0,0.0,0.0,0.0,0.0,10.19,1.0,0.4055602932711144,0.2,0.0,679.3594246699461,1026.1125103067436,920.8868184963588
0.2120000000000033,-0.7824217414715073,-14.16395112110375,0.024999710540042675,-179.99988606994856,3.3549445526143335e-05,-108.51082211535551,-0.6877079707351985,-11.965167254343854,1.1661743758544092,0.0,0.0,0.0,0.0,0.0,0.0,0.0,10.19,1.0,1.0,0.2,0.0,750.9769660593531,974.9203598982721,974.9203598982722
0.21600000000000108,-0.7824217414715073,-14.16395112110375,0.024999710540042675,-179.99988606994856,3.3549445526143335e-05,-108.51082211535551,-0.6879096490950697,-11.969849225302374,1.169485245983211,0.0,0.0,0.0,0.0,0.0,0.0,0.0,10.19,1.0,0.3646970998613175,0.2,0.0,674.1568465895828,1029.5380798650806,917.0554827250508
0.21600000000000108,-0.7824217414715073,-14.16395112110375,0.024999710540042675,-179.99988606994856,3.3549445526143335e-05,-108.51082211535551,-0.6889425982696037,-11.993829180513655,1.185793798867203,0.0,0.0,0.0,0.0,0.0,0.0,0.0,10.19,1.0,1.0,0.2,0.0,750.9769660593531,974.9203598982721,974.9203598982722
0.22000000000000597,-0.7824217414715073,-14.16395112110375,0.024999710540042675,-179.99988606994856,3.3549445526143335e-05,-108.51082211535551,-0.6891500742756471,-11.998645744053272,1.1890456803403244,0.0,0.0,0.0,0.0,0.0,0.0,0.0,10.19,1.0,0.3316738302133677,0.2,0.0,669.9229054450183,1032.298121889211,913.9474841763943
0.22000000000000597,-0.7824217414715073,-14.16395112110375,0.024999710540042675,-179.99988606994856,3.3549445526143335e-05,-108.51082211535551,-0.6902091560045264,-12.023232367528786,1.2050593821516706,0.0,0.0,0.0,0.0,0.0,0.0,0.0,10.19,1.0,1.0,0.2,0.0,750.9769660593531,974.9203598982721,974.9203598982722
0.22400000000000375,-0.7824217414715073,-14.16395112110375,0.024999710540042675,-179.99988606994856,3.3549445526143335e-05,-108.51082211535551,-0.6903935830245367,-12.027513847962314,1.2082523074918334,0.0,0.0,0.0,0.0,0.0,0.0,0.0,10.19,1.0,0.6342361219661077,0.2,0.0,707.7682713582334,1006.7274634946965,942.0399304349511
0.22400000000000375,-0.7824217414715073,-14.16395112110375,0.024999710540042675,-179.99988606994856,3.3549445526143335e-05,-108.51082211535551,-0.6906390357938634,-12.033212043536745,1.2239716295138643,0.0,0.0,0.0,0.0,0.0,0.0,0.0,10.19,1.0,1.0,0.2,0.0,750.9769660593531,974.9203598982721,974.9203598982722
0.22800000000000153,-0.7824217414715073,-14.16395112110375,0.024999710540042675,-179.99988606994856,3.3549445526143335e-05,-108.51082211535551,-0.6906626742557939,-12.033760811348685,1.2271057045667533,0.0,0.0,0.0,0.0,0.0,0.0,0.0,10.19,1.0,1.0,0.2,0.0,750.9769660593531,974.9203598982721,974.9203598982722
0.22800000000000153,-0.7824217414715073,-14.16395112110375,0.024999710540042675,-179.99988606994856,3.3549445526143335e-05,-108.51082211535551,-0.6901521786200365,-12.021909635334591,1.24253146218123,0.0,0.0,0.0,0.0,0.0,0.0,0.0,10.19,1.0,1.0,0.2,0.0,750.9769660593531,974.9203598982721,974.9203598982722
0.23200000000000642,-0.7824217414715073,-14.16395112110375,0.024999710540042675,-179.99988606994856,3.3549445526143335e-05,-108.51082211535551,-0.6900264592039804,-12.01899105420733,1.2456068607532158,0.0,0.0,0.0,0.0,0.0,0.0,0.0,10.19,1.0,1.0,0.2,0.0,750.9769660593531,974.9203598982721,974.9203598982722
0.23200000000000642,-0.7824217414715073,-14.16395112110375,0.024999710540042675,-179.99988606994856,3.3549445526143335e-05,-108.51082211535551,-0.6888145541352336,-11.990856630960431,1.2607401878668536,0.0,0.0,0.0,0.0,0.0,0.0,0.0,10.19,1.0,1.0,0.2,0.0,750.9769660593531,974.9203598982721,974.9203598982722
0.2360000000000042,-0.7824217414715073,-14.16395112110375,0.024999710540042675,-179.99988606994856,3.3549445526143335e-05,-108.51082211535551,-0.6885502843697006,-11.984721598088134,1.2637571466577435,0.0,0.0,0.0,0.0,0.0,0.0,0.0,10.19,1.0,1.0,0.2,0.0,750.9769660593531,974.9203598982721,974.9203598982722
0.2360000000000042,-0.7824217414715073,-14.16395112110375,0.024999710540042675,-179.99988606994856,3.3549445526143335e-05,-108.51082211535551,-0.6866885212157617,-11.941500694150038,1.278599471542942,0.0,0.0,0.0,0.0,0.0,0.0,0.0,10.19,1.0,1.0,0.2,0.0,750.9769660593531,974.9203598982721,974.9203598982722
0.240000000000002,-0.7824217414715073,-14.16395112110375,0.024999710540042675,-179.99988606994856,3.3549445526143335e-05,-108.51082211535551,-0.6863240832124728,-11.933040251747245,1.2815582853592802,0.0,0.0,0.0,0.0,0.0,0.0,0.0,10.19,1.0,1.0,0.2,0.0,750.9769660593531,974.9203598982721,974.9203598982722
0.240000000000002,-0.7824217414715073,-14.16395112110375,0.024999710540042675,-179.99988606994856,3.3549445526143335e-05,-108.51082211535551,-0.6846977124894471,-11.895283992236518,1.2961113078392534,0.0,0.0,0.0,0.0,0.0,0.0,0.0,10.19,1.0,1.0,0.2,0.0,750.9769660593531,974.9203598982721,974.9203598982722
0.24400000000000688,-0.7824217414715073,-14.16395112110375,0.024999710540042675,-179.99988606994856,3.3549445526143335e-05,-108.51082211535551,-0.6843798596996202,-11.88790502737383,1.2990123250742174,0.0,0.0,0.0,0.0,0.0,0.0,0.0,10.19,1.0,1.0,0.2,0.0,750.9769660593531,974.9203598982721,974.9203598982722
0.24400000000000688,-0.7824217414715073,-14.16395112110375,0.024999710540042675,-179.99988606994856,3.3549445526143335e-05,-108.51082211535551,-0.6829741892810303,-11.855272334003589,1.313277994985965,0.0,0.0,0.0,0.0,0.0,0.0,0.0,10.19,1.0,1.0,0.2,0.0,750.9769660593531,974.9203598982721,974.9203598982722
0.24800000000000466,-0.7824217414715073,-14.16395112110375,0.024999710540042675,-179.99988606994856,3.3549445526143335e-05,-108.51082211535551,-0.6827000089181959,-11.848907226229969,1.3161216133527052,0.0,0.0,0.0,0.0,0.0,0.0,0.0,10.19,1.0,1.0,0.2,0.0,750.9769660593531,974.9203598982721,974.9203598982722
0.24800000000000466,-0.7824217414715073,-14.16395112110375,0.024999710540042675,-179.99988606994856,3.3549445526143335e-05,-108.51082211535551,-0.6815011107721717,-11.821074759199323,1.3301021102243742,0.0,0.0,0.0,0.0,0.0,0.0,0.0,10.19,1.0,1.0,0.2,0.0,750.9769660593531,974.9203598982721,974.9203598982722
0.25200000000000244,-0.7824217414715073,-14.16395112110375,0.024999710540042675,-179.99988606994856,3.3549445526143335e-05,-108.51082211535551,-0.6812678416412226,-11.8156594072631,1.3328887727302463,0.0,0.0,0.0,0.0,0.0,0.0,0.0,10.19,1.0,1.0,0.2,0.0,750.9769660593531,974.9203598982721,974.9203598982722
0.25200000000000244,-0.7824217414715073,-14.16395112110375,0.024999710540042675,-179.99988606994856,3.3549445526143335e-05,-108.51082211535551,-0.6802625152356084,-11.792320715705289,1.3465864866123958,0.0,0.0,0.0,0.0,0.0,0.0,0.0,10.19,1.0,1.0,0.2,0.0,750.9769660593531,974.9203598982721,974.9203598982722
0.2560000000000002,-0.7824217414715073,-14.16395112110375,0.024999710540042675,-179.99988606994856,3.3549445526143335e-05,-108.51082211535551,-0.6800675404700037,-11.787794368948063,1.349316677761989,0.0,0.0,0.0,0.0,0.0,0.0,0.0,10.19,1.0,1.0,0.2,0.0,750.9769660593531,974.9203598982721,974.9203598982722
0.2560000000000002,-0.7824217414715073,-14.16395112110375,0.024999710540042675,-179.99988606994856,3.3549445526143335e-05,-108.51082211535551,-0.6792432778525622,-11.768659080266026,1.362734191155098,0.0,0.0,0.0,0.0,0.0,0.0,0.0,10.19,1.0,1.0,0.2,0.0,750.9769660593531,974.9203598982721,974.9203598982722
0.2600000000000051,-0.7824217414715073,-14.16395112110375,0.024999710540042675,-179.99988606994856,3.3549445526143335e-05,-108.51082211535551,-0.6790841179840459,-11.764964177735921,1.3654084333706982,0.0,0.0,0.0,0.0,0.0,0.0,0.0,10.19,1.0,1.0,0.2,0.0,750.9769660593531,974.9203598982721,974.9203598982722
0.2600000000000051,-0.7824217414715073,-14.16395112110375,0.024999710540042675,-179.99988606994856,3.3549445526143335e-05,-108.51082211535551,-0.6784290704631587,-11.74975722409348,1.3785485041939693,0.0,0.0,0.0,0.0,0.0,0.0,0.0,10.19,1.0,1.0,0.2,0.0,750.9769660593531,974.9203598982721,974.9203598982722
0.2640000000000029,-0.7824217414715073,-14.16395112110375,0.024999710540042675,-179.99988606994856,3.3549445526143335e-05,-108.51082211535551,-0.6783033768091877,-11.746839241034028,1.3811673544424954,0.0,0.0,0.0,0.0,0.0,0.0,0.0,10.19,1.0,1.0,0.2,0.0,750.9769660593531,974.9203598982721,974.9203598982722
0.2640000000000029,-0.7824217414715073,-14.16395112110375,0.024999710540042675,-179.99988606994856,3.3549445526143335e-05,-108.51082211535551,-0.6771021435963958,-11.718952565337664,1.394032899991576,0.0,0.0,0.0,0.0,0.0,0.0,0.0,10.19,1.0,1.0,0.2,0.0,750.9769660593531,974.9203598982721,974.9203598982722
0.2680000000000007,-0.7824217414715073,-14.16395112110375,0.024999710540042675,-179.99988606994856,3.3549445526143335e-05,-108.51082211535551,-0.6768685714190716,-11.713530178168073,1.3965969466076733,0.0,0.0,0.0,0.0,0.0,0.0,0.0,10.19,1.0,1.0,0.2,0.0,750.9769660593531,974.9203598982721,974.9203598982722
0.2680000000000007,-0.7824217414715073,-14.16395112110375,0.024999710540042675,-179.99988606994856,3.3549445526143335e-05,-108.51082211535551,-0.6758657800386951,-11.690250337319624,1.40919102845139,0.0,0.0,0.0,0.0,0.0,0.0,0.0,10.19,1.0,1.0,0.2,0.0,750.9769660593531,974.9203598982721,974.9203598982722
0.27200000000000557,-0.7824217414715073,-14.16395112110375,0.024999710540042675,-179.99988606994856,3.3549445526143335e-05,-108.51082211535551,-0.675671464476544,-11.68573929399618,1.4117008881466873,0.0,0.0,0.0,0.0,0.0,0.0,0.0,10.19,1.0,1.0,0.2,0.0,750.9769660593531,974.9203598982721,974.9203598982722
0.27200000000000557,-0.7824217414715073,-14.16395112110375,0.024999710540042675,-179.99988606994856,3.3549445526143335e-05,-108.51082211535551,-0.6748542565837307,-11.666767781020422,1.4240266979152378,0.0,0.0,0.0,0.0,0.0,0.0,0.0,10.19,1.0,1.0,0.2,0.0,750.9769660593531,974.9203598982721,974.9203598982722
0.27600000000000335,-0.7824217414715073,-14.16395112110375,0.024999710540042675,-179.99988606994856,3.3549445526143335e-05,-108.51082211535551,-0.6746966487335668,-11.663108908656657,1.426483012964377,0.0,0.0,0.0,0.0,0.0,0.0,0.0,10.19,1.0,1.0,0.2,0.0,750.9769660593531,974.9203598982721,974.9203598982722
0.27600000000000335,-0.7824217414715073,-14.16395112110375,0.024999710540042675,-179.99988606994856,3.3549445526143335e-05,-108.51082211535551,-0.6740528444212603,-11.648162966538155,1.43854385898367,0.0,0.0,0.0,0.0,0.0,0.0,0.0,10.19,1.0,1.0,0.2,0.0,750.9769660593531,974.9203598982721,974.9203598982722
0.28000000000000114,-0.7824217414715073,-14.16395112110375,0.024999710540042675,-179.99988606994856,3.3549445526143335e-05,-108.51082211535551,-0.6739295299694424,-11.645300216749105,1.4409472945781576,0.0,0.0,0.0,0.0,0.0,0.0,0.0,10.19,1.0,1.0,0.2,0.0,750.9769660593531,974.9203598982721,974.9203598982722
0.28000000000000114,-0.7824217414715073,-14.16395112110375,0.024999710540042675,-179.99988606994856,3.3549445526143335e-05,-108.51082211535551,-0.67344759503625,-11.63411207855448,1.4527465893071352,0.0,0.0,0.0,0.0,0.0,0.0,0.0,10.19,1.0,1.0,0.2,0.0,750.9769660593531,974.9203598982721,974.9203598982722
0.284000000000006,-0.7824217414715073,-14.16395112110375,0.024999710540042675,-179.99988606994856,3.3549445526143335e-05,-108.51082211535551,-0.6733562877627227,-11.631992376652752,1.4550978310683689,0.0,0.0,0.0,0.0,0.0,0.0,0.0,10.19,1.0,1.0,0.2,0.0,750.9769660593531,974.9203598982721,974.9203598982722
0.284000000000006,-0.7824217414715073,-14.16395112110375,0.024999710540042675,-179.99988606994856,3.3549445526143335e-05,-108.51082211535551,-0.673025302485483,-11.624308540584646,1.4666390792981925,0.0,0.0,0.0,0.0,0.0,0.0,0.0,10.19,1.0,1.0,0.2,0.0,750.9769660593531,974.9203598982721,974.9203598982722
0.2880000000000038,-0.7824217414715073,-14.16395112110375,0.024999710540042675,-179.99988606994856,3.3549445526143335e-05,-108.51082211535551,-0.672963838066504,-11.622881641710489,1.4689388309415496,0.0,0.0,0.0,0.0,0.0,0.0,0.0,10.19,1.0,1.0,0.2,0.0,750.9769660593531,974.9203598982721,974.9203598982722
0.2880000000000038,-0.7824217414715073,-14.16395112110375,0.024999710540042675,-179.99988606994856,3.3549445526143335e-05,-108.51082211535551,-0.6727734674103667,-11.618462179533395,1.480225618717487,0.0,0.0,0.0,0.0,0.0,0.0,0.0,10.19,1.0,1.0,0.2,0.0,750.9769660593531,974.9203598982721,974.9203598982722
0.2920000000000016,-0.7824217414715073,-14.16395112110375,0.024999710540042675,-179.99988606994856,3.3549445526143335e-05,-108.51082211535551,-0.6727397975065802,-11.617680531409098,1.482474599859737,0.0,0.0,0.0,0.0,0.0,0.0,0.0,10.19,1.0,1.0,0.2,0.0,750.9769660593531,974.9203598982721,974.9203598982722
0.2920000000000016,-0.7824217414715073,-14.16395112110375,0.024999710540042675,-179.99988606994856,3.3549445526143335e-05,-108.51082211535551,-0.672680262708352,-11.616298428755627,1.4935105840884446,0.0,0.0,0.0,0.0,0.0,0.0,0.0,10.19,1.0,1.0,0.2,0.0,750.9769660593531,974.9203598982721,974.9203598982722
0.2960000000000065,-0.7824217414715073,-14.16395112110375,0.024999710540042675,-179.99988606994856,3.3549445526143335e-05,-108.51082211535551,-0.6726724493254576,-11.616117040768225,1.4957095281910127,0.0,0.0,0.0,0.0,0.0,0.0,0.0,10.19,1.0,1.0,0.2,0.0,750.9769660593531,974.9203598982721,974.9203598982722
0.2960000000000065,-0.7824217414715073,-14.16395112110375,0.024999710540042675,-179.99988606994856,3.3549445526143335e-05,-108.51082211535551,-0.6727345007887853,-11.617557567899741,1.5064984268976982,0.0,0.0,0.0,0.0,0.0,0.0,0.0,10.19,1.0,1.0,0.2,0.0,750.9769660593531,974.9203598982721,974.9203598982722
0.30000000000000426,-0.7824217414715073,-14.16395112110375,0.024999710540042675,-179.99988606994856,3.3549445526143335e-05,-108.51082211535551,-0.6727507108986034,-11.617933886228844,1.5086480793387698,0.0,0.0,0.0,0.0,0.0,0.0,0.0,10.19,1.0,1.0,0.2,0.0,750.9769660593531,974.9203598982721,974.9203598982722
0.30000000000000426,-0.7824217414715073,-14.16395112110375,0.024999710540042675,-179.99988606994856,3.3549445526143335e-05,-108.51082211535551,-0.6729256023422643,-11.621993997887015,1.519193662540407,0.0,0.0,0.0,0.0,0.0,0.0,0.0,10.19,1.0,1.0,0.2,0.0,750.9769660593531,974.9203598982721,974.9203598982722
0.30400000000000205,-0.7824217414715073,-14.16395112110375,0.024999710540042675,-179.99988606994856,3.3549445526143335e-05,-108.51082211535551,-0.6729641027525403,-11.622887786407105,1.521294778809198,0.0,0.0,0.0,0.0,0.0,0.0,0.0,10.19,1.0,1.0,0.2,0.0,750.9769660593531,974.9203598982721,974.9203598982722
0.30400000000000205,-0.7824217414715073,-14.16395112110375,0.024999710540042675,-179.99988606994856,3.3549445526143335e-05,-108.51082211535551,-0.6725393869883604,-11.613027993443763,1.5316008599715922,0.0,0.0,0.0,0.0,0.0,0.0,0.0,10.19,1.0,1.0,0.2,0.0,750.9769660593531,974.9203598982721,974.9203598982722
0.30800000000000693,-0.7824217414715073,-14.16395112110375,0.024999710540042675,-179.99988606994856,3.3549445526143335e-05,-108.51082211535551,-0.6724594189181197,-11.6111715315868,1.533654203978325,0.0,0.0,0.0,0.0,0.0,0.0,0.0,10.19,1.0,1.0,0.2,0.0,750.9769660593531,974.9203598982721,974.9203598982722
0.30800000000000693,-0.7824217414715073,-14.16395112110375,0.024999710540042675,-179.99988606994856,3.3549445526143335e-05,-108.51082211535551,-0.6721825350782871,-11.604743662489652,1.5437246320263762,0.0,0.0,0.0,0.0,0.0,0.0,0.0,10.19,1.0,1.0,0.2,0.0,750.9769660593531,974.9203598982721,974.9203598982722
0.3120000000000047,-0.7824217414715073,-14.16395112110375,0.024999710540042675,-179.99988606994856,3.3549445526143335e-05,-108.51082211535551,-0.6721317914429663,-11.603565647024565,1.545730974521917,0.0,0.0,0.0,0.0,0.0,0.0,0.0,10.19,1.0,1.0,0.2,0.0,750.9769660593531,974.9203598982721,974.9203598982722
0.3120000000000047,-0.7824217414715073,-14.16395112110375,0.024999710540042675,-179.99988606994856,3.3549445526143335e-05,-108.51082211535551,-0.6719925573119844,-11.60033332126533,1.5555696263738945,0.0,0.0,0.0,0.0,0.0,0.0,0.0,10.19,1.0,1.0,0.2,0.0,750.9769660593531,974.9203598982721,974.9203598982722
0.3160000000000025,-0.7824217414715073,-14.16395112110375,0.024999710540042675,-179.99988606994856,3.3549445526143335e-05,-108.51082211535551,-0.6719408529156392,-11.59913300169574,1.5575297434732946,0.0,0.0,0.0,0.0,0.0,0.0,0.0,10.19,1.0,1.0,0.2,0.0,750.9769660593531,974.9203598982721,974.9203598982722
0.3160000000000025,-0.7824217414715073,-14.16395112110375,0.024999710540042675,-179.99988606994856,3.3549445526143335e-05,-108.51082211535551,-0.6710930954851925,-11.57945228001714,1.5671405170713548,0.0,0.0,0.0,0.0,0.0,0.0,0.0,10.19,1.0,1.0,0.2,0.0,750.9769660593531,974.9203598982721,974.9203598982722
0.3200000000000003,-0.7824217414715073,-14.16395112110375,0.024999710540042675,-179.99988606994856,3.3549445526143335e-05,-108.51082211535551,-0.6709295864481918,-11.57565641137173,1.5690551888757158,0.0,0.0,0.0,0.0,0.0,0.0,0.0,10.19,1.0,1.0,0.2,0.0,750.9769660593531,974.9203598982721,974.9203598982722
0.3200000000000003,-0.7824217414715073,-14.16395112110375,0.024999710540042675,-179.99988606994856,3.3549445526143335e-05,-108.51082211535551,-0.6702614369138091,-11.560145293977051,1.5784419966862295,0.0,0.0,0.0,0.0,0.0,0.0,0.0,10.19,1.0,1.0,0.2,0.0,750.9769660593531,974.9203598982721,974.9203598982722
0.3240000000000052,-0.7824217414715073,-14.16395112110375,0.024999710540042675,-179.99988606994856,3.3549445526143335e-05,-108.51082211535551,-0.670133448336779,-11.557174034189636,1.5803120059977087,0.0,0.0,0.0,0.0,0.0,0.0,0.0,10.19,1.0,1.0,0.2,0.0,750.9769660593531,974.9203598982721,974.9203598982722
0.3240000000000052,-0.7824217414715073,-14.16395112110375,0.024999710540042675,-179.99988606994856,3.3549445526143335e-05,-108.51082211535551,-0.6696329614885597,-11.545555212567022,1.5894787689562517,0.0,0.0,0.0,0.0,0.0,0.0,0.0,10.19,1.0,1.0,0.2,0.0,750.9769660593531,974.9203598982721,974.9203598982722
0.32800000000000296,-0.7824217414715073,-14.16395112110375,0.024999710540042675,-179.99988606994856,3.3549445526143335e-05,-108.51082211535551,-0.669538125683431,-11.543353595667103,1.5913049000811763,0.0,0.0,0.0,0.0,0.0,0.0,0.0,10.19,1.0,1.0,0.2,0.0,750.9769660593531,974.9203598982721,974.9203598982722
0.32800000000000296,-0.7824217414715073,-14.16395112110375,0.024999710540042675,-179.99988606994856,3.3549445526143335e-05,-108.51082211535551,-0.6691939926535351,-11.535364534010366,1.600255541958254,0.0,0.0,0.0,0.0,0.0,0.0,0.0,10.19,1.0,1.0,0.2,0.0,750.9769660593531,974.9203598982721,974.9203598982722
0.33200000000000074,-0.7824217414715073,-14.16395112110375,0.024999710540042675,-179.99988606994856,3.3549445526143335e-05,-108.51082211535551,-0.6691300681657851,-11.53388052454413,1.6020385795936531,0.0,0.0,0.0,0.0,0.0,0.0,0.0,10.19,1.0,1.0,0.2,0.0,750.9769660593531,974.9203598982721,974.9203598982722
0.33200000000000074,-0.7824217414715073,-14.16395112110375,0.024999710540042675,-179.99988606994856,3.3549445526143335e-05,-108.51082211535551,-0.6689315855793353,-11.529272743589726,1.6107770217583992,0.0,0.0,0.0,0.0,0.0,0.0,0.0,10.19,1.0,1.0,0.2,0.0,750.9769660593531,974.9203598982721,974.9203598982722
0.3360000000000056,-0.7824217414715073,-14.16395112110375,0.024999710540042675,-179.99988606994856,3.3549445526143335e-05,-108.51082211535551,-0.6688964510658649,-11.528457094494724,1.6125177499573717,0.0,0.0,0.0,0.0,0.0,0.0,0.0,10.19,1.0,1.0,0.2,0.0,750.9769660593531,974.9203598982721,974.9203598982722
0.3360000000000056,-0.7824217414715073,-14.16395112110375,0.024999710540042675,-179.99988606994856,3.3549445526143335e-05,-108.51082211535551,-0.6688334916139194,-11.526995488372174,1.6210479065175714,0.0,0.0,0.0,0.0,0.0,0.0,0.0,10.19,1.0,1.0,0.2,0.0,750.9769660593531,974.9203598982721,974.9203598982722
0.3400000000000034,-0.7824217414715073,-14.16395112110375,0.024999710540042675,-179.99988606994856,3.3549445526143335e-05,-108.51082211535551,-0.6688251400032098,-11.526801605405137,1.6227471077292313,0.0,0.0,0.0,0.0,0.0,0.0,0.0,10.19,1.0,1.0,0.2,0.0,750.9769660593531,974.9203598982721,974.9203598982722
0.3400000000000034,-0.7824217414715073,-14.16395112110375,0.024999710540042675,-179.99988606994856,3.3549445526143335e-05,-108.51082211535551,-0.6688881243741962,-11.528263790024187,1.631072881027081,0.0,0.0,0.0,0.0,0.0,0.0,0.0,10.19,1.0,1.0,0.2,0.0,750.9769660593531,974.9203598982721,974.9203598982722
0.3440000000000012,-0.7824217414715073,-14.16395112110375,0.024999710540042675,-179.99988606994856,3.3549445526143335e-05,-108.51082211535551,-0.6689046572961186,-11.52864760244883,1.632731335207018,0.0,0.0,0.0,0.0,0.0,0.0,0.0,10.19,1.0,1.0,0.2,0.0,750.9769660593531,974.9203598982721,974.9203598982722
0.3440000000000012,-0.7824217414715073,-14.16395112110375,0.024999710540042675,-179.99988606994856,3.3549445526143335e-05,-108.51082211535551,-0.6690845274049119,-11.532823294011443,1.6408566116510408,0.0,0.0,0.0,0.0,0.0,0.0,0.0,10.19,1.0,1.0,0.2,0.0,750.9769660593531,974.9203598982721,974.9203598982722
0.3480000000000061,-0.7824217414715073,-14.16395112110375,0.024999710540042675,-179.99988606994856,3.3549445526143335e-05,-108.51082211535551,-0.6690959826954228,-11.53308922902563,1.6424750954383622,0.0,0.0,0.0,0.0,0.0,0.0,0.0,10.19,1.0,1.0,0.2,0.0,750.9769660593531,974.9203598982721,974.9203598982722
0.3480000000000061,-0.7824217414715073,-14.16395112110375,0.024999710540042675,-179.99988606994856,3.3549445526143335e-05,-108.51082211535551,-0.6692518157437227,-11.536706899295181,1.6504037416528692,0.0,0.0,0.0,0.0,0.0,0.0,0.0,10.19,1.0,1.0,0.2,0.0,750.9769660593531,974.9203598982721,974.9203598982722
0.35200000000000387,-0.7824217414715073,-14.16395112110375,0.024999710540042675,-179.99988606994856,3.3549445526143335e-05,-108.51082211535551,-0.669286682471393,-11.537516331732428,1.6519830276101555,0.0,0.0,0.0,0.0,0.0,0.0,0.0,10.19,1.0,1.0,0.2,0.0,750.9769660593531,974.9203598982721,974.9203598982722
0.35200000000000387,-0.7824217414715073,-14.16395112110375,0.024999710540042675,-179.99988606994856,3.3549445526143335e-05,-108.51082211535551,-0.6695523776445433,-11.54368445549793,1.6597188868845556,0.0,0.0,0.0,0.0,0.0,0.0,0.0,10.19,1.0,1.0,0.2,0.0,750.9769660593531,974.9203598982721,974.9203598982722
0.35600000000000165,-0.7824217414715073,-14.16395112110375,0.024999710540042675,-179.99988606994856,3.3549445526143335e-05,-108.51082211535551,-0.6696089423078556,-11.544997606353954,1.6612597427972484,0.0,0.0,0.0,0.0,0.0,0.0,0.0,10.19,1.0,1.0,0.2,0.0,750.9769660593531,974.9203598982721,974.9203598982722
0.35600000000000165,-0.7824217414715073,-14.16395112110375,0.024999710540042675,-179.99988606994856,3.3549445526143335e-05,-108.51082211535551,-0.6699763277446705,-11.553526473540545,1.668806631818391,0.0,0.0,0.0,0.0,0.0,0.0,0.0,10.19,1.0,1.0,0.2,0.0,750.9769660593531,974.9203598982721,974.9203598982722
0.36000000000000654,-0.7824217414715073,-14.16395112110375,0.024999710540042675,-179.99988606994856,3.3549445526143335e-05,-108.51082211535551,-0.6700529711418794,-11.55530575298393,1.670309820050225,0.0,0.0,0.0,0.0,0.0,0.0,0.0,10.19,1.0,1.0,0.2,0.0,750.9769660593531,974.9203598982721,974.9203598982722
0.36000000000000654,-0.7824217414715073,-14.16395112110375,0.024999710540042675,-179.99988606994856,3.3549445526143335e-05,-108.51082211535551,-0.6705143270020575,-11.566016147199138,1.6776715259017916,0.0,0.0,0.0,0.0,0.0,0.0,0.0,10.19,1.0,1.0,0.2,0.0,750.9769660593531,974.9203598982721,974.9203598982722
0.3640000000000043,-0.7824217414715073,-14.16395112110375,0.024999710540042675,-179.99988606994856,3.3549445526143335e-05,-108.51082211535551,-0.6706095195869495,-11.568226046755122,1.6791378028031279,0.0,0.0,0.0,0.0,0.0,0.0,0.0,10.19,1.0,1.0,0.2,0.0,750.9769660593531,974.9203598982721,974.9203598982722
0.3640000000000043,-0.7824217414715073,-14.16395112110375,0.024999710540042675,-179.99988606994856,3.3549445526143335e-05,-108.51082211535551,-0.6711575557356384,-11.580948727235167,1.6863180802168893,0.0,0.0,0.0,0.0,0.0,0.0,0.0,10.19,1.0,1.0,0.2,0.0,750.9769660593531,974.9203598982721,974.9203598982722
0.3680000000000021,-0.7824217414715073,-14.16395112110375,0.024999710540042675,-179.99988606994856,3.3549445526143335e-05,-108.51082211535551,-0.6712698531893058,-11.583555716984202,1.68774819558296,0.0,0.0,0.0,0.0,0.0,0.0,0.0,10.19,1.0,1.0,0.2,0.0,750.9769660593531,974.9203598982721,974.9203598982722
0.3680000000000021,-0.7824217414715073,-14.16395112110375,0.024999710540042675,-179.99988606994856,3.3549445526143335e-05,-108.51082211535551,-0.6718976879209966,-11.59813092466838,1.6947507644274713,0.0,0.0,0.0,0.0,0.0,0.0,0.0,10.19,1.0,1.0,0.2,0.0,750.9769660593531,974.9203598982721,974.9203598982722
0.3719999999999999,-0.7824217414715073,-14.16395112110375,0.024999710540042675,-179.99988606994856,3.3549445526143335e-05,-108.51082211535551,-0.6720257269299065,-11.601103355233844,1.6961454610036266,0.0,0.0,0.0,0.0,0.0,0.0,0.0,10.19,1.0,1.0,0.2,0.0,750.9769660593531,974.9203598982721,974.9203598982722
0.3719999999999999,-0.7824217414715073,-14.16395112110375,0.024999710540042675,-179.99988606994856,3.3549445526143335e-05,-108.51082211535551,-0.6727268666848706,-11.617380341880814,1.7029740039966568,0.0,0.0,0.0,0.0,0.0,0.0,0.0,10.19,1.0,1.0,0.2,0.0,750.9769660593531,974.9203598982721,974.9203598982722
0.3760000000000048,-0.7824217414715073,-14.16395112110375,0.024999710540042675,-179.99988606994856,3.3549445526143335e-05,-108.51082211535551,-0.672869360915944,-11.620688350990312,1.7043340170279373,0.0,0.0,0.0,0.0,0.0,0.0,0.0,10.19,1.0,1.0,0.2,0.0,750.9769660593531,974.9203598982721,974.9203598982722
0.3760000000000048,-0.7824217414715073,-14.16395112110375,0.024999710540042675,-179.99988606994856,3.3549445526143335e-05,-108.51082211535551,-0.6736376809444881,-11.638524930298033,1.7109921776596229,0.0,0.0,0.0,0.0,0.0,0.0,0.0,10.19,1.0,1.0,0.2,0.0,750.9769660593531,974.9203598982721,974.9203598982722
0.38000000000000256,-0.7824217414715073,-14.16395112110375,0.024999710540042675,-179.99988606994856,3.3549445526143335e-05,-108.51082211535551,-0.6737934172083073,-11.642140353712104,1.7123182344820473,0.0,0.0,0.0,0.0,0.0,0.0,0.0,10.19,1.0,1.0,0.2,0.0,750.9769660593531,974.9203598982721,974.9203598982722
0.38000000000000256,-0.7824217414715073,-14.16395112110375,0.024999710540042675,-179.99988606994856,3.3549445526143335e-05,-108.51082211535551,-0.6746231431400949,-11.661402473448907,1.7188096151364125,0.0,0.0,0.0,0.0,0.0,0.0,0.0,10.19,1.0,1.0,0.2,0.0,750.9769660593531,974.9203598982721,974.9203598982722
0.38400000000000034,-0.7824217414715073,-14.16395112110375,0.024999710540042675,-179.99988606994856,3.3549445526143335e-05,-108.51082211535551,-0.674790977733756,-11.665298760060214,1.7201024348075695,0.0,0.0,0.0,0.0,0.0,0.0,0.0,10.19,1.0,1.0,0.2,0.0,750.9769660593531,974.9203598982721,974.9203598982722
