Time_s,X,Y,Z,Roll_deg,Pitch_deg,Yaw_deg,Ref_X,Ref_Y,Ref_Z,Ref_Yaw,vx,vy,vz,p,q,r,T_pert,tau_x,tau_y,tau_z,RPM_0,RPM_1,RPM_2,RPM_3
0.0,1.7767779524228324,8.233533743432606,0.024999983263228148,179.99999548734266,4.512657169694575e-06,155.2808616399356,1.7767779524228324,8.233533743432606,0.0018,0.0,0.0,0.0,0.0,0.0,0.0,0.0,-0.7399509029505821,-1.0,-3.211879179665865e-07,-0.2,896.1880735593286,677.1275833550791,0.0,268.32528682146915
0.003999999999997783,1.7767779524228324,8.233533743432606,0.024999983263228148,179.99999548734266,4.512657169694575e-06,155.2808616399356,1.7767779524228324,8.233533743432606,0.0022276151999997256,0.0,0.0,0.0,0.0,0.0,0.0,0.0,0.1278083546314548,-1.0,-3.243383469915807e-07,-0.2,910.2364287085917,695.6141574268604,0.0,312.0508795376408
0.003999999999997783,1.7767779524228324,8.233533743432606,0.024999983263228148,179.99999548734266,4.512657169694575e-06,155.2808616399356,1.775178852265652,8.220723563063517,0.0060354017863195495,0.0,0.0,0.0,0.0,0.0,0.0,0.0,-0.6054201456636749,-1.0,-0.01549251154995313,-0.2,899.8650262062705,678.0607380766651,0.0,270.671498182956
0.007999999999995566,1.7767779524228324,8.233533743432606,0.024999983263228148,179.99999548734266,4.512657169694575e-06,155.2808616399356,1.774862927642199,8.21819273258908,0.006859603141311548,0.0,0.0,0.0,0.0,0.0,0.0,0.0,1.0672341555954628,1.0,-1.0,-0.2,826.8481478147165,826.8481478147165,545.1371891112929,0.0
0.007999999999995566,1.7767779524228324,8.233533743432606,0.024999983263228148,179.99999548734266,4.512657169694575e-06,155.2808616399356,1.7733798054342715,8.206311636268977,0.012527175866948907,0.0,0.0,0.0,0.0,0.0,0.0,0.0,-0.398820379930572,-1.0,-0.03419279996989813,-0.2,904.9980861750289,680.1365734070386,0.0,275.83048035596426
0.012000000000000455,1.7767779524228324,8.233533743432606,0.024999983263228148,179.99999548734266,4.512657169694575e-06,155.2808616399356,1.7730228988129888,8.203452504417214,0.013718637259205165,0.0,0.0,0.0,0.0,0.0,0.0,0.0,2.0192201538720815,1.0,-1.0,-0.2,843.5154599917488,843.5154599917489,570.1008916434229,0.0
0.012000000000000455,1.7767779524228324,8.233533743432606,0.024999983263228148,179.99999548734266,4.512657169694575e-06,155.2808616399356,1.7697497170840308,8.177231477459973,0.02110615902926945,0.0,0.0,0.0,0.0,0.0,0.0,0.0,-0.12549293918207036,-1.0,-0.07207110197469092,-0.2,912.9853749446986,681.2134141145569,0.0,278.4751532491633
0.015999999999998238,1.7767779524228324,8.233533743432606,0.024999983263228148,179.99999548734266,4.512657169694575e-06,155.2808616399356,1.7691031893908613,8.172052229414799,0.02263717350930822,0.0,0.0,0.0,0.0,0.0,0.0,0.0,2.981710467886209,1.0,-1.0,-0.2,860.0383698998844,860.0383698998844,594.2749305730342,0.0
0.015999999999998238,1.7767779524228324,8.233533743432606,0.024999983263228148,179.99999548734266,4.512657169694575e-06,155.2808616399356,1.7660714165196916,8.147765096965088,0.031612568109336055,0.0,0.0,0.0,0.0,0.0,0.0,0.0,0.2095159612835709,-1.0,-0.11333220439093754,-0.2,922.1983777240746,683.1826846482172,0.0,283.25832028499997
0.01999999999999602,1.7767779524228324,8.233533743432606,0.024999983263228148,179.99999548734266,4.512657169694575e-06,155.2808616399356,1.7654087596293542,8.142456640049538,0.03345696802984857,0.0,0.0,0.0,0.0,0.0,0.0,0.0,3.9527822821852916,1.0,-1.0,-0.2,876.3929637419133,876.3929637419133,617.7065017497134,0.0
0.01999999999999602,1.7767779524228324,8.233533743432606,0.024999983263228148,179.99999548734266,4.512657169694575e-06,155.2808616399356,1.7607054043611,8.104778681570393,0.04389553638503533,0.0,0.0,0.0,0.0,0.0,0.0,0.0,0.6014406626131675,-1.0,-0.1739392235330184,-0.2,933.9998279600183,683.9269918535091,0.0,285.0488126502618
0.02400000000000091,1.7767779524228324,8.233533743432606,0.024999983263228148,179.99999548734266,4.512657169694575e-06,155.2808616399356,1.7597126359655346,8.096825744942366,0.04602861725271303,0.0,0.0,0.0,0.0,0.0,0.0,0.0,4.93063882947214,1.0,-1.0,-0.2,892.5590585790773,892.5590585790774,640.4360767938538,0.0
0.02400000000000091,1.7767779524228324,8.233533743432606,0.024999983263228148,179.99999548734266,4.512657169694575e-06,155.2808616399356,1.7534628831340144,8.046759799620242,0.057812671575258545,0.0,0.0,0.0,0.0,0.0,0.0,0.0,1.045782178711594,-1.0,-0.25711754747907406,-0.2,948.5167541401685,682.9472719382663,0.0,282.69006288770464
0.027999999999998693,1.7767779524228324,8.233533743432606,0.024999983263228148,179.99999548734266,4.512657169694575e-06,155.2808616399356,1.752228771317001,8.036873492686572,0.06021111945321548,0.0,0.0,0.0,0.0,0.0,0.0,0.0,5.913602711157761,1.0,-1.0,-0.2,908.5197198059363,908.5197198059363,662.4988880623055,0.0
0.027999999999998693,1.7767779524228324,8.233533743432606,0.024999983263228148,179.99999548734266,4.512657169694575e-06,155.2808616399356,1.7464505400400305,7.9905848443239735,0.07322963447211142,0.0,0.0,0.0,0.0,0.0,0.0,0.0,1.538294960040487,-1.0,-0.3440075547216519,-0.2,963.8779775803829,682.5298196970662,0.0,281.68004931702876
0.031999999999996476,1.7767779524228324,8.233533743432606,0.024999983263228148,179.99999548734266,4.512657169694575e-06,155.2808616399356,1.7452458893202605,7.980934546353134,0.07587145677300278,0.0,0.0,0.0,0.0,0.0,0.0,0.0,6.900109540876434,0.8650379401221784,-1.0,-0.2,936.7579830673619,911.5923894598515,666.7063670977318,0.0
0.031999999999996476,1.7767779524228324,8.233533743432606,0.024999983263228148,179.99999548734266,4.512657169694575e-06,155.2808616399356,1.7380133096369494,7.9229953047984445,0.09001973727610332,0.0,0.0,0.0,0.0,0.0,0.0,0.0,2.0749742757335445,-1.0,-0.45055958095721405,-0.2,981.3854396720747,680.5735065723783,0.0,276.90610909793446
0.036000000000001364,1.7767779524228324,8.233533743432606,0.024999983263228148,179.99999548734266,4.512657169694575e-06,155.2808616399356,1.7365215834123784,7.91104528283625,0.0928841967929776,0.0,0.0,0.0,0.0,0.0,0.0,0.0,7.888701896093493,-1.0,-1.0,-0.2,1100.0,733.8378050635811,389.89052251634496,389.8905225163451
0.036000000000001364,1.7767779524228324,8.233533743432606,0.024999983263228148,179.99999548734266,4.512657169694575e-06,155.2808616399356,1.7279476007318317,7.842360238859452,0.10806356074515655,0.0,0.0,0.0,0.0,0.0,0.0,0.0,2.6520441861414215,-1.0,-0.5799867390868223,-0.2,1001.1479336992637,676.5743698543415,0.0,266.9261571134111
0.03999999999999915,1.7767779524228324,8.233533743432606,0.024999983263228148,179.99999548734266,4.512657169694575e-06,155.2808616399356,1.7262551396468175,7.82880215641581,0.11113111277391857,0.0,0.0,0.0,0.0,0.0,0.0,0.0,8.878023563606522,-1.0,-1.0,-0.2,1100.0,753.2929466120013,425.3786064471573,425.3786064471573
0.03999999999999915,1.7767779524228324,8.233533743432606,0.024999983263228148,179.99999548734266,4.512657169694575e-06,155.2808616399356,1.7183460430787447,7.765443427358966,0.12724858930761151,0.0,0.0,0.0,0.0,0.0,0.0,0.0,3.2659460791524917,-1.0,-0.7134176175880673,-0.2,1021.3932005064788,672.8392467715233,0.0,257.31177082210013
0.04399999999999693,1.7767779524228324,8.233533743432606,0.024999983263228148,179.99999548734266,4.512657169694575e-06,155.2808616399356,1.7167213451393437,7.752428186533956,0.13050082172145236,0.0,0.0,0.0,0.0,0.0,0.0,0.0,9.866814065377856,-1.0,-1.0,-0.2,1100.0,772.2480617964267,458.1089001055008,458.1089001055009
0.04399999999999693,1.7767779524228324,8.233533743432606,0.024999983263228148,179.99999548734266,4.512657169694575e-06,155.2808616399356,1.7075402156135289,7.678879369288496,0.14746886332696343,0.0,0.0,0.0,0.0,0.0,0.0,0.0,3.913327744813319,-1.0,-0.8667912278489651,-0.2,1043.3631684909485,667.2442478436479,113.14159300283394,242.30472898391727
0.04800000000000182,1.7767779524228324,8.233533743432606,0.024999983263228148,179.99999548734266,4.512657169694575e-06,155.2808616399356,1.7056645529714634,7.66385368334348,0.15088843946913685,0.0,0.0,0.0,0.0,0.0,0.0,0.0,10.19,-1.0,-1.0,-0.2,1100.0,778.3434459107903,468.31102399988123,468.3110239998813
0.04800000000000182,1.7767779524228324,8.233533743432606,0.024999983263228148,179.99999548734266,4.512657169694575e-06,155.2808616399356,1.6953138404560923,7.580935491086982,0.1686246477418101,0.0,0.0,0.0,0.0,0.0,0.0,0.0,4.590529410068419,-1.0,-1.0,-0.2,1063.6571297301675,664.8790212678031,235.71340294850822,235.71340294850808
0.0519999999999996,1.7767779524228324,8.233533743432606,0.024999983263228148,179.99999548734266,4.512657169694575e-06,155.2808616399356,1.6932714723710869,7.564574349834191,0.17219525200916963,0.0,0.0,0.0,0.0,0.0,0.0,0.0,10.19,-1.0,-1.0,-0.2,1100.0,778.3434459107903,468.31102399988123,468.3110239998813
0.0519999999999996,1.7767779524228324,8.233533743432606,0.024999983263228148,179.99999548734266,4.512657169694575e-06,155.2808616399356,1.6837474982036027,7.488279049400271,0.1906221163389605,0.0,0.0,0.0,0.0,0.0,0.0,0.0,5.294999252218477,-1.0,-1.0,-0.2,1073.2979291106733,680.1956100486632,275.97601949627324,275.97601949627295
0.055999999999997385,1.7767779524228324,8.233533743432606,0.024999983263228148,179.99999548734266,4.512657169694575e-06,155.2808616399356,1.6818049459981737,7.472717519988759,0.1943284023343369,0.0,0.0,0.0,0.0,0.0,0.0,0.0,10.19,-1.0,-1.0,-0.2,1100.0,778.3434459107903,468.31102399988123,468.3110239998813
0.055999999999997385,1.7767779524228324,8.233533743432606,0.024999983263228148,179.99999548734266,4.512657169694575e-06,155.2808616399356,1.6711613261812535,7.3874528859866215,0.2133730509505148,0.0,0.0,0.0,0.0,0.0,0.0,0.0,6.02394043425378,-1.0,-1.0,-0.2,1083.1832969317777,695.6893545600719,312.2184707152085,312.2184707152085
0.060000000000002274,1.7767779524228324,8.233533743432606,0.024999983263228148,179.99999548734266,4.512657169694575e-06,155.2808616399356,1.6689979850976848,7.370122646003882,0.21720059208724202,0.0,0.0,0.0,0.0,0.0,0.0,0.0,10.19,-1.0,-1.0,-0.2,1100.0,778.3434459107903,468.31102399988123,468.3110239998813
0.060000000000002274,1.7767779524228324,8.233533743432606,0.024999983263228148,179.99999548734266,4.512657169694575e-06,155.2808616399356,1.6573281838183367,7.276637407703702,0.2367945548969595,0.0,0.0,0.0,0.0,0.0,0.0,0.0,6.774724080791657,-1.0,-1.0,-0.2,1093.271439081954,711.2946385349325,345.59623582451593,345.5962358245159
0.06400000000000006,1.7767779524228324,8.233533743432606,0.024999983263228148,179.99999548734266,4.512657169694575e-06,155.2808616399356,1.6550265312772086,7.258199172883683,0.24072979734418118,0.0,0.0,0.0,0.0,0.0,0.0,0.0,10.19,-1.0,-1.0,-0.2,1100.0,778.3434459107903,468.31102399988123,468.3110239998813
0.06400000000000006,1.7767779524228324,8.233533743432606,0.024999983263228148,179.99999548734266,4.512657169694575e-06,155.2808616399356,1.6443183406129314,7.172417270343039,0.26080878002852365,0.0,0.0,0.0,0.0,0.0,0.0,0.0,7.544880678638106,-1.0,-1.0,-0.2,1100.0,726.9546080931789,376.7753941480805,376.77539414808047
0.06799999999999784,1.7767779524228324,8.233533743432606,0.024999983263228148,179.99999548734266,4.512657169694575e-06,155.2808616399356,1.6421432066774093,7.154992559379285,0.26483899789086646,0.0,0.0,0.0,0.0,0.0,0.0,0.0,10.19,-1.0,-1.0,-0.2,1100.0,778.3434459107903,468.31102399988123,468.3110239998813
0.06799999999999784,1.7767779524228324,8.233533743432606,0.024999983263228148,179.99999548734266,4.512657169694575e-06,155.2808616399356,1.6304421482944405,7.061256924546155,0.28534266674578634,0.0,0.0,0.0,0.0,0.0,0.0,0.0,8.332091885856457,-1.0,-1.0,-0.2,1100.0,742.6201567895889,406.1790155556139,406.179015555614
0.07199999999999562,1.7767779524228324,8.233533743432606,0.024999983263228148,179.99999548734266,4.512657169694575e-06,155.2808616399356,1.6280713232406285,7.042264557853856,0.2894559193755134,0.0,0.0,0.0,0.0,0.0,0.0,0.0,10.19,-1.0,-1.0,-0.2,1100.0,778.3434459107903,468.31102399988123,468.3110239998813
0.07199999999999562,1.7767779524228324,8.233533743432606,0.024999983263228148,179.99999548734266,4.512657169694575e-06,155.2808616399356,1.6154631812967897,6.9412623962979305,0.3103276964078032,0.0,0.0,0.0,0.0,0.0,0.0,0.0,9.134182730729643,-1.0,-1.0,-0.2,1100.0,758.2489971686847,434.0947328807965,434.09473288079664
0.07600000000000051,1.7767779524228324,8.233533743432606,0.024999983263228148,179.99999548734266,4.512657169694575e-06,155.2808616399356,1.6129136557741572,6.920838483728188,0.3145127877523181,0.0,0.0,0.0,0.0,0.0,0.0,0.0,10.19,-1.0,-1.0,-0.2,1100.0,778.3434459107903,468.31102399988123,468.3110239998813
0.07600000000000051,1.7767779524228324,8.233533743432606,0.024999983263228148,179.99999548734266,4.512657169694575e-06,155.2808616399356,1.599479263527603,6.813217340015159,0.33569965556253706,0.0,0.0,0.0,0.0,0.0,0.0,0.0,9.949114182836633,-1.0,-1.0,-0.2,1100.0,773.8048234943717,460.72833673509786,460.7283367350979
0.0799999999999983,1.7767779524228324,8.233533743432606,0.024999983263228148,179.99999548734266,4.512657169694575e-06,155.2808616399356,1.5968310103724854,6.792002533407999,0.3399460954542337,0.0,0.0,0.0,0.0,0.0,0.0,0.0,10.19,-1.0,-1.0,-0.2,1100.0,778.3434459107903,468.31102399988123,468.3110239998813
0.0799999999999983,1.7767779524228324,8.233533743432606,0.024999983263228148,179.99999548734266,4.512657169694575e-06,155.2808616399356,1.5845461727912717,6.693590320443314,0.36139841145931023,0.0,0.0,0.0,0.0,0.0,0.0,0.0,10.19,-1.0,-1.0,-0.2,1100.0,778.3434459107903,468.31102399988123,468.3110239998813
0.08399999999999608,1.7767779524228324,8.233533743432606,0.024999983263228148,179.99999548734266,4.512657169694575e-06,155.2808616399356,1.5820616452230047,6.673687097909967,0.36569637875909844,0.0,0.0,0.0,0.0,0.0,0.0,0.0,10.19,-1.0,-1.0,-0.2,1100.0,778.3434459107903,468.31102399988123,468.3110239998813
0.08399999999999608,1.7767779524228324,8.233533743432606,0.024999983263228148,179.99999548734266,4.512657169694575e-06,155.2808616399356,1.5689605101714432,6.568735633615068,0.387367698327231,0.0,0.0,0.0,0.0,0.0,0.0,0.0,10.19,-1.0,-1.0,-0.2,1100.0,778.3434459107903,468.31102399988123,468.3110239998813
0.08800000000000097,1.7767779524228324,8.233533743432606,0.024999983263228148,179.99999548734266,4.512657169694575e-06,155.2808616399356,1.5663152433068852,6.547544749787559,0.3917080058367595,0.0,0.0,0.0,0.0,0.0,0.0,0.0,10.19,-1.0,-1.0,-0.2,1100.0,778.3434459107903,468.31102399988123,468.3110239998813
0.08800000000000097,1.7767779524228324,8.233533743432606,0.024999983263228148,179.99999548734266,4.512657169694575e-06,155.2808616399356,1.5524728053245016,6.436654805523583,0.4135549139262656,0.0,0.0,0.0,0.0,0.0,0.0,0.0,10.19,-1.0,-1.0,-0.2,1100.0,778.3434459107903,468.31102399988123,468.3110239998813
0.09199999999999875,1.7767779524228324,8.233533743432606,0.024999983263228148,179.99999548734266,4.512657169694575e-06,155.2808616399356,1.5497456145644797,6.414807640178798,0.4179289749878482,0.0,0.0,0.0,0.0,0.0,0.0,0.0,10.19,-1.0,-1.0,-0.2,1100.0,778.3434459107903,468.31102399988123,468.3110239998813
0.09199999999999875,1.7767779524228324,8.233533743432606,0.024999983263228148,179.99999548734266,4.512657169694575e-06,155.2808616399356,1.5371321470964419,6.313762816551179,0.43991092589980885,0.0,0.0,0.0,0.0,0.0,0.0,0.0,10.19,-1.0,-1.0,-0.2,1100.0,778.3434459107903,468.31102399988123,468.3110239998813
0.09599999999999653,1.7767779524228324,8.233533743432606,0.024999983263228148,179.99999548734266,4.512657169694575e-06,155.2808616399356,1.5345843891674635,6.293353063940978,0.4443107226066774,0.0,0.0,0.0,0.0,0.0,0.0,0.0,10.19,-1.0,-1.0,-0.2,1100.0,778.3434459107903,468.31102399988123,468.3110239998813
0.09599999999999653,1.7767779524228324,8.233533743432606,0.024999983263228148,179.99999548734266,4.512657169694575e-06,155.2808616399356,1.521228800951008,6.186363208915429,0.46638988747862525,0.0,0.0,0.0,0.0,0.0,0.0,0.0,10.19,-1.0,-1.0,-0.2,1100.0,778.3434459107903,468.31102399988123,468.3110239998813
0.10000000000000142,1.7767779524228324,8.233533743432606,0.024999983263228148,179.99999548734266,4.512657169694575e-06,155.2808616399356,1.5185349724825987,6.164783304486833,0.4708079404213783,0.0,0.0,0.0,0.0,0.0,0.0,0.0,10.19,-1.0,-1.0,-0.2,1100.0,778.3434459107903,468.31102399988123,468.3110239998813
0.10000000000000142,1.7767779524228324,8.233533743432606,0.024999983263228148,179.99999548734266,4.512657169694575e-06,155.2808616399356,1.5045072972058569,6.052409448698517,0.4929490621059131,0.0,0.0,0.0,0.0,0.0,0.0,0.0,10.19,-1.0,-1.0,-0.2,1100.0,778.3434459107903,468.31102399988123,468.3110239998813
0.1039999999999992,1.7767779524228324,8.233533743432606,0.024999983263228148,179.99999548734266,4.512657169694575e-06,155.2808616399356,1.5016812663084749,6.029770488054606,0.4973784015845389,0.0,0.0,0.0,0.0,0.0,0.0,0.0,10.19,-1.0,-1.0,-0.2,1100.0,778.3434459107903,468.31102399988123,468.3110239998813
0.1039999999999992,1.7767779524228324,8.233533743432606,0.024999983263228148,179.99999548734266,4.512657169694575e-06,155.2808616399356,1.4870474079510942,5.912540579588913,0.5195486565726656,0.0,0.0,0.0,0.0,0.0,0.0,0.0,10.19,-1.0,-1.0,-0.2,1100.0,778.3434459107903,468.31102399988123,468.3110239998813
0.10799999999999699,1.7767779524228324,8.233533743432606,0.024999983263228148,179.99999548734266,4.512657169694575e-06,155.2808616399356,1.4841661878392785,5.889459505430003,0.5239827952066803,0.0,0.0,0.0,0.0,0.0,0.0,0.0,10.19,-1.0,-1.0,-0.2,1100.0,778.3434459107903,468.31102399988123,468.3110239998813
0.10799999999999699,1.7767779524228324,8.233533743432606,0.024999983263228148,179.99999548734266,4.512657169694575e-06,155.2808616399356,1.4708878039018616,5.783088123697269,0.5461516622708753,0.0,0.0,0.0,0.0,0.0,0.0,0.0,10.19,-1.0,-1.0,-0.2,1100.0,778.3434459107903,468.31102399988123,468.3110239998813
0.11200000000000188,1.7767779524228324,8.233533743432606,0.024999983263228148,179.99999548734266,4.512657169694575e-06,155.2808616399356,1.4682750072811717,5.762157354709165,0.5505845689429238,0.0,0.0,0.0,0.0,0.0,0.0,0.0,10.19,-1.0,-1.0,-0.2,1100.0,778.3434459107903,468.31102399988123,468.3110239998813
0.11200000000000188,1.7767779524228324,8.233533743432606,0.024999983263228148,179.99999548734266,4.512657169694575e-06,155.2808616399356,1.4562725158145715,5.6660069792150525,0.5727237041894782,0.0,0.0,0.0,0.0,0.0,0.0,0.0,10.19,-1.0,-1.0,-0.2,1100.0,778.3434459107903,468.31102399988123,468.3110239998813
0.11599999999999966,1.7767779524228324,8.233533743432606,0.024999983263228148,179.99999548734266,4.512657169694575e-06,155.2808616399356,1.4538483976902032,5.646587688766175,0.577149779260844,0.0,0.0,0.0,0.0,0.0,0.0,0.0,10.19,-1.0,-1.0,-0.2,1100.0,778.3434459107903,468.31102399988123,468.3110239998813
0.11599999999999966,1.7767779524228324,8.233533743432606,0.024999983263228148,179.99999548734266,4.512657169694575e-06,155.2808616399356,1.4411465789477453,5.54483509473651,0.5992328972949402,0.0,0.0,0.0,0.0,0.0,0.0,0.0,10.19,-1.0,-1.0,-0.2,1100.0,778.3434459107903,468.31102399988123,468.3110239998813
0.11999999999999744,1.7767779524228324,8.233533743432606,0.024999983263228148,179.99999548734266,4.512657169694575e-06,155.2808616399356,1.438584818287395,5.524313168092849,0.6036469490341726,0.0,0.0,0.0,0.0,0.0,0.0,0.0,10.19,-1.0,-1.0,-0.2,1100.0,778.3434459107903,468.31102399988123,468.3110239998813
0.11999999999999744,1.7767779524228324,8.233533743432606,0.024999983263228148,179.99999548734266,4.512657169694575e-06,155.2808616399356,1.425249816847283,5.417488231016306,0.6256497099544455,0.0,0.0,0.0,0.0,0.0,0.0,0.0,10.19,-1.0,-1.0,-0.2,1100.0,778.3434459107903,468.31102399988123,468.3110239998813
0.12400000000000233,1.7767779524228324,8.233533743432606,0.024999983263228148,179.99999548734266,4.512657169694575e-06,155.2808616399356,1.422563511569307,5.395968593873638,0.6300469321227384,0.0,0.0,0.0,0.0,0.0,0.0,0.0,10.19,-1.0,-1.0,-0.2,1100.0,778.3434459107903,468.31102399988123,468.3110239998813
0.12400000000000233,1.7767779524228324,8.233533743432606,0.024999983263228148,179.99999548734266,4.512657169694575e-06,155.2808616399356,1.408657569602423,5.284569927568736,0.6519468340747795,0.0,0.0,0.0,0.0,0.0,0.0,0.0,10.19,-1.0,-1.0,-0.2,1100.0,778.3434459107903,468.31102399988123,468.3110239998813
0.1280000000000001,1.7767779524228324,8.233533743432606,0.024999983263228148,179.99999548734266,4.512657169694575e-06,155.2808616399356,1.4059230078035498,5.262663713804271,0.6563227846144737,0.0,0.0,0.0,0.0,0.0,0.0,0.0,10.19,-1.0,-1.0,-0.2,1100.0,778.3434459107903,468.31102399988123,468.3110239998813
0.1280000000000001,1.7767779524228324,8.233533743432606,0.024999983263228148,179.99999548734266,4.512657169694575e-06,155.2808616399356,1.393404336798996,5.162378292137891,0.6780990616448948,0.0,0.0,0.0,0.0,0.0,0.0,0.0,10.19,-1.0,-1.0,-0.2,1100.0,778.3434459107903,468.31102399988123,468.3110239998813
0.1319999999999979,1.7767779524228324,8.233533743432606,0.024999983263228148,179.99999548734266,4.512657169694575e-06,155.2808616399356,1.3908804848523726,5.142160047198109,0.6824496424198844,0.0,0.0,0.0,0.0,0.0,0.0,0.0,10.19,-1.0,-1.0,-0.2,1100.0,778.3434459107903,468.31102399988123,468.3110239998813
0.1319999999999979,1.7767779524228324,8.233533743432606,0.024999983263228148,179.99999548734266,4.512657169694575e-06,155.2808616399356,1.3777665882668697,5.0371063519386015,0.7040831673841688,0.0,0.0,0.0,0.0,0.0,0.0,0.0,10.19,-1.0,-1.0,-0.2,1100.0,778.3434459107903,468.31102399988123,468.3110239998813
0.13599999999999568,1.7767779524228324,8.233533743432606,0.024999983263228148,179.99999548734266,4.512657169694575e-06,155.2808616399356,1.3751256827043983,5.015950405926665,0.7084046049230831,0.0,0.0,0.0,0.0,0.0,0.0,0.0,10.19,-1.0,-1.0,-0.2,1100.0,778.3434459107903,468.31102399988123,468.3110239998813
0.13599999999999568,1.7767779524228324,8.233533743432606,0.024999983263228148,179.99999548734266,4.512657169694575e-06,155.2808616399356,1.3614758134463414,4.906603104305173,0.7298777972115612,0.0,0.0,0.0,0.0,0.0,0.0,0.0,10.19,-1.0,-1.0,-0.2,1100.0,778.3434459107903,468.31102399988123,468.3110239998813
0.14000000000000057,1.7767779524228324,8.233533743432606,0.024999983263228148,179.99999548734266,4.512657169694575e-06,155.2808616399356,1.358729586151662,4.8846034397929845,0.7341666244070701,0.0,0.0,0.0,0.0,0.0,0.0,0.0,10.19,-1.0,-1.0,-0.2,1100.0,778.3434459107903,468.31102399988123,468.3110239998813
0.14000000000000057,1.7767779524228324,8.233533743432606,0.024999983263228148,179.99999548734266,4.512657169694575e-06,155.2808616399356,1.3445994612391476,4.77140887349001,0.7554633622639709,0.0,0.0,0.0,0.0,0.0,0.0,0.0,10.19,-1.0,-1.0,-0.2,1100.0,778.3434459107903,468.31102399988123,468.3110239998813
0.14399999999999835,1.7767779524228324,8.233533743432606,0.024999983263228148,179.99999548734266,4.512657169694575e-06,155.2808616399356,1.3417589429758319,4.74865385646911,0.7597164009834506,0.0,0.0,0.0,0.0,0.0,0.0,0.0,10.19,-1.0,-1.0,-0.2,1100.0,778.3434459107903,468.31102399988123,468.3110239998813
0.14399999999999835,1.7767779524228324,8.233533743432606,0.024999983263228148,179.99999548734266,4.512657169694575e-06,155.2808616399356,1.3272009240895617,4.632031487999995,0.7808219382041314,0.0,0.0,0.0,0.0,0.0,0.0,0.0,10.19,-1.0,-1.0,-0.2,1100.0,778.3434459107903,468.31102399988123,468.3110239998813
0.14799999999999613,1.7767779524228324,8.233533743432606,0.024999983263228148,179.99999548734266,4.512657169694575e-06,155.2808616399356,1.3243404443306563,4.609116562071706,0.7850362827691602,0.0,0.0,0.0,0.0,0.0,0.0,0.0,10.19,-1.0,-1.0,-0.2,1100.0,778.3434459107903,468.31102399988123,468.3110239998813
0.14799999999999613,1.7767779524228324,8.233533743432606,0.024999983263228148,179.99999548734266,4.512657169694575e-06,155.2808616399356,1.3113033832210763,4.504678385671912,0.8059371695703144,0.0,0.0,0.0,0.0,0.0,0.0,0.0,10.19,-1.0,-1.0,-0.2,1100.0,778.3434459107903,468.31102399988123,468.3110239998813
0.15200000000000102,1.7767779524228324,8.233533743432606,0.024999983263228148,179.99999548734266,4.512657169694575e-06,155.2808616399356,1.3086800530240241,4.483663233593403,0.810110171064123,0.0,0.0,0.0,0.0,0.0,0.0,0.0,10.19,-1.0,-1.0,-0.2,1100.0,778.3434459107903,468.31102399988123,468.3110239998813
0.15200000000000102,1.7767779524228324,8.233533743432606,0.024999983263228148,179.99999548734266,4.512657169694575e-06,155.2808616399356,1.2951725890501722,4.375456721914296,0.8307941789310419,0.0,0.0,0.0,0.0,0.0,0.0,0.0,10.19,-1.0,-1.0,-0.2,1100.0,778.3434459107903,468.31102399988123,468.3110239998813
0.1559999999999988,1.7767779524228324,8.233533743432606,0.024999983263228148,179.99999548734266,4.512657169694575e-06,155.2808616399356,1.2924568879557348,4.353701598764528,0.8349234302951013,0.0,0.0,0.0,0.0,0.0,0.0,0.0,10.19,-1.0,-1.0,-0.2,1100.0,778.3434459107903,468.31102399988123,468.3110239998813
0.1559999999999988,1.7767779524228324,8.233533743432606,0.024999983263228148,179.99999548734266,4.512657169694575e-06,155.2808616399356,1.2785298816127117,4.242134188521672,0.8553794806189255,0.0,0.0,0.0,0.0,0.0,0.0,0.0,10.19,-1.0,-1.0,-0.2,1100.0,778.3434459107903,468.31102399988123,468.3110239998813
0.1599999999999966,1.7767779524228324,8.233533743432606,0.024999983263228148,179.99999548734266,4.512657169694575e-06,155.2808616399356,1.2757318780835938,4.21971975142691,0.8594628025016087,0.0,0.0,0.0,0.0,0.0,0.0,0.0,10.19,-1.0,-1.0,-0.2,1100.0,778.3434459107903,468.31102399988123,468.3110239998813
0.1599999999999966,1.7767779524228324,8.233533743432606,0.024999983263228148,179.99999548734266,4.512657169694575e-06,155.2808616399356,1.2614331028064574,4.105174149305182,0.8796808988279786,0.0,0.0,0.0,0.0,0.0,0.0,0.0,10.19,-1.0,-1.0,-0.2,1100.0,778.3434459107903,468.31102399988123,468.3110239998813
0.16400000000000148,1.7767779524228324,8.233533743432606,0.024999983263228148,179.99999548734266,4.512657169694575e-06,155.2808616399356,1.258626217226278,4.082688559271291,0.8837163261497164,0.0,0.0,0.0,0.0,0.0,0.0,0.0,10.19,-1.0,-1.0,-0.2,1100.0,778.3434459107903,468.31102399988123,468.3110239998813
0.16400000000000148,1.7767779524228324,8.233533743432606,0.024999983263228148,179.99999548734266,4.512657169694575e-06,155.2808616399356,1.245900191561128,3.9807420467778747,0.9036874898683261,0.0,0.0,0.0,0.0,0.0,0.0,0.0,10.19,-1.0,-1.0,-0.2,1100.0,778.3434459107903,468.31102399988123,468.3110239998813
0.16799999999999926,1.7767779524228324,8.233533743432606,0.024999983263228148,179.99999548734266,4.512657169694575e-06,155.2808616399356,1.2434046404890868,3.960750516410266,0.9076732590694859,0.0,0.0,0.0,0.0,0.0,0.0,0.0,10.19,-1.0,-1.0,-0.2,1100.0,778.3434459107903,468.31102399988123,468.3110239998813
0.16799999999999926,1.7767779524228324,8.233533743432606,0.024999983263228148,179.99999548734266,4.512657169694575e-06,155.2808616399356,1.2305564862740463,3.8578256482176845,0.9273894683817849,0.0,0.0,0.0,0.0,0.0,0.0,0.0,10.19,-1.0,-1.0,-0.2,1100.0,778.3434459107903,468.31102399988123,468.3110239998813
0.17199999999999704,1.7767779524228324,8.233533743432606,0.024999983263228148,179.99999548734266,4.512657169694575e-06,155.2808616399356,1.22797339096765,3.837132812539506,0.9313240053210313,0.0,0.0,0.0,0.0,0.0,0.0,0.0,10.19,-1.0,-1.0,-0.2,1100.0,778.3434459107903,468.31102399988123,468.3110239998813
0.17199999999999704,1.7767779524228324,8.233533743432606,0.024999983263228148,179.99999548734266,4.512657169694575e-06,155.2808616399356,1.2147276669757092,3.7310230653207275,0.9507781373307106,0.0,0.0,0.0,0.0,0.0,0.0,0.0,10.19,-1.0,-1.0,-0.2,1100.0,778.3434459107903,468.31102399988123,468.3110239998813
0.17600000000000193,1.7767779524228324,8.233533743432606,0.024999983263228148,179.99999548734266,4.512657169694575e-06,155.2808616399356,1.2120665817188874,3.7097054624399193,0.954660045802884,0.0,0.0,0.0,0.0,0.0,0.0,0.0,10.19,-1.0,-1.0,-0.2,1100.0,778.3434459107903,468.31102399988123,468.3110239998813
0.17600000000000193,1.7767779524228324,8.233533743432606,0.024999983263228148,179.99999548734266,4.512657169694575e-06,155.2808616399356,1.1984686210882927,3.600773993984047,0.9738458215808543,0.0,0.0,0.0,0.0,0.0,0.0,0.0,10.19,-1.0,-1.0,-0.2,1100.0,778.3434459107903,468.31102399988123,468.3110239998813
0.17999999999999972,1.7767779524228324,8.233533743432606,0.024999983263228148,179.99999548734266,4.512657169694575e-06,155.2808616399356,1.1958024832036167,3.579415915168158,0.9776738724250023,0.0,0.0,0.0,0.0,0.0,0.0,0.0,10.19,-1.0,-1.0,-0.2,1100.0,778.3434459107903,468.31102399988123,468.3110239998813
0.17999999999999972,1.7767779524228324,8.233533743432606,0.024999983263228148,179.99999548734266,4.512657169694575e-06,155.2808616399356,1.1837945130679297,3.483221650778864,0.9965858049073248,0.0,0.0,0.0,0.0,0.0,0.0,0.0,10.19,-1.0,-1.0,-0.2,1100.0,778.3434459107903,468.31102399988123,468.3110239998813
0.1839999999999975,1.7767779524228324,8.233533743432606,0.024999983263228148,179.99999548734266,4.512657169694575e-06,155.2808616399356,1.181443085572936,3.4643846753708853,1.000358925676853,0.0,0.0,0.0,0.0,0.0,0.0,0.0,10.19,-1.0,-1.0,-0.2,1100.0,778.3434459107903,468.31102399988123,468.3110239998813
0.1839999999999975,1.7767779524228324,8.233533743432606,0.024999983263228148,179.99999548734266,4.512657169694575e-06,155.2808616399356,1.1709271777266246,3.3801431251145915,1.0189922702605363,0.0,0.0,0.0,0.0,0.0,0.0,0.0,10.19,-1.0,-1.0,-0.2,1100.0,778.3434459107903,468.31102399988123,468.3110239998813
0.1880000000000024,1.7767779524228324,8.233533743432606,0.024999983263228148,179.99999548734266,4.512657169694575e-06,155.2808616399356,1.1688070809577926,3.3631593096314227,1.0227095354285471,0.0,0.0,0.0,0.0,0.0,0.0,0.0,10.19,-1.0,-1.0,-0.2,1100.0,778.3434459107903,468.31102399988123,468.3110239998813
0.1880000000000024,1.7767779524228324,8.233533743432606,0.024999983263228148,179.99999548734266,4.512657169694575e-06,155.2808616399356,1.1577906997714327,3.274908533481959,1.0410602431362916,0.0,0.0,0.0,0.0,0.0,0.0,0.0,10.19,-1.0,-1.0,-0.2,1100.0,778.3434459107903,468.31102399988123,468.3110239998813
0.19200000000000017,1.7767779524228324,8.233533743432606,0.024999983263228148,179.99999548734266,4.512657169694575e-06,155.2808616399356,1.1555721823838174,3.2571362834076294,1.044720864810587,0.0,0.0,0.0,0.0,0.0,0.0,0.0,10.19,-1.0,-1.0,-0.2,1100.0,778.3434459107903,468.31102399988123,468.3110239998813
0.19200000000000017,1.7767779524228324,8.233533743432606,0.024999983263228148,179.99999548734266,4.512657169694575e-06,155.2808616399356,1.1441051356978744,3.1652752854031676,1.0627855379014552,0.0,0.0,0.0,0.0,0.0,0.0,0.0,10.19,-1.0,-1.0,-0.2,1100.0,778.3434459107903,468.31102399988123,468.3110239998813
0.19599999999999795,1.7767779524228324,8.233533743432606,0.024999983263228148,179.99999548734266,4.512657169694575e-06,155.2808616399356,1.1417980594878483,3.1467936022872216,1.0663888570248443,0.0,0.0,0.0,0.0,0.0,0.0,0.0,10.19,-1.0,-1.0,-0.2,1100.0,778.3434459107903,468.31102399988123,468.3110239998813
0.19599999999999795,1.7767779524228324,8.233533743432606,0.024999983263228148,179.99999548734266,4.512657169694575e-06,155.2808616399356,1.1299271830471802,3.0516975774001693,1.0841647069334601,0.0,0.0,0.0,0.0,0.0,0.0,0.0,10.19,-1.0,-1.0,-0.2,1100.0,778.3434459107903,468.31102399988123,468.3110239998813
0.19999999999999574,1.7767779524228324,8.233533743432606,0.024999983263228148,179.99999548734266,4.512657169694575e-06,155.2808616399356,1.127604784490203,3.033093148984475,1.087710184945951,0.0,0.0,0.0,0.0,0.0,0.0,0.0,10.19,-1.0,-1.0,-0.2,1100.0,778.3434459107903,468.31102399988123,468.3110239998813
0.19999999999999574,1.7767779524228324,8.233533743432606,0.024999983263228148,179.99999548734266,4.512657169694575e-06,155.2808616399356,1.1172737671235435,2.950332731965667,1.1051949924382163,0.0,0.0,0.0,0.0,0.0,0.0,0.0,10.19,-1.0,-1.0,-0.2,1100.0,778.3434459107903,468.31102399988123,468.3110239998813
0.20400000000000063,1.7767779524228324,8.233533743432606,0.024999983263228148,179.99999548734266,4.512657169694575e-06,155.2808616399356,1.1151921362362727,2.9336570615843796,1.1086822033789643,0.0,0.0,0.0,0.0,0.0,0.0,0.0,10.19,-1.0,-1.0,-0.2,1100.0,778.3434459107903,468.31102399988123,468.3110239998813
0.20400000000000063,1.7767779524228324,8.233533743432606,0.024999983263228148,179.99999548734266,4.512657169694575e-06,155.2808616399356,1.1044047981434986,2.847241119436997,1.1258742808174191,0.0,0.0,0.0,0.0,0.0,0.0,0.0,10.19,-1.0,-1.0,-0.2,1100.0,778.3434459107903,468.31102399988123,468.3110239998813
0.2079999999999984,1.7767779524228324,8.233533743432606,0.024999983263228148,179.99999548734266,4.512657169694575e-06,155.2808616399356,1.1022334615636344,2.8298468285883844,1.1293029038451465,0.0,0.0,0.0,0.0,0.0,0.0,0.0,10.19,-1.0,-1.0,-0.2,1100.0,778.3434459107903,468.31102399988123,468.3110239998813
0.2079999999999984,1.7767779524228324,8.233533743432606,0.024999983263228148,179.99999548734266,4.512657169694575e-06,155.2808616399356,1.09103616952286,2.7401467994541293,1.1462010594620136,0.0,0.0,0.0,0.0,0.0,0.0,0.0,10.19,-1.0,-1.0,-0.2,1100.0,778.3434459107903,468.31102399988123,468.3110239998813
0.2119999999999962,1.7767779524228324,8.233533743432606,0.024999983263228148,179.99999548734266,4.512657169694575e-06,155.2808616399356,1.0887843073135015,2.7221074284124303,1.149570871773764,0.0,0.0,0.0,0.0,0.0,0.0,0.0,10.19,-1.0,-1.0,-0.2,1100.0,778.3434459107903,468.31102399988123,468.3110239998813
0.2119999999999962,1.7767779524228324,8.233533743432606,0.024999983263228148,179.99999548734266,4.512657169694575e-06,155.2808616399356,1.0772206490529281,2.629472487830826,1.1661743758544034,0.0,0.0,0.0,0.0,0.0,0.0,0.0,10.19,-1.0,-1.0,-0.2,1100.0,778.3434459107903,468.31102399988123,468.3110239998813
0.21600000000000108,1.7767779524228324,8.233533743432606,0.024999983263228148,179.99999548734266,4.512657169694575e-06,155.2808616399356,1.0748968902372702,2.6108571625623167,1.169485245983211,0.0,0.0,0.0,0.0,0.0,0.0,0.0,10.19,-1.0,-1.0,-0.2,1100.0,778.3434459107903,468.31102399988123,468.3110239998813
0.21600000000000108,1.7767779524228324,8.233533743432606,0.024999983263228148,179.99999548734266,4.512657169694575e-06,155.2808616399356,1.0630078166024772,2.5156153623541218,1.185793798867203,0.0,0.0,0.0,0.0,0.0,0.0,0.0,10.19,-1.0,-1.0,-0.2,1100.0,778.3434459107903,468.31102399988123,468.3110239998813
0.21999999999999886,1.7767779524228324,8.233533743432606,0.024999983263228148,179.99999548734266,4.512657169694575e-06,155.2808616399356,1.060684231377133,2.4970014276947112,1.1890456803403187,0.0,0.0,0.0,0.0,0.0,0.0,0.0,10.19,-1.0,-1.0,-0.2,1100.0,778.3434459107903,468.31102399988123,468.3110239998813
0.21999999999999886,1.7767779524228324,8.233533743432606,0.024999983263228148,179.99999548734266,4.512657169694575e-06,155.2808616399356,1.0504078651669497,2.414678813879598,1.205059382151665,0.0,0.0,0.0,0.0,0.0,0.0,0.0,10.19,-1.0,-1.0,-0.2,1100.0,778.3434459107903,468.31102399988123,468.3110239998813
0.22399999999999665,1.7767779524228324,8.233533743432606,0.024999983263228148,179.99999548734266,4.512657169694575e-06,155.2808616399356,1.0483394405206727,2.398108936952441,1.2082523074918279,0.0,0.0,0.0,0.0,0.0,0.0,0.0,10.19,-1.0,-1.0,-0.2,1100.0,778.3434459107903,468.31102399988123,468.3110239998813
0.22399999999999665,1.7767779524228324,8.233533743432606,0.024999983263228148,179.99999548734266,4.512657169694575e-06,155.2808616399356,1.0376743391866967,2.3126722173515035,1.2239716295138587,0.0,0.0,0.0,0.0,0.0,0.0,0.0,10.19,-1.0,-1.0,-0.2,1100.0,778.3434459107903,468.31102399988123,468.3110239998813
0.22800000000000153,1.7767779524228324,8.233533743432606,0.024999983263228148,179.99999548734266,4.512657169694575e-06,155.2808616399356,1.0355295588868896,2.2954906653585123,1.2271057045667533,0.0,0.0,0.0,0.0,0.0,0.0,0.0,10.19,-1.0,-1.0,-0.2,1100.0,778.3434459107903,468.31102399988123,468.3110239998813
0.22800000000000153,1.7767779524228324,8.233533743432606,0.024999983263228148,179.99999548734266,4.512657169694575e-06,155.2808616399356,1.0245171148748107,2.2072714293927307,1.24253146218123,0.0,0.0,0.0,0.0,0.0,0.0,0.0,10.19,-1.0,-1.0,-0.2,1100.0,778.3434459107903,468.31102399988123,468.3110239998813
0.23199999999999932,1.7767779524228324,8.233533743432606,0.024999983263228148,179.99999548734266,4.512657169694575e-06,155.2808616399356,1.0223041733218896,2.189543846594444,1.2456068607532105,0.0,0.0,0.0,0.0,0.0,0.0,0.0,10.19,-1.0,-1.0,-0.2,1100.0,778.3434459107903,468.31102399988123,468.3110239998813
0.23199999999999932,1.7767779524228324,8.233533743432606,0.024999983263228148,179.99999548734266,4.512657169694575e-06,155.2808616399356,1.0109832742671652,2.0988536179805153,1.2607401878668483,0.0,0.0,0.0,0.0,0.0,0.0,0.0,10.19,-1.0,-1.0,-0.2,1100.0,778.3434459107903,468.31102399988123,468.3110239998813
0.2359999999999971,1.7767779524228324,8.233533743432606,0.024999983263228148,179.99999548734266,4.512657169694575e-06,155.2808616399356,1.0087738332223664,2.081154077290929,1.2637571466577382,0.0,0.0,0.0,0.0,0.0,0.0,0.0,10.19,-1.0,-1.0,-0.2,1100.0,778.3434459107903,468.31102399988123,468.3110239998813
0.2359999999999971,1.7767779524228324,8.233533743432606,0.024999983263228148,179.99999548734266,4.512657169694575e-06,155.2808616399356,0.9990806640190869,2.003503377749354,1.278599471542937,0.0,0.0,0.0,0.0,0.0,0.0,0.0,10.19,-1.0,-1.0,-0.2,1100.0,778.3434459107903,468.31102399988123,468.3110239998813
0.240000000000002,1.7767779524228324,8.233533743432606,0.024999983263228148,179.99999548734266,4.512657169694575e-06,155.2808616399356,0.9971932908868991,1.9883838806130851,1.2815582853592802,0.0,0.0,0.0,0.0,0.0,0.0,0.0,10.19,-1.0,-1.0,-0.2,1100.0,778.3434459107903,468.31102399988123,468.3110239998813
0.240000000000002,1.7767779524228324,8.233533743432606,0.024999983263228148,179.99999548734266,4.512657169694575e-06,155.2808616399356,0.9874251632038293,1.9101326985801577,1.2961113078392534,0.0,0.0,0.0,0.0,0.0,0.0,0.0,10.19,-1.0,-1.0,-0.2,1100.0,778.3434459107903,468.31102399988123,468.3110239998813
0.24399999999999977,1.7767779524228324,8.233533743432606,0.024999983263228148,179.99999548734266,4.512657169694575e-06,155.2808616399356,0.9854594338677806,1.8943855002333112,1.2990123250742123,0.0,0.0,0.0,0.0,0.0,0.0,0.0,10.19,-1.0,-1.0,-0.2,1100.0,778.3434459107903,468.31102399988123,468.3110239998813
0.24399999999999977,1.7767779524228324,8.233533743432606,0.024999983263228148,179.99999548734266,4.512657169694575e-06,155.2808616399356,0.975333592497865,1.8132687210528813,1.3132779949859599,0.0,0.0,0.0,0.0,0.0,0.0,0.0,10.19,-1.0,-1.0,-0.2,1100.0,778.3434459107903,468.31102399988123,468.3110239998813
0.24799999999999756,1.7767779524228324,8.233533743432606,0.024999983263228148,179.99999548734266,4.512657169694575e-06,155.2808616399356,0.9732976142338409,1.7969587678128796,1.3161216133527,0.0,0.0,0.0,0.0,0.0,0.0,0.0,10.19,-1.0,-1.0,-0.2,1100.0,778.3434459107903,468.31102399988123,468.3110239998813
0.24799999999999756,1.7767779524228324,8.233533743432606,0.024999983263228148,179.99999548734266,4.512657169694575e-06,155.2808616399356,0.9628525485401118,1.7132847246937972,1.3301021102243693,0.0,0.0,0.0,0.0,0.0,0.0,0.0,10.19,-1.0,-1.0,-0.2,1100.0,778.3434459107903,468.31102399988123,468.3110239998813
0.25200000000000244,1.7767779524228324,8.233533743432606,0.024999983263228148,179.99999548734266,4.512657169694575e-06,155.2808616399356,0.9608179048735683,1.6969854627381218,1.3328887727302465,0.0,0.0,0.0,0.0,0.0,0.0,0.0,10.19,-1.0,-1.0,-0.2,1100.0,778.3434459107903,468.31102399988123,468.3110239998813
0.25200000000000244,1.7767779524228324,8.233533743432606,0.024999983263228148,179.99999548734266,4.512657169694575e-06,155.2808616399356,0.9519894436836199,1.6262618249991658,1.346586486612396,0.0,0.0,0.0,0.0,0.0,0.0,0.0,10.19,-1.0,-1.0,-0.2,1100.0,778.3434459107903,468.31102399988123,468.3110239998813
0.2560000000000002,1.7767779524228324,8.233533743432606,0.024999983263228148,179.99999548734266,4.512657169694575e-06,155.2808616399356,0.9502106681325145,1.612012288756256,1.3493166777619892,0.0,0.0,0.0,0.0,0.0,0.0,0.0,10.19,-1.0,-1.0,-0.2,1100.0,778.3434459107903,468.31102399988123,468.3110239998813
0.2560000000000002,1.7767779524228324,8.233533743432606,0.024999983263228148,179.99999548734266,4.512657169694575e-06,155.2808616399356,0.9409952334409951,1.5381886573546626,1.3627341911550983,0.0,0.0,0.0,0.0,0.0,0.0,0.0,10.19,-1.0,-1.0,-0.2,1100.0,778.3434459107903,468.31102399988123,468.3110239998813
0.259999999999998,1.7767779524228324,8.233533743432606,0.024999983263228148,179.99999548734266,4.512657169694575e-06,155.2808616399356,0.939140387717548,1.5233297329980513,1.3654084333706937,0.0,0.0,0.0,0.0,0.0,0.0,0.0,10.19,-1.0,-1.0,-0.2,1100.0,778.3434459107903,468.31102399988123,468.3110239998813
0.259999999999998,1.7767779524228324,8.233533743432606,0.024999983263228148,179.99999548734266,4.512657169694575e-06,155.2808616399356,0.9295773864683962,1.446721791762241,1.3785485041939651,0.0,0.0,0.0,0.0,0.0,0.0,0.0,10.19,-1.0,-1.0,-0.2,1100.0,778.3434459107903,468.31102399988123,468.3110239998813
0.2639999999999958,1.7767779524228324,8.233533743432606,0.024999983263228148,179.99999548734266,4.512657169694575e-06,155.2808616399356,0.9277182366419391,1.431828387804313,1.3811673544424912,0.0,0.0,0.0,0.0,0.0,0.0,0.0,10.19,-1.0,-1.0,-0.2,1100.0,778.3434459107903,468.31102399988123,468.3110239998813
0.2639999999999958,1.7767779524228324,8.233533743432606,0.024999983263228148,179.99999548734266,4.512657169694575e-06,155.2808616399356,0.9197443862017889,1.3679509240220784,1.3940328999915719,0.0,0.0,0.0,0.0,0.0,0.0,0.0,10.19,-1.0,-1.0,-0.2,1100.0,778.3434459107903,468.31102399988123,468.3110239998813
0.2680000000000007,1.7767779524228324,8.233533743432606,0.024999983263228148,179.99999548734266,4.512657169694575e-06,155.2808616399356,0.9181356425569099,1.3550634909454282,1.3965969466076738,0.0,0.0,0.0,0.0,0.0,0.0,0.0,10.19,-1.0,-1.0,-0.2,1100.0,778.3434459107903,468.31102399988123,468.3110239998813
0.2680000000000007,1.7767779524228324,8.233533743432606,0.024999983263228148,179.99999548734266,4.512657169694575e-06,155.2808616399356,0.909748225347687,1.2878729983433952,1.4091910284513904,0.0,0.0,0.0,0.0,0.0,0.0,0.0,10.19,-1.0,-1.0,-0.2,1100.0,778.3434459107903,468.31102399988123,468.3110239998813
0.27199999999999847,1.7767779524228324,8.233533743432606,0.024999983263228148,179.99999548734266,4.512657169694575e-06,155.2808616399356,0.908058120771033,1.2743337935773007,1.4117008881466833,0.0,0.0,0.0,0.0,0.0,0.0,0.0,10.19,-1.0,-1.0,-0.2,1100.0,778.3434459107903,468.31102399988123,468.3110239998813
0.27199999999999847,1.7767779524228324,8.233533743432606,0.024999983263228148,179.99999548734266,4.512657169694575e-06,155.2808616399356,0.8992973769520607,1.2041526307624015,1.4240266979152338,0.0,0.0,0.0,0.0,0.0,0.0,0.0,10.19,-1.0,-1.0,-0.2,1100.0,778.3434459107903,468.31102399988123,468.3110239998813
0.27599999999999625,1.7767779524228324,8.233533743432606,0.024999983263228148,179.99999548734266,4.512657169694575e-06,155.2808616399356,0.8975978432741496,1.1905378907102409,1.426483012964373,0.0,0.0,0.0,0.0,0.0,0.0,0.0,10.19,-1.0,-1.0,-0.2,1100.0,778.3434459107903,468.31102399988123,468.3110239998813
0.27599999999999625,1.7767779524228324,8.233533743432606,0.024999983263228148,179.99999548734266,4.512657169694575e-06,155.2808616399356,0.890401297086197,1.1328873087325004,1.4385438589836663,0.0,0.0,0.0,0.0,0.0,0.0,0.0,10.19,-1.0,-1.0,-0.2,1100.0,778.3434459107903,468.31102399988123,468.3110239998813
0.28000000000000114,1.7767779524228324,8.233533743432606,0.024999983263228148,179.99999548734266,4.512657169694575e-06,155.2808616399356,0.8889472051127606,1.1212387697905701,1.440947294578158,0.0,0.0,0.0,0.0,0.0,0.0,0.0,10.19,-1.0,-1.0,-0.2,1100.0,778.3434459107903,468.31102399988123,468.3110239998813
0.28000000000000114,1.7767779524228324,8.233533743432606,0.024999983263228148,179.99999548734266,4.512657169694575e-06,155.2808616399356,0.8813129203530168,1.0600815218707533,1.4527465893071356,0.0,0.0,0.0,0.0,0.0,0.0,0.0,10.19,-1.0,-1.0,-0.2,1100.0,778.3434459107903,468.31102399988123,468.3110239998813
0.2839999999999989,1.7767779524228324,8.233533743432606,0.024999983263228148,179.99999548734266,4.512657169694575e-06,155.2808616399356,0.8797726584193596,1.0477426867470172,1.4550978310683653,0.0,0.0,0.0,0.0,0.0,0.0,0.0,10.19,-1.0,-1.0,-0.2,1100.0,778.3434459107903,468.31102399988123,468.3110239998813
0.2839999999999989,1.7767779524228324,8.233533743432606,0.024999983263228148,179.99999548734266,4.512657169694575e-06,155.2808616399356,0.8717416319385891,0.9834071932473525,1.4666390792981892,0.0,0.0,0.0,0.0,0.0,0.0,0.0,10.19,-1.0,-1.0,-0.2,1100.0,778.3434459107903,468.31102399988123,468.3110239998813
0.2879999999999967,1.7767779524228324,8.233533743432606,0.024999983263228148,179.99999548734266,4.512657169694575e-06,155.2808616399356,0.8701872824135272,0.9709555042876321,1.4689388309415463,0.0,0.0,0.0,0.0,0.0,0.0,0.0,10.19,-1.0,-1.0,-0.2,1100.0,778.3434459107903,468.31102399988123,468.3110239998813
0.2879999999999967,1.7767779524228324,8.233533743432606,0.024999983263228148,179.99999548734266,4.512657169694575e-06,155.2808616399356,0.8620986710915597,0.9061587062230548,1.4802256187174836,0.0,0.0,0.0,0.0,0.0,0.0,0.0,10.19,-1.0,-1.0,-0.2,1100.0,778.3434459107903,468.31102399988123,468.3110239998813
0.2920000000000016,1.7767779524228324,8.233533743432606,0.024999983263228148,179.99999548734266,4.512657169694575e-06,155.2808616399356,0.8604693259421776,0.8931062372120543,1.4824745998597377,0.0,0.0,0.0,0.0,0.0,0.0,0.0,10.19,-1.0,-1.0,-0.2,1100.0,778.3434459107903,468.31102399988123,468.3110239998813
0.2920000000000016,1.7767779524228324,8.233533743432606,0.024999983263228148,179.99999548734266,4.512657169694575e-06,155.2808616399356,0.8520369813467432,0.8255558372469358,1.4935105840884453,0.0,0.0,0.0,0.0,0.0,0.0,0.0,10.19,-1.0,-1.0,-0.2,1100.0,778.3434459107903,468.31102399988123,468.3110239998813
0.2959999999999994,1.7767779524228324,8.233533743432606,0.024999983263228148,179.99999548734266,4.512657169694575e-06,155.2808616399356,0.850404040729645,0.8124745654184581,1.4957095281910096,0.0,0.0,0.0,0.0,0.0,0.0,0.0,10.19,-1.0,-1.0,-0.2,1100.0,778.3434459107903,468.31102399988123,468.3110239998813
0.2959999999999994,1.7767779524228324,8.233533743432606,0.024999983263228148,179.99999548734266,4.512657169694575e-06,155.2808616399356,0.843562956349803,0.7576715410847914,1.5064984268976953,0.0,0.0,0.0,0.0,0.0,0.0,0.0,10.19,-1.0,-1.0,-0.2,1100.0,778.3434459107903,468.31102399988123,468.3110239998813
0.29999999999999716,1.7767779524228324,8.233533743432606,0.024999983263228148,179.99999548734266,4.512657169694575e-06,155.2808616399356,0.8421807898099184,0.7465991873009861,1.5086480793387669,0.0,0.0,0.0,0.0,0.0,0.0,0.0,10.19,-1.0,-1.0,-0.2,1100.0,778.3434459107903,468.31102399988123,468.3110239998813
0.29999999999999716,1.7767779524228324,8.233533743432606,0.024999983263228148,179.99999548734266,4.512657169694575e-06,155.2808616399356,0.8349266443616282,0.688487185248501,1.519193662540404,0.0,0.0,0.0,0.0,0.0,0.0,0.0,10.19,-1.0,-1.0,-0.2,1100.0,778.3434459107903,468.31102399988123,468.3110239998813
0.30400000000000205,1.7767779524228324,8.233533743432606,0.024999983263228148,179.99999548734266,4.512657169694575e-06,155.2808616399356,0.8334631678618473,0.6767634681042466,1.5212947788091988,0.0,0.0,0.0,0.0,0.0,0.0,0.0,10.19,-1.0,-1.0,-0.2,1100.0,778.3434459107903,468.31102399988123,468.3110239998813
0.30400000000000205,1.7767779524228324,8.233533743432606,0.024999983263228148,179.99999548734266,4.512657169694575e-06,155.2808616399356,0.8258347114618095,0.6156529104050242,1.5316008599715931,0.0,0.0,0.0,0.0,0.0,0.0,0.0,10.19,-1.0,-1.0,-0.2,1100.0,778.3434459107903,468.31102399988123,468.3110239998813
0.30799999999999983,1.7767779524228324,8.233533743432606,0.024999983263228148,179.99999548734266,4.512657169694575e-06,155.2808616399356,0.8242975984275503,0.6033393006988902,1.533654203978322,0.0,0.0,0.0,0.0,0.0,0.0,0.0,10.19,-1.0,-1.0,-0.2,1100.0,778.3434459107903,468.31102399988123,468.3110239998813
0.30799999999999983,1.7767779524228324,8.233533743432606,0.024999983263228148,179.99999548734266,4.512657169694575e-06,155.2808616399356,0.8163312993279432,0.5395223297093992,1.5437246320263733,0.0,0.0,0.0,0.0,0.0,0.0,0.0,10.19,-1.0,-1.0,-0.2,1100.0,778.3434459107903,468.31102399988123,468.3110239998813
0.3119999999999976,1.7767779524228324,8.233533743432606,0.024999983263228148,179.99999548734266,4.512657169694575e-06,155.2808616399356,0.814727770699086,0.5266766734380134,1.545730974521914,0.0,0.0,0.0,0.0,0.0,0.0,0.0,10.19,-1.0,-1.0,-0.2,1100.0,778.3434459107903,468.31102399988123,468.3110239998813
0.3119999999999976,1.7767779524228324,8.233533743432606,0.024999983263228148,179.99999548734266,4.512657169694575e-06,155.2808616399356,0.8064579311498233,0.4604280799563724,1.5555696263738916,0.0,0.0,0.0,0.0,0.0,0.0,0.0,10.19,-1.0,-1.0,-0.2,1100.0,778.3434459107903,468.31102399988123,468.3110239998813
0.3160000000000025,1.7767779524228324,8.233533743432606,0.024999983263228148,179.99999548734266,4.512657169694575e-06,155.2808616399356,0.804858742375653,0.4476171896882702,1.5575297434732953,0.0,0.0,0.0,0.0,0.0,0.0,0.0,10.19,-1.0,-1.0,-0.2,1100.0,778.3434459107903,468.31102399988123,468.3110239998813
0.3160000000000025,1.7767779524228324,8.233533743432606,0.024999983263228148,179.99999548734266,4.512657169694575e-06,155.2808616399356,0.798217282426104,0.39441333032663317,1.5671405170713555,0.0,0.0,0.0,0.0,0.0,0.0,0.0,10.19,-1.0,-1.0,-0.2,1100.0,778.3434459107903,468.31102399988123,468.3110239998813
0.3200000000000003,1.7767779524228324,8.233533743432606,0.024999983263228148,179.99999548734266,4.512657169694575e-06,155.2808616399356,0.7968761941179066,0.38367004883688793,1.5690551888757165,0.0,0.0,0.0,0.0,0.0,0.0,0.0,10.19,-1.0,-1.0,-0.2,1100.0,778.3434459107903,468.31102399988123,468.3110239998813
0.3200000000000003,1.7767779524228324,8.233533743432606,0.024999983263228148,179.99999548734266,4.512657169694575e-06,155.2808616399356,0.7898558904946689,0.3274313227911042,1.5784419966862302,0.0,0.0,0.0,0.0,0.0,0.0,0.0,10.19,-1.0,-1.0,-0.2,1100.0,778.3434459107903,468.31102399988123,468.3110239998813
0.32399999999999807,1.7767779524228324,8.233533743432606,0.024999983263228148,179.99999548734266,4.512657169694575e-06,155.2808616399356,0.7884402436866601,0.3160907629968432,1.580312005997706,0.0,0.0,0.0,0.0,0.0,0.0,0.0,10.19,-1.0,-1.0,-0.2,1100.0,778.3434459107903,468.31102399988123,468.3110239998813
0.32399999999999807,1.7767779524228324,8.233533743432606,0.024999983263228148,179.99999548734266,4.512657169694575e-06,155.2808616399356,0.781077107469697,0.25710565027708976,1.5894787689562493,0.0,0.0,0.0,0.0,0.0,0.0,0.0,10.19,-1.0,-1.0,-0.2,1100.0,778.3434459107903,468.31102399988123,468.3110239998813
0.32799999999999585,1.7767779524228324,8.233533743432606,0.024999983263228148,179.99999548734266,4.512657169694575e-06,155.2808616399356,0.7796579969836442,0.24573734341502615,1.591304900081174,0.0,0.0,0.0,0.0,0.0,0.0,0.0,10.19,-1.0,-1.0,-0.2,1100.0,778.3434459107903,468.31102399988123,468.3110239998813
0.32799999999999585,1.7767779524228324,8.233533743432606,0.024999983263228148,179.99999548734266,4.512657169694575e-06,155.2808616399356,0.772286485501907,0.18668513755422403,1.6002555419582518,0.0,0.0,0.0,0.0,0.0,0.0,0.0,10.19,-1.0,-1.0,-0.2,1100.0,778.3434459107903,468.31102399988123,468.3110239998813
0.33200000000000074,1.7767779524228324,8.233533743432606,0.024999983263228148,179.99999548734266,4.512657169694575e-06,155.2808616399356,0.7708020725196358,0.17479370101116296,1.602038579593654,0.0,0.0,0.0,0.0,0.0,0.0,0.0,10.19,-1.0,-1.0,-0.2,1100.0,778.3434459107903,468.31102399988123,468.3110239998813
0.33200000000000074,1.7767779524228324,8.233533743432606,0.024999983263228148,179.99999548734266,4.512657169694575e-06,155.2808616399356,0.7631316096377022,0.11334663492793412,1.6107770217584,0.0,0.0,0.0,0.0,0.0,0.0,0.0,10.19,-1.0,-1.0,-0.2,1100.0,778.3434459107903,468.31102399988123,468.3110239998813
0.3359999999999985,1.7767779524228324,8.233533743432606,0.024999983263228148,179.99999548734266,4.512657169694575e-06,155.2808616399356,0.761588453434286,0.10098461419103759,1.6125177499573697,0.0,0.0,0.0,0.0,0.0,0.0,0.0,10.19,-1.0,-1.0,-0.2,1100.0,778.3434459107903,468.31102399988123,468.3110239998813
0.3359999999999985,1.7767779524228324,8.233533743432606,0.024999983263228148,179.99999548734266,4.512657169694575e-06,155.2808616399356,0.7552492898273157,0.0502024109439091,1.6210479065175696,0.0,0.0,0.0,0.0,0.0,0.0,0.0,10.19,-1.0,-1.0,-0.2,1100.0,778.3434459107903,468.31102399988123,468.3110239998813
0.3399999999999963,1.7767779524228324,8.233533743432606,0.024999983263228148,179.99999548734266,4.512657169694575e-06,155.2808616399356,0.7539694821241453,0.039950040295488265,1.6227471077292295,0.0,0.0,0.0,0.0,0.0,0.0,0.0,10.19,-1.0,-1.0,-0.2,1100.0,778.3434459107903,468.31102399988123,468.3110239998813
0.3399999999999963,1.7767779524228324,8.233533743432606,0.024999983263228148,179.99999548734266,4.512657169694575e-06,155.2808616399356,0.7472758133853292,-0.013672056788382299,1.6310728810270791,0.0,0.0,0.0,0.0,0.0,0.0,0.0,10.19,-1.0,-1.0,-0.2,1100.0,778.3434459107903,468.31102399988123,468.3110239998813
0.3440000000000012,1.7767779524228324,8.233533743432606,0.024999983263228148,179.99999548734266,4.512657169694575e-06,155.2808616399356,0.7459262425132557,-0.02448329097812406,1.6327313352070192,0.0,0.0,0.0,0.0,0.0,0.0,0.0,10.19,-1.0,-1.0,-0.2,1100.0,778.3434459107903,468.31102399988123,468.3110239998813
0.3440000000000012,1.7767779524228324,8.233533743432606,0.024999983263228148,179.99999548734266,4.512657169694575e-06,155.2808616399356,0.7389119257962556,-0.08067405670796793,1.640856611651042,0.0,0.0,0.0,0.0,0.0,0.0,0.0,10.19,-1.0,-1.0,-0.2,1100.0,778.3434459107903,468.31102399988123,468.3110239998813
0.347999999999999,1.7767779524228324,8.233533743432606,0.024999983263228148,179.99999548734266,4.512657169694575e-06,155.2808616399356,0.7375632599899357,-0.09147804053537427,1.6424750954383605,0.0,0.0,0.0,0.0,0.0,0.0,0.0,10.19,-1.0,-1.0,-0.2,1100.0,778.3434459107903,468.31102399988123,468.3110239998813
0.347999999999999,1.7767779524228324,8.233533743432606,0.024999983263228148,179.99999548734266,4.512657169694575e-06,155.2808616399356,0.732159823923418,-0.13476425391864102,1.6504037416528674,0.0,0.0,0.0,0.0,0.0,0.0,0.0,10.19,-1.0,-1.0,-0.2,1100.0,778.3434459107903,468.31102399988123,468.3110239998813
0.35199999999999676,1.7767779524228324,8.233533743432606,0.024999983263228148,179.99999548734266,4.512657169694575e-06,155.2808616399356,0.7310657472030135,-0.14352875817002855,1.6519830276101537,0.0,0.0,0.0,0.0,0.0,0.0,0.0,10.19,-1.0,-1.0,-0.2,1100.0,778.3434459107903,468.31102399988123,468.3110239998813
0.35199999999999676,1.7767779524228324,8.233533743432606,0.024999983263228148,179.99999548734266,4.512657169694575e-06,155.2808616399356,0.7252656274446269,-0.18999275226921972,1.6597188868845538,0.0,0.0,0.0,0.0,0.0,0.0,0.0,10.19,-1.0,-1.0,-0.2,1100.0,778.3434459107903,468.31102399988123,468.3110239998813
0.35600000000000165,1.7767779524228324,8.233533743432606,0.024999983263228148,179.99999548734266,4.512657169694575e-06,155.2808616399356,0.7240934142177802,-0.19938319776414978,1.6612597427972493,0.0,0.0,0.0,0.0,0.0,0.0,0.0,10.19,-1.0,-1.0,-0.2,1100.0,778.3434459107903,468.31102399988123,468.3110239998813
0.35600000000000165,1.7767779524228324,8.233533743432606,0.024999983263228148,179.99999548734266,4.512657169694575e-06,155.2808616399356,0.7195314281359921,-0.23592866634319012,1.6688066318183918,0.0,0.0,0.0,0.0,0.0,0.0,0.0,10.19,-1.0,-1.0,-0.2,1100.0,778.3434459107903,468.31102399988123,468.3110239998813
0.35999999999999943,1.7767779524228324,8.233533743432606,0.024999983263228148,179.99999548734266,4.512657169694575e-06,155.2808616399356,0.7186680405611056,-0.24284515028765297,1.6703098200502233,0.0,0.0,0.0,0.0,0.0,0.0,0.0,10.19,-1.0,-1.0,-0.2,1100.0,778.3434459107903,468.31102399988123,468.3110239998813
0.35999999999999943,1.7767779524228324,8.233533743432606,0.024999983263228148,179.99999548734266,4.512657169694575e-06,155.2808616399356,0.7155624178798121,-0.26772388382229806,1.6776715259017898,0.0,0.0,0.0,0.0,0.0,0.0,0.0,10.19,-1.0,-1.0,-0.2,1100.0,778.3434459107903,468.31102399988123,468.3110239998813
0.3639999999999972,1.7767779524228324,8.233533743432606,0.024999983263228148,179.99999548734266,4.512657169694575e-06,155.2808616399356,0.7149229865909452,-0.2728462835089234,1.679137802803126,0.0,0.0,0.0,0.0,0.0,0.0,0.0,10.19,-1.0,-1.0,-0.2,1100.0,778.3434459107903,468.31102399988123,468.3110239998813
0.3639999999999972,1.7767779524228324,8.233533743432606,0.024999983263228148,179.99999548734266,4.512657169694575e-06,155.2808616399356,0.7112742288453373,-0.30207600038091786,1.6863180802168876,0.0,0.0,0.0,0.0,0.0,0.0,0.0,10.19,-1.0,-1.0,-0.2,1100.0,778.3434459107903,468.31102399988123,468.3110239998813
0.3680000000000021,1.7767779524228324,8.233533743432606,0.024999983263228148,179.99999548734266,4.512657169694575e-06,155.2808616399356,0.7105276284425658,-0.3080569176988177,1.6877481955829607,0.0,0.0,0.0,0.0,0.0,0.0,0.0,10.19,-1.0,-1.0,-0.2,1100.0,778.3434459107903,468.31102399988123,468.3110239998813
0.3680000000000021,1.7767779524228324,8.233533743432606,0.024999983263228148,179.99999548734266,4.512657169694575e-06,155.2808616399356,0.7063791316839457,-0.3412899778669838,1.694750764427472,0.0,0.0,0.0,0.0,0.0,0.0,0.0,10.19,-1.0,-1.0,-0.2,1100.0,778.3434459107903,468.31102399988123,468.3110239998813
0.3719999999999999,1.7767779524228324,8.233533743432606,0.024999983263228148,179.99999548734266,4.512657169694575e-06,155.2808616399356,0.7055979230819894,-0.34754813690224334,1.6961454610036273,0.0,0.0,0.0,0.0,0.0,0.0,0.0,10.19,-1.0,-1.0,-0.2,1100.0,778.3434459107903,468.31102399988123,468.3110239998813
0.3719999999999999,1.7767779524228324,8.233533743432606,0.024999983263228148,179.99999548734266,4.512657169694575e-06,155.2808616399356,0.7028903046791994,-0.36923851067567826,1.7029740039966574,0.0,0.0,0.0,0.0,0.0,0.0,0.0,10.19,-1.0,-1.0,-0.2,1100.0,778.3434459107903,468.31102399988123,468.3110239998813
0.37599999999999767,1.7767779524228324,8.233533743432606,0.024999983263228148,179.99999548734266,4.512657169694575e-06,155.2808616399356,0.70232997523184,-0.3737272359469221,1.7043340170279355,0.0,0.0,0.0,0.0,0.0,0.0,0.0,10.19,-1.0,-1.0,-0.2,1100.0,778.3434459107903,468.31102399988123,468.3110239998813
0.37599999999999767,1.7767779524228324,8.233533743432606,0.024999983263228148,179.99999548734266,4.512657169694575e-06,155.2808616399356,0.6990643298515407,-0.3998878902094276,1.710992177659621,0.0,0.0,0.0,0.0,0.0,0.0,0.0,10.19,-1.0,-1.0,-0.2,1100.0,778.3434459107903,468.31102399988123,468.3110239998813
0.37999999999999545,1.7767779524228324,8.233533743432606,0.024999983263228148,179.99999548734266,4.512657169694575e-06,155.2808616399356,0.6983938720085192,-0.40525883952764813,1.7123182344820456,0.0,0.0,0.0,0.0,0.0,0.0,0.0,10.19,-1.0,-1.0,-0.2,1100.0,778.3434459107903,468.31102399988123,468.3110239998813
0.37999999999999545,1.7767779524228324,8.233533743432606,0.024999983263228148,179.99999548734266,4.512657169694575e-06,155.2808616399356,0.694614165661509,-0.4355375683677236,1.7188096151364107,0.0,0.0,0.0,0.0,0.0,0.0,0.0,10.19,-1.0,-1.0,-0.2,1100.0,778.3434459107903,468.31102399988123,468.3110239998813
0.38400000000000034,1.7767779524228324,8.233533743432606,0.024999983263228148,179.99999548734266,4.512657169694575e-06,155.2808616399356,0.693842289577375,-0.441720965834069,1.72010243480757,0.0,0.0,0.0,0.0,0.0,0.0,0.0,10.19,-1.0,-1.0,-0.2,1100.0,778.3434459107903,468.31102399988123,468.3110239998813
0.38400000000000034,1.7767779524228324,8.233533743432606,0.024999983263228148,179.99999548734266,4.512657169694575e-06,155.2808616399356,0.6895900139213301,-0.47578538505660617,1.726430595070684,0.0,0.0,0.0,0.0,0.0,0.0,0.0,10.19,-1.0,-1.0,-0.2,1100.0,778.3434459107903,468.31102399988123,468.3110239998813
0.3879999999999981,1.7767779524228324,8.233533743432606,0.024999983263228148,179.99999548734266,4.512657169694575e-06,155.2808616399356,0.6887889030174821,-0.48220297880635055,1.7276908880372521,0.0,0.0,0.0,0.0,0.0,0.0,0.0,10.19,-1.0,-1.0,-0.2,1100.0,778.3434459107903,468.31102399988123,468.3110239998813
