Time_s,X,Y,Z,Roll_deg,Pitch_deg,Yaw_deg,Ref_X,Ref_Y,Ref_Z,Ref_Yaw,vx,vy,vz,p,q,r,T_pert,tau_x,tau_y,tau_z,RPM_0,RPM_1,RPM_2,RPM_3
0.0040000000000000036,1.0221975646044887e-22,-4.0,0.010006999594037988,-7.417734548572634e-19,7.147505149775166e-19,-9.884920825861219e-20,1.4495483636856103e-06,-0.00013860000000000022,7.200000000000012e-05,0.0,2.8463870859018855e-19,-800.0,2.0013999188075973,0.0,0.0,0.0,-10.19,-1.0,0.016891501935607085,1.1547150625617203e-19,397.8715864404006,0.0,0.0,405.12155646392904
0.008000000000000007,1.8068871470470754e-16,-3.99999999999999,0.010010999365430017,-5.72799561161828e-11,1.0342399483730543e-12,1.2032034445771772e-11,4.331198326951511e-06,-0.0004141318104000007,0.00021513340800000038,0.0,2.007265954694742e-14,-444.4444444444433,1.1123332628255573,0.0,0.0,0.0,-0.034338476008469065,-1.0,0.017914181756065108,-1.4055318967825064e-11,674.6288304307266,341.53625653364577,332.3745935613213,679.1893718452362
0.01200000000000001,2.4632185381319208e-14,-3.999999999998429,0.010014999139380212,-3.635205426602489e-09,5.7073043704515714e-11,5.148854659362442e-12,8.62766093120406e-06,-0.0008249423303300271,0.00042854147030131276,0.0,2.4629689001370928e-12,1.571032819358076e-10,0.000999943101949452,0.0,0.0,0.0,0.11268126398239248,-1.0,0.018948681899442394,7.54572837924626e-12,677.6764160267381,348.02991569877474,338.5175571732384,682.4778462344218
0.016000000000000014,1.4086553584459325e-13,-3.9999999999910005,0.010018998925625947,-2.065901405710208e-08,3.234605106857477e-10,-7.289299912987553e-12,1.4321803752097668e-05,-0.0013693934260970014,0.0007113732083620786,0.0,1.4084634603777486e-11,8.998242201032996e-10,0.0009999445910688703,0.0,0.0,0.0,0.2602149945128764,-1.0,0.019995031024344197,1.4317103390514079e-11,680.7198986611781,354.428699860867,344.5698653883292,685.7629996502421
0.020000000000000018,4.0323401225729417e-13,-3.9999999999753735,0.010022998731359518,-5.647261930767465e-08,9.247651099940508e-10,-1.619767411278956e-11,2.1396649637891085e-05,-0.0020458618105514328,0.0010627853561306145,0.0,3.975830161059658e-11,2.4313009798116658e-09,0.00099994798036865,0.0,0.0,0.0,0.40825152287360655,-1.0,0.02105325876490581,1.0705021293142948e-11,683.7590900238444,360.73721112514437,350.5357398004906,689.0446457823872
0.02400000000000002,8.411852552359146e-13,-3.9999999999508002,0.010026998559630356,-1.127902014446576e-07,1.9284758132989548e-09,-2.2637221209448074e-11,2.983537545735363e-05,-0.0028527389233672313,0.0014819422978531074,0.0,7.737341438899346e-11,4.483204461876552e-09,0.0009999529233781974,0.0,0.0,0.0,0.5567797759479896,-1.0,0.022123394270638953,8.187978163858454e-12,686.7938076572823,366.959670822623,356.419059415217,692.3226042764129
0.027999999999999997,1.4673753966039923e-12,-3.999999999917407,0.01003099841101411,-1.8932226287855708e-07,3.3635983072155462e-09,-2.7400467537423653e-11,3.745062812293098e-05,-0.003788430812226221,0.001968016006352204,0.0,1.2157008252838985e-10,6.685793539322887e-09,0.0009999585226704172,0.0,0.0,0.0,0.7057887926366941,-1.0,-0.0020893719867399966,6.495802695039488e-12,692.9761367468192,367.2119731306618,368.1911701445324,692.4563680017351
0.032,2.610914497716331e-12,-3.999999869786134,0.010035388556315918,-0.00029842936960105957,5.892969169754803e-09,1.65201461743561e-11,4.4252015163373896e-05,-0.004851358014907898,0.002520185981773086,0.0,2.0112340094640856e-10,1.3017017593863633e-05,0.0010389914300378735,-0.0004273179159644168,1.4301149089852668e-09,2.5923748467525395e-11,0.854475661355035,-1.0,-0.0025267907580429575,-5.017713706702603e-11,696.1606108413166,372.9846461955045,374.1502472959566,695.5348549613044
0.036000000000000004,3.984846878138782e-12,-3.9999974571891777,0.010046625191543262,-0.005827068187861729,8.879319561514136e-09,6.984177373244644e-11,5.024905811625048e-05,-0.006039955442267087,0.003137639190793574,0.0,2.8525495522229095e-10,0.0002542033195650651,0.001762687424466923,-0.01007661288547046,6.642277408784718e-09,1.191936327275775e-10,0.9905063062493213,-1.0,-0.00296990907876847,-6.296368287806911e-11,699.0666074674066,378.17899284703947,379.52988432258496,698.3341168470245
0.04000000000000001,5.1342569893173754e-12,-3.9999892879471246,0.01007511463565233,-0.024537187862857104,1.1369111298135437e-08,1.141436650347965e-10,5.5451193217065226e-05,-0.007352672262100273,0.0038195700062949476,0.0,3.283039299198098e-10,0.0010702553606088269,0.004211897383826843,-0.04273192724345306,1.0987764762393444e-08,1.9754368452248595e-10,1.105647420980896,-1.0,-0.0034187459410193266,-5.462163813202876e-11,701.5259982648303,382.50393859191536,384.04106250489536,700.6857007179017
0.04400000000000001,6.0600312483019516e-12,-3.9999722343597903,0.010130159309594282,-0.06354149667202658,1.335444319529272e-08,1.4987258029154339e-10,5.986777208317925e-05,-0.008787971783892255,0.004565180147490079,0.0,2.7159763675939433e-10,0.002688204246387866,0.009069688056234057,-0.10759163003373615,1.0311228847111186e-08,1.877866293019752e-10,1.201797063487284,-1.0,-0.0038733241861141953,-4.6434193417188696e-11,703.582917464181,386.06060095780157,387.7856795006261,702.633599960918
0.048000000000000015,6.778581597855884e-12,-3.9999435362932516,0.010219814785401737,-0.129011213186694,1.4857280531398953e-08,1.795144764482954e-10,6.350806239256978e-05,-0.010344331344436741,0.005373678620505558,0.0,2.1526267493091224e-10,0.005054322420759108,0.016178047600732194,-0.20235904985782058,8.149223114107817e-09,1.5830806572621178e-10,1.281178676692201,-1.0,-0.004333653758318514,-4.080119988369684e-11,705.2869867380972,388.95365584154297,390.86896162403525,704.2273316161727
0.05200000000000002,7.2988797326554e-12,-3.9999007223505685,0.010351031342995537,-0.22629167851856377,1.5889223735782074e-08,2.0408661098947346e-10,6.638124855746636e-05,-0.012020242194324524,0.006244281659414513,0.0,1.6096516980557753e-10,0.008069962083012642,0.02524491603724624,-0.32322848716447244,6.0487993232556095e-09,1.3512634101359808e-10,1.3457682365156938,-1.0,-0.004799749037081784,-3.610864075346995e-11,706.6816476544134,391.2716748887429,393.3799215105648,705.5102492452753
0.05600000000000002,7.632252220611916e-12,-3.999841539657532,0.01052976576908149,-0.3599956321013553,1.647237273717254e-08,2.2407064912387328e-10,6.849643239290097e-05,-0.013814209385292885,0.007176212667716822,0.0,1.0888078739770062e-10,0.011645506574175693,0.03600558053874803,-0.4666652952475058,4.025907944862569e-09,1.151235189340442e-10,1.3973501369057835,-1.0,-0.005271624769681679,-3.1772277485130566e-11,707.8055952198115,393.0912114651793,395.3954629942357,706.5209754613824
0.06,7.79876726317038e-12,-3.999763905568883,0.010761032407761483,-0.5340500986229562,1.664670835671951e-08,2.419783655583442e-10,6.986263378020909e-05,-0.015724751658429972,0.008168702160263459,0.0,5.992645547948237e-11,0.015700607899929588,0.04822305532154271,-0.6295047067252473,2.121601960197949e-09,9.676785947659296e-11,1.4376369185419304,-1.0,-0.005749295662444596,-3.018305740720746e-11,708.695454540371,394.482645184857,396.9862199421375,707.2960805727632
0.064,7.811235710909279e-12,-3.999665841696503,0.011049016160644727,-0.7517903783205401,1.6441307513420938e-08,2.5992081033952715e-10,7.048799819655707e-05,-0.017750395628657396,0.009220987705621773,0.0,1.4683472361281177e-11,0.020162737725758377,0.061683517944095954,-0.8088910725820299,3.6116265212787016e-10,7.934967101344529e-11,1.468141916735982,-1.0,-0.006242018400070745,-3.097586734770854e-11,709.3844255412636,395.50443207291187,398.2148600132527,707.8664733040894
0.068,7.669106110168125e-12,-3.9995454084487703,0.011397193730588407,-1.016060196298747,1.5860845680232578e-08,2.7984036928682486e-10,7.038139317247745e-05,-0.01988968715242713,0.010332313868878385,0.0,-2.8229001186053413e-11,0.024968946219466766,0.07620149201467517,-1.0023471755574762,-1.3075806239841334e-09,6.178723654683305e-11,1.4901589309787386,-1.0,-0.0067318824430686215,-3.40403697510629e-11,709.897569091021,396.21107880219444,399.1282627489609,708.2615386938982
0.07200000000000001,7.375822673204428e-12,-3.9994006565266016,0.011808415100520457,-1.3292814563561244,1.4921866286262848e-08,3.044527580186842e-10,6.95516061790362e-05,-0.02214118544460181,0.011501932154876639,0.0,-6.97597660929851e-11,0.030066131022159482,0.0916206303483241,-1.2077848244417608,-2.9145103857181413e-09,4.135361382556369e-11,1.5048390653483024,-1.0,-0.007227591733835309,-4.035983474995378e-11,710.260020701867,396.64481665028035,399.77257098002195,708.5042687097103
0.07600000000000001,6.935082831003031e-12,-3.9992295894307883,0.01228496353807219,-1.6935073921053159,1.364651414555326e-08,3.363644370608049e-10,6.800734527219746e-05,-0.02450346297002206,0.012729100951885338,0.0,-1.0996419663388306e-10,0.035408892480795325,0.10780726933150486,-1.4234188658141853,-4.451422365228874e-09,1.4587034163072404e-11,1.5132317149121692,-1.0,-0.0077291607851777315,-4.9918478763250305e-11,710.4936101632791,396.8452056928266,400.18743302165984,708.6164727486827
0.08000000000000002,6.3503282303362365e-12,-3.999030129844111,0.012828614142573098,-2.1104748430850604,1.2058010406077362e-08,3.7909874566871954e-10,6.575723973231462e-05,-0.026975105335898017,0.014013085475695665,0.0,-1.4824727939837297e-10,0.04095771337843531,0.12464496982185214,-1.6476943222602407,-5.897472707511844e-09,-1.7481924942883538e-11,1.516285612539543,-1.0,-0.008236604119370227,-6.389490037656372e-11,710.6179885617311,396.84755501061386,400.4082130551794,708.6177883995083
0.08400000000000002,5.617825141283855e-12,-3.9988000878729038,0.013440694506999095,-2.581658522533649,1.0167640662388869e-08,4.365219846119163e-10,6.280984069878365e-05,-0.029554711185019043,0.015353157714143143,0.0,-1.8475529583239004e-10,0.04667907655974226,0.1420349262337246,-1.8792918307157023,-7.256600888804731e-09,-5.546694234835107e-11,1.5148426713212257,-1.0,-0.008749936147943432,-8.283516808053097e-11,710.6505383639087,396.68290035446194,400.4659773591176,708.5255898573422
0.08800000000000002,4.7348580206785184e-12,-3.9985371360718482,0.01412213207519984,-3.1083156209943175,7.993056978023182e-09,5.12381164664009e-10,5.9173621799893534e-05,-0.032240892089775625,0.016748596372051543,0.0,-2.201930388459572e-10,0.05254501555585818,0.1598946789829332,-2.1171104187464005,-8.550102832651818e-09,-1.0165779449100078e-10,1.509663053814315,-1.0,-0.009269171452464106,-1.0675972052866065e-10,710.6069161578055,396.3790735940583,400.3885619609078,708.3555307505461
0.09200000000000003,3.701544245415697e-12,-3.9982387897619756,0.014873491452469249,-3.6915233685994755,5.55777750432376e-09,6.115010632814469e-10,5.485697977790895e-05,-0.03503227244698757,0.018198686816595647,0.0,-2.542618900145019e-10,0.05853236816267582,0.1781559298797396,-2.3602382917645905,-9.767105317745059e-09,-1.5563136336617712e-10,1.5014440529439008,-1.0,-0.009794324525779968,-1.3708271102518196e-10,710.5014602937468,395.9615020942558,400.20136959599495,708.1219520615707
0.096,2.508158366426565e-12,-3.997902390827903,0.015695005517656208,-4.332212655768647,2.8683466525956395e-09,7.388989230834232e-10,4.986823510941985e-05,-0.037927489373532526,0.019702721023079815,0.0,-2.8693902937689044e-10,0.06462206216857116,0.19676245042653523,-2.60792487815578,-1.0906645024294585e-08,-2.1736390767680486e-10,1.4908314830554996,-1.0,-0.010325409645854208,-1.7422871410748524e-10,710.3474390043126,395.4537027812845,399.92786238414504,707.8381303365773
0.1,1.141667819432851e-12,-3.997525096069851,0.016586596919582763,-5.031195143711651,-7.355834686702178e-11,9.005070660850963e-10,4.422449716066749e-05,-0.040926915856253215,0.02125999752112935,0.0,-3.195427481566656e-10,0.07079851760713855,0.21566833496259066,-2.8595574786090174,-1.2019900418806887e-08,-2.874607521320699e-10,1.4784382037770967,-1.0,-0.010759143335106875,-2.1947468551277588e-10,710.1449083230394,394.90055827910874,399.5680188189429,707.5292492036605
0.10400000000000001,-4.0776643678819887e-13,-3.997103867625594,0.017547895674365013,-5.789188402641179,-3.2583071905489967e-09,1.1028574191095216e-09,3.79338290255812e-05,-0.04402919340112213,0.022869821341291532,0.0,-3.522708067286227e-10,0.07704916970603738,0.23483661394905742,-3.1146427189852934,-1.3111706470715251e-08,-3.669387620472809e-10,1.4648513484116583,-1.0,-0.01129588191792914,-2.737670470323499e-10,709.9302375920655,394.27986858212324,399.18636361329175,707.1830046884609
0.10800000000000001,-2.1499544191588426e-12,-3.996635466157372,0.01857825056747019,-6.606837373072785,-6.671837404630799e-09,1.3516089723902976e-09,3.100422033044986e-05,-0.047232976113401874,0.02453150396204348,0.0,-3.846665862261357e-10,0.0833640701729857,0.25423809827083027,-3.372791088964958,-1.4160234724438296e-08,-4.568955992224505e-10,1.450644336670968,-1.0,-0.011838523569931637,-3.3635713697008094e-10,709.7034413778331,393.6338719355046,398.7828796751445,706.8230416852476
0.11200000000000002,-4.095731941931298e-12,-3.9961164462607575,0.019676735425826233,-7.4847330478873335,-1.0302869015783653e-08,1.6537053559168546e-09,2.344358782790703e-05,-0.050536930594905875,0.026244363257203772,0.0,-4.1645998448896716e-10,0.08973557041139528,0.27385046667265445,-3.6337047250293493,-1.5158454178779484e-08,-5.560181578263489e-10,1.4363869227890467,-1.0,-0.01238708245252395,-4.0898123346496494e-10,709.4762525106443,392.9836406737295,398.37841687208874,706.4611303489597
0.11600000000000002,-6.254085501864177e-12,-3.995543152809939,0.02084215275695829,-8.423430450426808,-1.4140021661456364e-08,2.018370071747969e-09,1.5259775986411742e-05,-0.053939735842042105,0.02800772344374488,0.0,-4.4736348176951794e-10,0.09615806589149367,0.2936575352592901,-3.897167623473866,-1.61081355549488e-08,-6.598573728532671e-10,1.4226503395013987,-1.0,-0.012941572752849299,-4.945914395732326e-10,709.2604491319094,392.35044019663405,397.9939629476691,706.1090953006285
0.12000000000000002,-8.643011573654684e-12,-3.994911722534581,0.02207302596900318,-9.423458873555086,-1.818419060142351e-08,2.4546850552574107e-09,6.460557575257718e-06,-0.057440083144634085,0.02982091503000352,0.0,-4.781793119390813e-10,0.1026275746442308,0.31364800763282136,-4.163028956557751,-1.7033521129765866e-08,-7.710926156803574e-10,1.4100303575849091,-1.0,-0.01350200846338661,-5.934054977899221e-10,709.0683293489881,391.7565877835726,397.6514870643841,705.7792928772889
0.124,-1.1276648546658524e-11,-3.9942180839525623,0.02336759485656038,-10.485336190734841,-2.2427141547021903e-08,2.9714868643480336e-09,-2.946365754856266e-06,-0.061036675985513426,0.031683274764285965,0.0,-5.090536598575988e-10,0.10914154966876755,0.33381493839799214,-4.431195884938367,-1.7947228465508888e-08,-8.875016017362063e-10,1.3991409060951403,-1.0,-0.01406840384527723,-7.055147040516064e-10,708.9125774078248,391.2252061813281,397.37369248090704,705.4844773092564
0.128,-1.4164299138118427e-11,-3.9934579591217427,0.0247238065374336,-11.609581123930214,-2.6857577532663884e-08,3.5807637924680092e-09,-1.295336289566294e-05,-0.06472822994087846,0.03359414558386552,0.0,-5.394048569512944e-10,0.11569877316278021,0.3541554443371681,-4.70162966892404,-1.883288889680086e-08,-1.00670482114833e-09,1.3906234490795357,-1.0,-0.014640773002312132,-8.349692604023094e-10,708.8064521988039,390.78055032604266,397.1843341249806,705.2379909027593
0.132,-1.731831402322253e-11,-3.9926268665237608,0.026139303328620685,-12.796724754348865,-3.146685364258524e-08,4.294216219769011e-09,-2.355287270953686e-05,-0.06851347258141294,0.0355528765643691,0.0,-5.686750191027012e-10,0.12229936815257522,0.3746707760858473,-4.974346575918255,-1.9687330930037013e-08,-1.1222997746876685e-09,1.3851534867051027,-0.8954899600294737,-0.015219129906161099,-9.819315724721247e-10,695.9429078029264,412.86748580144297,419.1716217137397,692.1641684771278
0.136,-2.0759521961686183e-11,-3.9917201412735275,0.027611381825959888,-14.047299358297861,-3.625293725290673e-08,5.121285826286153e-09,-3.473740346204791e-05,-0.07239114337415976,0.03755882286955032,0.0,-5.978138064334553e-10,0.1289437150283277,0.3953629829936115,-5.249373522820319,-2.0522285712086555e-08,-1.2430658124044764e-09,1.3834993848192365,-0.7627060605810578,-0.015803488522174808,-1.1442508494392629e-09,679.342912826776,439.5367470032999,445.68962169024655,675.3222178527631
0.14,-2.4497661068388375e-11,-3.9907333291318587,0.02913639273755278,-15.361341571072908,-4.119906298227475e-08,6.072123448121503e-09,-4.649953225882537e-05,-0.07635999358514386,0.03961134570144606,0.0,-6.267890987686117e-10,0.13561102396867108,0.4161680772062752,-5.525860273853931,-2.1339874735441883e-08,-1.3678394105293542e-09,1.3876586793888785,-0.6246687546993313,-0.016393863103097324,-1.323151135469337e-09,661.7724733115523,465.8323876667516,471.85800084594075,657.4896479759883
0.14400000000000002,-2.852793041113538e-08,-3.9896627637884294,0.030709099426617332,-16.73781137638468,-1.2279829895018418e-07,-2.5153504120416196e-05,-5.883190448670135e-05,-0.08041878618273879,0.0417098122509138,0.0,-2.8645223867573397e-06,0.14223153876067118,0.436877584946481,-5.801050715988492,1.2327586211072493e-05,-4.214301158343089e-05,1.4009610117657023,-0.4825884693616489,-0.01665807648401182,2.939011164195495e-05,643.3036336495588,491.70484008238196,497.6166387664182,638.9098393136
0.14800000000000002,-4.32812476152605e-07,-3.9885069914947495,0.032322863861370316,-18.17468251792201,-1.271937668586364e-06,-0.00038892230688517915,-7.172723325910246e-05,-0.08456629574177169,0.0438535956485469,0.0,-4.3733901204319865e-05,0.1485716426763563,0.45713027286251523,-6.070717440590135,0.00020229452158319617,-0.0006479453857152015,1.4264093467864802,-0.3376444050916785,-0.01318831915610104,0.00042597412165233683,623.1238894392216,517.076847543123,522.9446439148878,620.7215770254566
0.15200000000000002,-1.318150945909081e-06,-3.9872682489730513,0.033970716723118015,-19.669830190394123,-3.952195903080981e-06,-0.0012079129764861272,-8.51782988656586e-05,-0.08880130834836118,0.04604207491596505,0.0,-0.0001341394409220916,0.15411156462612746,0.4765422298577867,-6.331946964040004,0.0006628365438963623,-0.002001104622873329,1.4648796362274161,-0.19004803285106164,-0.012249909612218656,0.0009727099158159769,602.3393689165448,541.3783234261131,548.5147592427438,601.7863205225995
0.15600000000000003,-2.643876933832183e-06,-3.98594983026099,0.0356452316805767,-21.22089028069187,-8.248888420785965e-06,-0.002475212268433945,-9.917794822599806e-05,-0.09312262150548276,0.04827463491747721,0.0,-0.00025417649858625974,0.15836071968975482,0.49480772805760764,-6.583494650422331,0.0013535151684592797,-0.00382386534156098,1.5175136701974072,-0.04018341466444397,-0.012922532869456518,0.0015301199983000036,581.0537810250883,565.0844790979835,573.9059203257265,582.0339343123235
0.16000000000000003,-4.342748151897981e-06,-3.984555859672858,0.037338201272343385,-22.824903119585038,-1.4159169163625524e-05,-0.0041619907687849515,-0.00011371937669415399,-0.09752861393654721,0.05055066631211419,0.0,-0.0003667647143658074,0.1611208948103208,0.5116574977118873,-6.823891015792919,0.002129178774485597,-0.005576552933880082,1.5861257256505608,0.11113136986070438,-0.013940235666632762,0.002072350235362015,559.2305973813403,588.4181344458599,598.8459406732691,561.7031094686735
0.16400000000000003,-6.327897236900261e-06,-3.9830911439786445,0.039040767035444915,-24.47801990733314,-0.00018814525760000374,-0.006095167343723778,-0.00012879555942940774,-0.10201811087453971,0.052869565506028296,0.0,-0.00046454038767039665,0.16240939906964552,0.5268183541379795,-7.050232806583774,0.0025945431371221144,-0.007071518438861568,1.6722910012553274,0.26269263301268664,-0.015044367654875993,0.002429737264354399,537.2874972486587,611.5800222772014,622.9749187779336,540.7174512599042
0.16800000000000004,-8.347567818327222e-06,-3.981556177945421,0.04074712039511054,-26.172891154181382,-0.0014127122978128367,-0.007512535872280538,-0.00014439953663797564,-0.10658994864348735,0.055230734605257216,0.0,-0.0005242889935109378,0.1625876998808148,0.540555385555112,-7.254275174380301,0.0007912228590136313,-0.007814177967700082,1.7700945525136695,0.4101835966193004,-0.017100823261064498,0.0019069998755445743,517.1377951414895,634.7503006083379,644.804870341672,518.1787700594491
0.17200000000000004,-1.034424457026967e-05,-3.9799464237248077,0.04245499427436594,-27.89834047014202,-0.003778909156976978,-0.008240660435677975,-0.00016052441304299845,-0.11124297456725898,0.05763358136884959,0.0,-0.000541383717881961,0.16237200275733132,0.553811089900133,-7.422381083583464,-0.003576244478806068,-0.007794463718747945,1.8725265868778604,0.5486620398690027,-0.0169287093597764,0.0011605801209623747,497.8939808328284,656.6284645032348,664.2576736804057,496.2929912871708
0.17600000000000005,-1.2321550528298861e-05,-3.978256915490017,0.0441623118235257,-29.64251013911807,-0.007282000713304271,-0.008196514742076276,-0.00017716335735856812,-0.11597604687906347,0.06007751916234959,0.0,-0.00052735616613659,0.1623933119534881,0.5675058770762598,-7.542616754884255,-0.009213290650130553,-0.007455734134125444,1.9792659652407927,0.6765894356516968,-0.016023875446481393,0.00028892078608966576,480.012679628478,676.8137690038328,681.6566249088162,475.33751539695635
0.18,-1.4286752105707844e-05,-3.9764825866467293,0.04586698039251028,-31.393268422993287,-0.01193913446714077,-0.007290891541923023,-0.00019430960176776245,-0.12078803463164113,0.0625619669116377,0.0,-0.0005010062121358655,0.16286187108805966,0.5819098526169085,-7.610931780170276,-0.01503373020552561,-0.007142601799938285,2.0904037119088383,0.7928480100953781,-0.014979564544596565,-0.000718661706429034,463.99333062673935,695.2575745769417,697.0785867103417,455.52148408938115
0.184,-1.62512662882147e-05,-3.9746182938263948,0.0475669021398111,-33.13842842424648,-0.017768335432705444,-0.005438326558312083,-0.00021195644140465972,-0.12567781760814373,0.06508634905712558,0.0,-0.0004618259881190216,0.16386406224568256,0.5970897262887125,-7.626370065483094,-0.021126894216305387,-0.006900862844983492,2.20600991415083,0.8965483544663184,-0.01378373611428686,-0.0018615182518750396,450.2037173513943,711.9896501123086,710.5452524160467,437.1813341366652
0.188,-1.8231051195523747e-05,-3.972658841226425,0.049259985542554924,-34.865953128785705,-0.024784035677728966,-0.0025617547281012467,-0.00023009723384030033,-0.13064428623369692,0.06765009550830155,0.0,-0.00040920827643485476,0.16548514213661178,0.6131110767146662,-7.5889063635300715,-0.027499589061860057,-0.006770897965302984,2.3261315544994696,0.9870282152006703,-0.012430364763446836,-0.0031334127876441577,438.9714813515373,727.0435122868184,722.0951215428933,420.6623078704782
0.192,-2.024698156306161e-05,-3.9705990050600346,0.05094415799201225,-36.56414332334454,-0.03299609883945021,0.001404327465995031,-0.0002487253985725717,-0.13568634148764158,0.0702526415986251,0.0,-0.00034253296784104054,0.16780864391583566,0.6300363845118647,-7.499389812503533,-0.0341243645095977,-0.006793033812227843,2.450789940157385,1.0,-0.010914573328900612,-0.00452407562859958,443.1556636452986,732.9914118900979,724.223128228756,419.6262985578864
0.196,-2.2325250092052235e-05,-3.968433552382934,0.052617388239155384,-38.221881125455134,-0.04240743221118155,0.006510277647736771,-0.00026783441651998387,-0.1408028948164479,0.07289342804076722,0.0,-0.00026120985045375797,0.17091583518204967,0.6479241745323522,-7.359597982195282,-0.0409544920241967,-0.007005817113253094,2.5799603098445085,1.0,-0.009233880433791412,-0.0060185798234656425,450.1184713341573,737.6146410718043,724.7449676905222,421.2144489167451
0.2,-2.4497869110702097e-05,-3.966157230806813,0.05427775692464415,-39.82946994857686,-0.053001167337051916,0.01278675994179222,-0.000287417829519309,-0.14599286804729766,0.07557190088219416,0.0,-0.00016475807367438401,0.1748823784496919,0.6668342003931478,-7.1733595266723045,-0.04790721575547306,-0.007432916720717125,2.7134735292606145,1.0,-0.007399653404368778,-0.007596067675051392,457.2510974045134,742.4146113125183,725.2311765105724,422.7987366251322
0.20400000000000001,-2.680300613577158e-05,-3.963764820254684,0.05592342846432954,-41.37891621968314,-0.06474679529526584,0.02022766506187338,-0.00030746923982705627,-0.1512551933023301,0.07828751146109222,0.0,-5.292585869918697e-05,0.17977339383806962,0.6868216910265994,-6.946734267421128,-0.054858576651392196,-0.008106361461032642,2.85121404214111,1.0,-0.005418876758351755,-0.009214922910578441,464.4614947925331,747.3339589383781,725.7327380350021,424.4634217333565
0.20800000000000002,-2.9285239174465892e-05,-3.961251118356775,0.05755269647780951,-42.86368822982305,-0.07759894432015668,0.028793505082337842,-0.0003277996317946414,-0.15658942258028827,0.08103971636263091,0.0,7.419351432746328e-05,0.18564104563404368,0.7079365751801632,-6.686679727459745,-0.061659336649557715,-0.009059734294706518,2.9929715086419213,1.0,-0.0011727307970998916,-0.01083598442621609,471.27647959826095,752.5613101346536,726.0432597861566,426.71236643221135
0.21200000000000002,-3.199547592046303e-05,-3.958611044147127,0.059163888047094916,-44.27843498269597,-0.09149560658718875,0.03841802901932792,-0.0003484049257480355,-0.16199450100064308,0.08382797737556208,0.0,0.00021611208267305186,0.19252755540553004,0.7302090098702703,-6.399260536713954,-0.06816101315366514,-0.010315210135546178,3.138725862544357,1.0,0.0011935746021217147,-0.012426445771904583,478.39675874546225,757.579048043876,726.6955269180967,428.7733286899788
0.21600000000000003,-3.4990902980568e-05,-3.9558396936646107,0.06075533548942404,-45.61876607999542,-0.10636096785558054,0.0489880928875182,-0.00036928108107282657,-0.16746938379086265,0.08665176144915256,0.0,0.000371878577557856,0.20046933903203343,0.7536399915617491,-6.089422522017439,-0.0741981322434214,-0.011884148631650226,3.288513341450211,1.0,0.0036672769121855273,-0.013928881938236434,485.34929412171937,762.5477408019416,727.5261525211166,431.1693931578238
0.22000000000000003,-3.833494198048263e-05,-3.9529322676968692,0.06232548357881701,-46.88108120248223,-0.12210235232869251,0.060346227298840885,-0.0003904240958909661,-0.17301303620272815,0.08951054065044778,0.0,0.0005399100678220059,0.20950006883790917,0.7782196766053884,-5.761197571001778,-0.07958453443727072,-0.013783844880643095,3.442152490481743,1.0,0.006229862824316163,-0.015286933800648859,492.03437021306183,767.3956863629921,728.6037730923583,434.0039163857825
0.22400000000000003,-4.209637174626911e-05,-3.9498841483542897,0.0638728375817354,-48.06242175005102,-0.13862468501045863,0.0723163607589311,-0.00041183000674000056,-0.17862443342929302,0.09240379212186405,0.0,0.0007179779887969138,0.2196528600619519,0.8039314258829412,-5.417882654014688,-0.08416188274302099,-0.01602048597707113,3.5995638134818684,1.0,0.008868849239266586,-0.01647245997533685,498.41097334632485,772.0889496253341,729.9624107444547,437.32206916366533
0.22800000000000004,-4.634876560996421e-05,-3.9466909008757423,0.06539598776051374,-49.16035417582554,-0.15584381061597471,0.08469558748408723,-0.00043349488825476855,-0.18430256052248067,0.09533099803910693,0.0,0.0009033497646293914,0.23096215194622874,0.8307438941754512,-5.062168939085561,-0.08784109752466672,-0.01859305449386895,3.760616236048986,1.0,0.011590119987267946,-0.017446926432496592,504.4161823029509,776.5831713008789,731.6453239617057,441.1895741627275
0.23200000000000004,-5.117025546346224e-05,-3.943348189055798,0.06689371108571307,-50.172877274702735,-0.1736649103452669,0.09726336155453497,-0.0004554148528515468,-0.1900464123113163,0.09829164556941349,0.0,0.0010927783457019753,0.24346490171750781,0.8586237020903683,-4.696259557291165,-0.09054431889458994,-0.021486180137208086,3.924969626628468,1.0,0.01437847579581499,-0.018181423299438823,510.00412701115124,780.8399046475639,733.6813008744057,445.6373207784368
0.23600000000000004,-5.664218014451495e-05,-3.9398519028985954,0.06836487698227886,-51.09834154889894,-0.19200050225364523,0.10979069209077537,-0.00047758605041462566,-0.19585499332078773,0.10128522683011586,0.0,0.001282499582822426,0.257201586173814,0.8875289497094532,-4.321960400320328,-0.09220884825862936,-0.024680492192337214,4.092469269279884,1.0,0.01722583314300105,-0.018657042365718413,515.1518013952785,784.8372256052721,736.0887616849972,450.67990923730554
0.24000000000000005,-6.284855807485097e-05,-3.9361981024002453,0.06980851975561414,-51.93538682552128,-0.21076289645731955,0.12203965873798853,-0.0005000046679852972,-0.201727317691331,0.10431123884752393,0.0,0.0014682703679785732,0.2722169955312069,0.9173990968299683,-3.9407488837718296,-0.09280298855147204,-0.028136354975790458,4.262810587700867,1.0,0.020124289242168976,-0.018853946666256248,519.8301517074104,788.5495768676144,738.8835063135527,456.32609803995143
0.244,-6.987513720885878e-05,-3.9323830335812913,0.0712238458535069,-52.68289015524271,-0.22986392950920678,0.13376863075882117,-0.0005226653952425756,-0.20766146842338692,0.10736918351612454,0.0,0.0016453775468105753,0.28856063477380484,0.9481676076615797,-3.553837191259324,-0.09230370891820529,-0.03181931119840477,4.435669086789242,1.0,0.023078128372574325,-0.01875801267867801,524.0173563713597,791.959141937807,742.0716622312893,462.57222993102454
0.248,-7.78083191212774e-05,-3.9284031560925325,0.07261023188152536,-53.339923038856526,-0.2492149160430075,0.14473848062109,-0.0005455645110840409,-0.21365648997119116,0.11045856755809541,0.0,0.0018086624982274952,0.3062868702932021,0.979756947655386,-3.1622198463627975,-0.09070440736349586,-0.035684709724026945,4.610718885801175,1.0,0.026036720165656998,-0.01836220610434549,527.7121608365921,795.0502497280271,745.6562650302792,469.38860635180737
0.252,-8.673507910214094e-05,-3.924255019628292,0.07396733922163651,-53.90571584351801,-0.26871504776852445,0.15470211792632138,-0.0005686983304785121,-0.21971143606417895,0.11357890248313054,0.0,0.001952482251714744,0.32545471705110296,1.0120915678372264,-2.7667114890437308,-0.08798944327079354,-0.039682700732246654,4.787396132145222,0.9799114220488159,0.028998010039594516,-0.017647352713565923,534.1271230662011,795.6215295626945,747.3317292596423,480.3865902473502
0.256,-9.674156088816277e-05,-3.9199353359514695,0.07529507493073731,-54.379651039051495,-0.28825447359773754,0.16341487697754228,-0.0005920632041658552,-0.22582536962974872,0.11672970454857585,0.0,0.002070675228262541,0.34612748470376076,1.0450960183410714,-2.3680172376302155,-0.08413612386664937,-0.043758407035885405,4.9652073231826055,0.9110057009473633,0.03193034456254998,-0.01660606836733218,547.6836300076866,790.5323441853744,743.7933506832891,500.25411771597055
0.26,-0.00010791198045773559,-3.915440991875632,0.07659360357783979,-54.76149865209233,-0.30771215905489574,0.17063857537967606,-0.0006156555183591028,-0.23199736271662114,0.11991049471987207,0.0,0.00215659041028015,0.368371009763749,1.0786816724196764,-1.9672118294788365,-0.07913838474621122,-0.0478508467158014,5.143627170278361,0.8356142805480494,0.03480131120685113,-0.015235792498843607,561.3978995739479,784.3196859089944,739.9084171336686,521.0214239493406
0.264,-0.00012032741805910806,-3.9107690664348325,0.07786335996716956,-55.051962094715726,-0.3269560016820798,0.17614668443742015,-0.0006394716944488732,-0.23822649641878943,0.12312079863130282,0.0,0.0022032160845949305,0.3922475785870694,1.1127468813058772,-1.5667479292133204,-0.07301261146469082,-0.05189451563025264,5.322096421821126,0.7548108880688552,0.03757555219061334,-0.013540253980585872,575.0948061145704,777.0656113156133,735.7855787566571,542.3876907414689
0.268,-0.0001340644886597058,-3.905916859920803,0.07910504346409662,-55.252762881803974,-0.3458500748516659,0.17972723826744713,-0.0006635081887100688,-0.24451186080005677,0.12636014654704567,0.0,0.0022032912943599748,0.41780732001762405,1.1471821542265335,-1.1704620743793295,-0.06579714661015866,-0.05583495410433988,5.500058793285326,0.677004999607093,0.04022286106308683,-0.011527042711840463,587.5460017910599,769.6776849563225,732.3937714848479,562.9679526752369
0.272,-0.00014919386982616982,-3.9008819424895527,0.08031958863246927,-55.366370164045044,-0.3642496577654587,0.18119445167757342,-0.0006877614920108391,-0.25085255481915625,0.1296280733225239,0.0,0.002149462632530233,0.4450838666738951,1.1818676101107766,-0.7823617526387115,-0.057558272987148495,-0.059616378051067606,5.677009222836294,0.5960912587134042,0.0427040446422314,-0.009217903309803334,599.733478936887,761.4734441678644,728.9891969961183,583.6948589705686
0.276,-0.0001657799129386578,-3.8956620660848817,0.08150823423303306,-55.39616032407826,-0.3819904970810598,0.18039301346129952,-0.0007122281295237904,-0.2572476862554492,0.1329241183660568,0.0,0.0020344610329161203,0.47409277465095334,1.2166872796302484,-0.40614584635660833,-0.048375018922806955,-0.06316110262894063,5.852295180383703,0.5132370433597586,0.044977982802633834,-0.006640657731765093,611.5403093457882,752.576256652769,725.6669850361574,604.3232011878349
0.28,-0.00018387987607709945,-3.890255136034318,0.08267254129143173,-55.34637145158491,-0.3989085365011967,0.17718492293963017,-0.0007369046604394262,-0.2636963716351976,0.13624782560080612,0.0,0.0018512387688142528,0.5048285781340087,1.2515426604092483,-0.04557735734366285,-0.038324317321356674,-0.06640710713749723,6.02521783031688,0.42962096643928727,0.04702031681586655,-0.003808991451475482,622.8321504080526,743.0981578993312,722.5402813265456,624.6604594357844
0.28400000000000003,-0.00020354192159115556,-3.8846593508204483,0.08381427928936151,-55.221456253658246,-0.41481730217823054,0.1714653809469012,-0.0007617876776818011,-0.2701977361584063,0.1395987434270168,0.0,0.0015929842135925323,0.5372666990427708,1.2863322080568316,0.2966439648669358,-0.02747901589400279,-0.06928468921206996,6.195299099859331,0.34572789763713163,0.048765038106575335,-0.0007558543186679282,633.6160711883671,733.0973910529744,719.6260313730277,644.6029961116463
0.28800000000000003,-0.00022480567871844103,-3.8788730073230013,0.08493556509150565,-55.026857306370864,-0.4295009659350672,0.1631628216900978,-0.0007868738076263735,-0.27675091362623094,0.1429764246845496,0.0,0.0012533328047990954,0.5713623213620838,1.3209664399295815,0.6178080528339198,-0.01590054215313962,-0.07170552220320964,6.361772374283683,0.2629657776327208,0.05016446032290567,0.002484410555585492,643.7668937740222,722.7423622147599,717.0423425270112,663.9333506331398
0.29200000000000004,-0.00024770077783913046,-3.8728946119064296,0.08603876298844587,-54.768476848876766,-0.4427221524584107,0.1521947584496775,-0.0008121597098200392,-0.28335504636894726,0.14638042661570336,0.0,0.0008261326659100742,0.6070488214214155,1.355370573226145,0.9151375667146333,-0.003585470552288493,-0.07356857269827848,6.524062885197393,0.18219489772551706,0.05115454902969581,0.005927679590774477,653.1740246862786,712.0817864896648,714.9127515755116,682.5958031406345
0.29600000000000004,-0.0002722452560666844,-3.866722816601244,0.08712651029220943,-54.45260382970259,-0.4542701547750302,0.13855929793655064,-0.0008376420767033301,-0.2900092851744779,0.1498103108283251,0.0,0.00030585432419816586,0.644236317711546,1.3894873914236707,1.1862682478138342,0.009372015069947151,-0.07484297939886071,6.6815360843153275,0.1042259121979594,0.05172305648435069,0.00948338017332983,661.8762861071611,701.3046524083662,713.2116675414412,700.4111014994553
0.30000000000000004,-0.0002984448920529653,-3.8603564614599937,0.08820166287312696,-54.08577022158606,-0.46392792227119223,0.12228923498463078,-0.0008630897645997345,-0.2967108047026846,0.15326564325920558,0.0,-0.00031191361164232536,0.6828166281663226,1.4232675032869087,1.4297761949712127,0.022793652672010327,-0.07548215164966618,6.833659306264056,0.029732524133011806,0.05448551875320133,0.01311125505435835,669.5212739413179,690.8578615181342,711.6444696903201,717.6134058474195
0.30400000000000005,-0.0003262923915860303,-3.853794586135534,0.08926725848108404,-53.674602294677705,-0.4714812295742957,0.10343638549477145,-0.0008885022735403307,-0.30345879633019235,0.15674599413775817,0.0,-0.0010302433702195112,0.7226652385234709,1.4566715041775353,1.6447636219679738,0.03656074350066909,-0.07544476805147175,6.979967409615657,-0.04076405773765901,0.0542598414391826,0.016787921888410787,676.7600669699149,680.187860914611,710.8640023825562,733.5378174685173
0.30800000000000005,-0.00035576671562844846,-3.847036445539215,0.09032647346627369,-53.225644184275204,-0.4766871953360422,0.08206598622184053,-0.0009138791108222667,-0.31025245946411084,0.16025093794997916,0.0,-0.0018515093641058723,0.7636455108834861,1.489666826167236,1.831022469536035,0.05066006882337439,-0.07468091880704124,7.120077340673385,-0.1069375760646899,0.053474328439453406,0.02049575558064602,683.2736692351647,669.6541907902139,710.5874775812706,748.4789354473887
0.312,-0.00038683257875535423,-3.840081431799408,0.09138265379156994,-52.7456263093759,-0.47930972795559024,0.05826137841644526,-0.0009392197909393038,-0.31709100147449026,0.16378005340268725,0.0,-0.002777426095895011,0.8056092126685828,1.522241232620787,1.9883611006088227,0.06508641781910354,-0.07315860153079261,7.2535387359652965,-0.16814938036699434,0.052101312017038756,0.024211104144226527,689.0280598071462,659.3660307741418,710.8565757650808,762.3822756163344
0.316,-0.00041943912922013694,-3.8329291115650035,0.09243925007817619,-52.241177374229785,-0.4791014348242714,0.03215513243093287,-0.0009645238355129373,-0.3239736376273009,0.1673329233880404,0.0,-0.00380881240654177,0.8483980176404972,1.554402908804089,2.1166261305055505,0.07978941829636904,-0.0707916640862121,7.380027698420345,-0.22407968803996492,0.050082103339113254,0.027873207883603996,694.0828949509743,649.4479122501031,711.6318150415815,775.1838668205492
0.32,-0.00045351938286199926,-3.8255791670557917,0.09349982987644086,-51.71898860858098,-0.475867820319751,0.003901918218165256,-0.000989790773224083,-0.33089959101793204,0.17090913494832732,0.0,-0.0049450249326338305,0.8918429502395664,1.5861805605490078,2.215818278158744,0.09464235202878254,-0.06759248173898529,7.499192137295193,-0.27421925561542526,0.04743945696513087,0.0314509678901558,698.4210565879876,640.0250348122752,712.9232513884884,786.8415468853706
0.324,-0.0004889892380434942,-3.8180314955521046,0.0945679539803295,-51.18525834288605,-0.4694031665015467,-0.026322675478091664,-0.0010150201397453333,-0.3378680925052077,0.17450827924103268,0.0,-0.006184097753687714,0.9357708298438594,1.6176107672245164,2.286669808774339,0.10953838702153924,-0.06353508590578563,7.610927301608522,-0.318698480135267,0.044119103807922784,0.03491374634889189,702.1161945184898,631.1363103617039,714.6775869181317,797.3766767996835
0.328,-0.0005257471262171261,-3.8102860919751587,0.09564723722974926,-50.646103564102184,-0.45953880649405593,-0.05829474207171488,-0.0010402114776737722,-0.34487838064591464,0.1781299515041729,0.0,-0.007522644260548192,0.9800068068059534,1.6487422192249876,2.330332904035248,0.12436735403952326,-0.05862404679009814,7.715005301404043,-0.35719654998617345,0.040128526166139565,0.03819802776884027,705.215896810777,622.9378700293213,716.843458371981,806.7236847078456
0.332,-0.0005636735404803028,-3.802343076571179,0.09674128475539796,-50.10733308658367,-0.44614043255071734,-0.09176297534355743,-0.001065368092443781,-0.3519277786470999,0.1817737510219013,0.0,-0.008955541915243321,1.0243763941350175,1.6796432809941133,2.347807518922528,0.13896223051932366,-0.0528308925322151,7.811325960145664,-0.3896588212463348,0.03542869227857673,0.04126273271760257,707.7770640131049,615.5181048874426,719.3741437088563,814.8656793157769
0.336,-0.0006026308521863837,-3.794202693439417,0.09785365235604378,-49.57436159689727,-0.4291139650779036,-0.1264604183376277,-0.0010904894950951294,-0.35901556341210966,0.18543928109038016,0.0,-0.010475913756756505,1.0687065296879221,1.7103923546928776,2.340427086247229,0.1531669554875342,-0.046198762553024526,7.899869869470423,-0.4161480409039131,0.030120982913503395,0.04407936366978218,709.8371287452003,608.953253602319,722.2097731849327,821.823646451685
0.34,-0.00064246333097854,-3.7858653097486448,0.09898780665160395,-49.05212995937965,-0.40838888607702645,-0.16209847700371185,-0.0011155752038027459,-0.3661410191395265,0.189126148983918,0.0,-0.012075503363243667,1.1128305004575985,1.7410707264876788,2.310000529836019,0.1668550575474907,-0.03874917219632127,7.980700106982603,-0.43684318895805413,0.024165861906432332,0.04661176878121399,711.4746476073532,603.2963144374273,725.2859235036375,827.603158557257
0.34400000000000003,-0.000682997187332974,-3.777331343977981,0.10014715187607345,-48.54525425557749,-0.38395471893720096,-0.19834554612843366,-0.0011406247438084417,-0.37330343726139537,0.19283396592136998,0.0,-0.013744321363912654,1.156588992435183,1.7717713917741897,2.2582989910459608,0.1798443119645583,-0.03050538894391599,8.053828259671917,-0.4517781589394949,0.017609056045203898,0.04879791927895095,712.7708805047441,598.6697176551654,728.512551972364,832.1690932875052
0.34800000000000003,-0.0007240411569968882,-3.7686012826018933,0.101334977892656,-48.05789828319796,-0.3558533243702125,-0.23485042084459515,-0.0011656376473531997,-0.38050211638193043,0.19656234703279934,0.0,-0.015470363511580407,1.1998307863136146,1.8025968474033405,2.1870556786061686,0.1919071273026603,-0.02149370534470545,8.119373450351624,-0.46115471826973675,0.010497416867170213,0.05060134540783528,713.7955262570935,595.1340007399923,731.8152340985629,835.5291770622838
0.35200000000000004,-0.0007653873342007344,-3.759675666975137,0.10255443701787267,-47.59374760846258,-0.3241793199251629,-0.2712443544479483,-0.0011906134536100235,-0.3877363622166994,0.2003109113263984,0.0,-0.01723967350658084,1.2424140868805884,1.8336507760964493,2.0981964984845733,0.20282972755793574,-0.01178031655079555,8.17750552650078,-0.46523295563999645,0.0028849572031297323,0.05198715192451888,714.6227071825348,592.7367261504129,735.116127645198,837.6951211952131
0.35600000000000004,-0.0008068124017338128,-3.750555084911817,0.10380851892251959,-47.15599412271741,-0.2890818672081084,-0.30715462453128833,-0.0012155517086173432,-0.3950054875322813,0.2040792816556665,0.0,-0.019036669022913982,1.2842088373084135,1.865033795404734,1.9938228639741333,0.2124265147051405,-0.001443799326181687,8.228449702175418,-0.4643211230808294,-0.005163542809069995,0.052935544907830485,715.31233235491,591.4924215973322,738.3516868345453,838.6968577101385
0.36000000000000004,-0.0008480794006835619,-3.741240181291636,0.10510001009654597,-46.747315491615886,-0.2507352669592,-0.34222007363055224,-0.0012404519652129725,-0.4023088120863952,0.20786708468684378,0.0,-0.020844681436957856,1.3250979551954583,1.8968397556522536,1.8761111848663714,0.22057363627834622,0.009438548809351428,8.27251868604209,-0.4587830007763118,-0.01360678818455609,0.05344469509259236,715.9123354771226,591.3719387641293,741.4796088767754,838.5836398808408
0.36400000000000005,-0.000888938472628226,-3.7317315716088952,0.10643155039746265,-46.36992903913324,-0.209399166896944,-0.3760326233563091,-0.001265313782968614,-0.4096456625684946,0.2116739508665982,0.0,-0.022645564047707643,1.3649776806833573,1.9291636105453136,1.747195379958707,0.22706396338402235,0.020789425502116134,8.309916941263074,-0.44895274141062497,-0.022342106259768978,0.05344490215107908,716.5438612383781,592.4548723444499,744.3691361824841,837.3274588053088
0.36800000000000005,-0.0009291294995993292,-3.7220298718504843,0.10780558168316458,-46.02558325257892,-0.1653847384724901,-0.4081833483388447,-0.0012901367281249088,-0.4170153725408264,0.2154995143899644,0.0,-0.024419368304574217,1.4037575917006628,1.9620977951997158,1.6091366455127158,0.23164581862946906,0.03253747824026626,8.340957899353276,-0.4352043488119289,-0.03127782574833153,0.05291833219565889,717.2698581541782,594.728857219276,746.9536365414272,834.9571793350722
0.37200000000000005,-0.0009683841862402809,-3.712135667805496,0.10922435817640615,-45.71554594950057,-0.11907284965642258,-0.4382407577106646,-0.0013149275647535634,-0.42441426455364833,0.21934341316853215,0.0,-0.02614395244017161,1.441360863279508,1.9957281447043929,1.4639809382081226,0.23404914630267126,0.04457696616085753,8.365940312577242,-0.4179564841868676,-0.04038563415595102,0.05182171734780548,718.1980213236919,598.1974942062944,749.137908688104,831.4672864182787
0.376,-0.0010064293958795326,-3.7020495260097124,0.11068992027516658,-45.440656860087806,-0.0708885914606606,-0.46578406026332125,-0.0013396857856867905,-0.431841722062362,0.22320528879888296,0.0,-0.027795663814214795,1.4777244349514103,2.030127854514587,1.3137272495486845,0.23406760354361006,0.056802628215711214,8.385222110965465,-0.3975983908006828,-0.049399448191964374,0.05014969195668148,719.3564132421292,602.8393756823097,750.8506871314971,826.9122890118449
0.38,-0.0010429897060967416,-3.6917719643220424,0.11220411113863105,-45.20127266676929,-0.021330467186608186,-0.4903708061074271,-0.0013644108910169826,-0.4392971348925465,0.22708478653127287,0.0,-0.029349149880958596,1.5127993704606713,2.0653600185814076,1.1603633192732326,0.23147585071874177,0.06909526125832695,8.399134423749832,-0.3746121783482931,-0.05826353763756918,0.04785950069918783,720.8558215392706,608.6394544587565,751.9880503303563,821.2892077667328
0.384,-0.001077791345902287,-3.6813034565136262,0.11376856437316013,-44.99733602310046,0.029054162048586542,-0.5115597019928234,-0.0013891023880275835,-0.4467798991854823,0.23098155523855896,0.0,-0.030777437197483888,1.5465509833855993,2.101476080170682,1.0058353328719059,0.22604451709002368,0.08132923140882901,8.408039703975867,-0.34943214387397725,-0.06684855346833242,0.04493411989000239,722.7593402150765,615.5561930816317,752.4744370767656,814.6229487904485
0.388,-0.0011105661452539771,-3.67064442716692,0.11538470475845869,-44.82840695143027,0.07967529119254706,-0.528916317507052,-0.0014137597911245362,-0.4542894173441017,0.23489524738536904,0.0,-0.032051977566710986,1.578958678264793,2.1385138868486817,0.8519378449472482,0.2175911908318283,0.09337812437868434,8.412305656111645,-0.32248427266117,-0.07502528462968287,0.04136320827318474,725.1195021160771,623.5352043369646,752.2421035871769,806.9418917757771
0.392,-0.0011410556927762623,-3.659795247202293,0.1170537518388583,-44.69369284542889,0.1299058240302912,-0.5420167579158544,-0.001438382621768293,-0.46182509797936294,0.23882551899751153,0.0,-0.033143178939229787,1.6100149885922364,2.176497693189733,0.7002999059802175,0.2059873960035003,0.10510787571576738,8.412299398458185,-0.29418598746167396,-0.08266192162227767,0.03714096653251908,727.9803267190016,632.5142499550459,751.2274813114202,798.2761109629126
0.396,-0.0011690156913665229,-3.648756231089148,0.11877672512311076,-44.592080684627724,0.17908798761626538,-0.5504518157822981,-0.001462970408406389,-0.46938635585704336,0.2427720296316244,0.0,-0.03402064265992275,1.639725054388801,2.215439077242778,0.5524180869652354,0.19113479825277518,0.11637930063185342,8.408384084510722,-0.2649417599944299,-0.08962529312092528,0.032266848134840376,731.3758448156008,642.4240579034209,749.3719963331433,788.6579851456075
0.4,-0.0011942204568370863,-3.637527635642543,0.12055445072733967,-44.522170714616976,0.22654053254105236,-0.5538316684758752,-0.001487522686406573,-0.4769726118449504,0.24673444234506117,0.0,-0.03465342235490274,1.6681060960605378,2.2553371025408686,0.40964828323613495,0.1729704212617661,0.127049109224212,8.400915808612021,-0.23513942023426324,-0.09578260102872724,0.026746368520048597,735.3287591184169,653.1888824119184,746.6230246526102,778.123020020318
0.404,-0.0012164674971824987,-3.6261096602814904,0.12238756929564193,-44.48231114716435,0.27156660813807315,-0.5517911488282321,-0.0015120389979904924,-0.4845832928605457,0.25071242366601226,0.0,-0.03501033679766556,1.6951868343164478,2.2961787210737667,0.2731999293609177,0.15147162420411237,0.1369708727042869,8.390240801478974,-0.20514686246326247,-0.1010032153007987,0.02059196887516316,739.8492413482608,664.7269453002406,742.9349519286335,766.7108806786588
0.40800000000000003,-0.0012355821405651134,-3.61450244639431,0.12427654759984762,-44.47065884606395,0.31348033414147,-0.5439857031772383,-0.0015370409836036037,-0.49221404926734347,0.25470564356386,0.0,-0.03506026680301115,1.721006700029323,2.3379398274468883,0.14408792427672254,0.12667116600914605,0.14603057459296334,8.376687711071584,-0.17527950396812375,-0.1112651598123686,0.01381235568265963,745.6503147619135,676.1926005338274,738.9715367629574,753.7516513618098
0.41200000000000003,-0.001251422096891437,-3.602706074324121,0.12622169505388886,-44.485279933671656,0.3516101839222015,-0.5301210612755327,-0.001562521915086075,-0.4998643654534186,0.25871377541976526,0.0,-0.03477271991384414,1.745613761642763,2.380587900528158,0.02301728793311587,0.09868274966465287,0.15411213104524474,8.36055725876524,-0.14574965210500737,-0.1146638194775865,0.006451716972410319,751.314847347297,689.0008616835754,733.3670420073037,740.6355294329937
0.41600000000000004,-0.001263881022948793,-3.5907205743735284,0.12822316513836657,-44.52407742725861,0.3852491133403581,-0.5099101939053412,-0.0015884751277739403,-0.5075337312900371,0.2627364959974845,0.0,-0.034117954085082884,1.769063665587425,2.4240820852339025,-0.08942966968054536,0.06756962147989216,0.16107860274079766,8.342152338071504,-0.11686167082058949,-0.1167634369552523,-0.0014939952830103458,757.5244499050211,702.370358984576,726.7083814466071,726.7316754367959
0.42000000000000004,-0.0012728928680045522,-3.5785459316934114,0.13028096558584373,-44.584818653539756,0.4136719259584323,-0.483082194285947,-0.0016148940199770783,-0.5152216420842223,0.2667734854144152,0.0,-0.033066427971705115,1.7914199713253194,2.468372321119384,-0.19263586419761453,0.03332546896986169,0.16675598777130962,8.32176018935809,-0.08890052871107769,-0.11741317047561303,-0.01001817692112996,764.2785559247828,716.2509682007443,718.9282737840462,712.0610556538742
0.42400000000000004,-0.001278436715631325,-3.5661820959422625,0.13239496471810225,-44.665147484141926,0.4361611435678518,-0.44944344825807675,-0.0016417720524611863,-0.5229275985316948,0.27082442711286786,0.0,-0.03158920455411468,1.8127550062134028,2.5133990443562806,-0.2859994469545131,-0.003981781130032577,0.17094397935642286,8.299659884943235,-0.06214774416237211,-0.11648059118685206,-0.019042124204995514,771.4915736430864,730.5031007126905,710.0466752157212,696.7355313828707
0.42800000000000005,-0.0012805407795126473,-3.5536289931121634,0.1345648964833282,-44.76257990024067,0.4520545954975468,-0.408842125941538,-0.0016691027479337232,-0.5306511066701831,0.274889007831563,0.0,-0.02965960326290252,1.8331503261112476,2.559093059037826,-0.36896196685972943,-0.044099472266441696,0.1735013095756328,8.276124765702194,-0.03690010191728489,-0.11389396152043263,-0.028525452389519097,779.1334032697479,745.0352387172566,700.034736799014,680.817602238104
0.43200000000000005,-0.0012792856786535882,-3.540886501094113,0.13679040711086674,-44.87469520017255,0.46075297562305456,-0.3612092178766865,-0.001696879690533791,-0.538391677833102,0.27896691757735187,0.0,-0.027254295386261597,1.852694643191811,2.605381971594889,-0.4412772249462679,-0.0866640487944107,0.17431676990503966,8.25133781704588,-0.013241587020054638,-0.10959794667408651,-0.03837813483010644,787.0935628988816,759.7232953467845,688.9490688689878,664.4106302847816
0.43600000000000005,-0.0012748074691295342,-3.5279544755354495,0.13907104582507124,-44.999074073575386,0.4617087523303791,-0.30656633203204425,-0.0017250965253259257,-0.5461488286035965,0.28305784959715846,0.0,-0.024354131161165207,1.8714814394228712,2.6521917143907645,-0.5029782880679823,-0.13123700905065797,0.17330672546492482,8.225503714535952,0.008674142461561257,-0.1035273753209456,-0.0484976406891138,795.2580195660328,774.4314290239537,676.8519274968238,647.6558849555361
0.44000000000000006,-0.0012672999938606812,-3.5148327640156785,0.1414062684561237,-45.13330139014278,0.45441714520956006,-0.24505225839962985,-0.00175374695779777,-0.5539220807689479,0.2871615003501419,0.0,-0.020945640502312964,1.8896077659262307,2.6994430455823855,-0.554107971833151,-0.17733715194519303,0.170257474351536,8.198822945252155,0.02869509112205837,-0.09561418371467836,-0.0587466849291718,803.4770489471363,788.9940578986144,663.8528845174426,630.7593146252265
0.44400000000000006,-0.0012570174632055083,-3.5015212621167375,0.14379539563705881,-45.27488359036346,0.4384548797953563,-0.1769636820136593,-0.001782824753361598,-0.5617109612753399,0.2912775694800769,0.0,-0.017022762871792746,1.9071765839356023,2.7470434973691935,-0.5945184941813324,-0.22436073414930782,0.16493558336416508,8.171583860670786,0.04657139780908906,-0.08583250126366998,-0.06893560170878342,811.5643983783868,803.1845284575925,650.1344366724355,614.0371524505131
0.44800000000000006,-0.0012442740264497442,-3.4880198664250948,0.14623768343000185,-45.42139373841533,0.41355209005944044,-0.10266823201985925,-0.0018123237368596662,-0.569515002182982,0.2954057597879514,0.0,-0.012588198219006289,1.9242972763304074,2.7948966067554615,-0.624164429636094,-0.2716085828658147,0.157273931315479,8.143935832460278,0.06221548032591229,-0.07427757659433785,-0.07896979323197542,819.4403529330349,816.8997956922802,635.7904808983828,597.6512706684813
0.45200000000000007,-0.0012294416150650796,-3.4743284033684487,0.14873241937637216,-45.57063771916938,0.3794762126928695,-0.022614988056061918,-0.0018422377920733575,-0.5773337406215864,0.2995457772047791,0.0,-0.0076522463767589215,1.9410806928800688,2.84292054594449,-0.643468642357383,-0.3184599516709673,0.14728488550794505,8.115835402504215,0.07573669166643293,-0.060938824891269755,-0.08873944972999713,826.9763400781568,830.0541966752511,620.9519876578647,581.7868955004332
0.45600000000000007,-0.0012129504927741376,-3.4604467011900755,0.15127886250980938,-45.720553031711475,0.33610162669299365,0.0626284231412414,-0.0018725608612360967,-0.5851667187461976,0.30369733076462546,0.0,-0.002232260337820394,1.95763466024842,2.891047221265534,-0.6532006072496922,-0.36437061588644354,0.1349610483473896,8.087359900634752,0.0871405917912501,-0.0458585941790351,-0.098088050760579,834.0152260376796,842.501802251646,605.8274595034998,566.7350202642956
0.4600000000000001,-0.0011952873580306543,-3.446374593342865,0.153876256198927,-45.86922347043138,0.28341521736555414,0.15237466618689988,-0.0019032869445500054,-0.5930134836933713,0.30786013257784617,0.0,0.003645754430785709,1.974063872348161,2.939202645694856,-0.6539969871954934,-0.40865165511767215,0.12027015427304125,8.05856154729607,0.09645744443912607,-0.029119981515969222,-0.10685281145420233,840.3988113594859,854.0949003193407,590.6646841426916,552.8149419179897
0.4640000000000001,-0.0011769925248886089,-3.4321119213479996,0.15652384048003565,-46.01489006901993,0.22152192606029505,0.24581734277507442,-0.0019344100997062703,-0.6008735875376985,0.3120338978045354,0.0,0.009945781623211464,1.9904702082787082,2.9873141663363563,-0.6464984059717346,-0.4505614719399129,0.10323080794555328,8.029468078900802,0.1037389592649131,-0.010831545529989765,-0.11486673764633364,845.9678025812142,864.6861705581573,575.7504858818968,540.3718732184353
0.4680000000000001,-0.0011586561825104162,-3.4176585369926373,0.1592208639787901,-46.15595900592219,0.1506497258270788,0.34203371353170703,-0.001965902662945107,-0.6087404338599572,0.3162183446281834,0.0,0.016621373966486448,2.0069515811727676,3.03531409089619,-0.631395623375171,-0.4893485600697772,0.08389373991944252,8.000083188571159,0.10905560178351204,0.00912588481589769,-0.12196106932264411,850.5377325770773,874.1543481188182,561.3721210487084,529.8091756341798
0.4720000000000001,-0.001140913751350887,-3.4030143040638867,0.16196659520253914,-46.29100641718386,0.07115395880022872,0.4399895732139848,-0.0019977590676372482,-0.6166136585439449,0.320413194229541,0.0,0.023615361512456225,2.023600914316416,3.0831403847491003,-0.6094169854868386,-0.5242603685847668,0.062344897334441166,7.970387422822264,0.11249363791909597,0.030099152952380914,-0.1279678997146903,854.0018168138198,882.3060001754338,547.9677408086211,521.4127806349627
0.4760000000000001,-0.00112444037896362,-3.388179099903414,0.16476033292753203,-46.41878021514204,-0.01647788408772136,0.5385451009770671,-0.0020299738008546855,-0.624492901613232,0.32461817076069005,0.0,0.030859693424476385,2.0405051981809956,3.1307371951086402,-0.5813159082927044,-0.5545499634066952,0.03870792368642793,7.9403396580997665,0.11415208539939214,0.05213833461724596,-0.13272150674225747,856.1808876541415,889.0207552439391,535.8999295066646,515.5731000973803
0.48,-0.0011099445317055805,-3.3731528171188203,0.16760141535780804,-46.5381983593068,-0.1116258131646224,0.6364664563005065,-0.0020625414029247185,-0.6323778071944443,0.3288330013193178,0.0,0.03827547691916906,2.0577446585553796,3.178055162426415,-0.547857264329078,-0.5794914421890354,0.013145848612439708,7.909879262019851,0.11413881515262744,0.07503079029068599,-0.13606529770986256,856.92724885638,894.1598510046517,525.5840744734425,512.6012018102783
0.484,-0.0010981607722330652,-3.3579353658923283,0.17048922766431324,-46.6483441799195,-0.21353835267637536,0.732439844214762,-0.0020954564669874434,-0.640268023480838,0.33305741592319466,0.0,0.04577330597088707,2.075392066785057,3.2250514800715093,-0.5098034871538774,-0.5983982162772371,-0.014138049977678441,7.878929088198825,0.11256711009693422,0.09854143089582884,-0.1378551634419596,856.1017547523918,897.5906773215254,517.4354956161517,512.7431375644428
0.488,-0.0010898417864355703,-3.342526677377482,0.17342320745322343,-46.74845904128475,-0.32133442799912143,0.8250871052531288,-0.0021287136385566407,-0.6481632026961647,0.3372911474848517,0.0,0.05325388121693679,2.0935122136936046,3.271689670556153,-0.46790120984363115,-0.6106387264339277,-0.04290036443274327,7.847399438045002,0.10955235437212077,0.12241366619541003,-0.13796183138494963,853.5741567427574,899.1864132119483,511.84873333878477,516.1606263792108
0.492,-0.0010857495589166692,-3.326926705126906,0.1764028511888559,-46.83792897082115,-0.4340214848448602,0.9129991921882958,-0.002162307615084056,-0.6560630010588252,0.34153393178645947,0.0,0.06060902715363705,2.1121615749833254,3.3179395370866396,-0.42286261472218367,-0.6156819847955062,-0.0728582250348095,7.815185948484675,0.1052045955438997,0.14638646937955063,-0.13629239588013514,849.24280043712,898.8462013041317,509.1347905604242,522.8877668439203
0.496,-0.0010866457985462376,-3.311135423392955,0.17942772253938247,-46.91626387707623,-0.5505441900895379,0.9947893393811547,-0.0021962331455270363,-0.6639670787463106,0.3457855074549036,0.0,0.06772429671262883,2.1313884077654808,3.3637773343744803,-0.37533745560906373,-0.6132034436070453,-0.10370648034479997,7.782165484229306,0.0996190771538963,0.1702315803850897,-0.13281469475499064,843.0564784812982,896.5202595076361,509.44848143573057,532.7986846720858
0.5,-0.001093282968772063,-3.2951528513722157,0.1824974337036504,-46.983098995686674,-0.6697313894704553,1.0690522477193927,-0.0022304850299194982,-0.6718750998599261,0.350045615937058,0.0,0.07448051011705317,2.1512329898103113,3.4091824382530804,-0.32592909442597456,-0.6029443679785899,-0.13511824089519092,7.748250706358782,0.09290086037546434,0.19365298780441326,-0.12744970553039633,834.9056376748656,892.092230726889,512.9899527609357,545.7866177188992
0.504,-0.0011063943989637842,-3.278979066679427,0.1856116374842589,-47.03818959495536,-0.7902734299922523,1.1343804739298542,-0.00226505811894621,-0.6797867323897983,0.3543140014752529,0.0,0.08075383973916554,2.1717275856899523,3.454134401834785,-0.27522312154551376,-0.5845568526308476,-0.16670941774955703,7.713368857317295,0.0851571394227851,0.21630127262874518,-0.12013669188327303,824.6887428029054,885.4431220908949,519.8736592816675,561.6650273692716
