Time_s,X,Y,Z,Roll_deg,Pitch_deg,Yaw_deg,Ref_X,Ref_Y,Ref_Z,Ref_Yaw,vx,vy,vz,p,q,r,T_pert,tau_x,tau_y,tau_z,RPM_0,RPM_1,RPM_2,RPM_3
0.0040000000000048885,-0.015104486398659986,0.5327584961296684,0.024999982234363137,179.99999578767236,-4.212328121627464e-06,8.469922103932646,-0.015103942637149632,0.5328113168238079,7.200000000017598e-05,0.0,0.0,0.0,0.0,0.0,0.0,0.0,-10.19,-1.0,0.006341339811613223,-0.2,725.0497284500219,428.055452804158,0.0,0.0
0.0040000000000048885,-0.015104486398659986,0.5327584961296684,0.024999982234363137,179.99999578767236,-4.212328121627464e-06,8.469922103932646,-0.015101387447436335,0.5330595265476383,0.0022103352000005898,0.0,0.0,0.0,0.0,0.0,0.0,0.0,-0.7268634511357487,-1.0,3.4141858948037124e-05,-0.2,896.3982719307315,677.4145264169993,0.0,269.048575555236
0.008000000000002672,-0.015104486398659986,0.5327584961296684,0.024999982234363137,179.99999578767236,-4.212328121627464e-06,8.469922103932646,-0.01510033889200088,0.5331613826461115,0.0027047906634531604,0.0,0.0,0.0,0.0,0.0,0.0,0.0,0.2765508580592192,-1.0,0.012255817108353715,-0.2,911.4648801464157,700.2435442894451,0.0,322.23860216705634
0.008000000000002672,-0.015104486398659986,0.5327584961296684,0.024999982234363137,179.99999578767236,-4.212328121627464e-06,8.469922103932646,-0.015081820376451442,0.5349602610645537,0.006826297030084423,0.0,0.0,0.0,0.0,0.0,0.0,0.0,-0.5801848219029003,-1.0,0.00023381472769461577,-0.2,898.7686100443138,680.5985678598278,0.0,276.9676984422241
0.012000000000000455,-0.015104486398659986,0.5327584961296684,0.024999982234363137,179.99999578767236,-4.212328121627464e-06,8.469922103932646,-0.015078161933755675,0.5353156401765001,0.007712460941437152,0.0,0.0,0.0,0.0,0.0,0.0,0.0,1.218226666714546,-1.0,0.0428867819293148,-0.2,923.5955189467056,723.2969477490334,0.0,369.6690006351657
0.012000000000000455,-0.015104486398659986,0.5327584961296684,0.024999982234363137,179.99999578767236,-4.212328121627464e-06,8.469922103932646,-0.01506099094510397,0.5369836205730067,0.013670490109949994,0.0,0.0,0.0,0.0,0.0,0.0,0.0,-0.36232561366994875,-1.0,0.00048131638871718276,-0.2,902.2824247209168,685.294295812907,0.0,288.3140081252422
0.015999999999998238,-0.015104486398659986,0.5327584961296684,0.024999982234363137,179.99999578767236,-4.212328121627464e-06,8.469922103932646,-0.015057055762072372,0.5373658820890156,0.01491930453600345,0.0,0.0,0.0,0.0,0.0,0.0,0.0,2.1721184155730553,-1.0,0.0463788005003605,-0.2,938.2553613495787,742.7357830723654,0.0,406.39037742502467
0.015999999999998238,-0.015104486398659986,0.5327584961296684,0.024999982234363137,179.99999578767236,-4.212328121627464e-06,8.469922103932646,-0.015025009051637986,0.5404788819203781,0.022575304964375542,0.0,0.0,0.0,0.0,0.0,0.0,0.0,-0.07857827856712671,-1.0,0.0008963155643227833,-0.2,906.8297209767642,691.373900808589,0.0,302.4806871964207
0.020000000000003126,-0.015104486398659986,0.5327584961296684,0.024999982234363137,179.99999578767236,-4.212328121627464e-06,8.469922103932646,-0.015018679482840637,0.5410937327531675,0.02415931793804515,0.0,0.0,0.0,0.0,0.0,0.0,0.0,3.13619231661477,-1.0,0.07472944123358426,-0.2,950.5953713080595,764.6803007312546,0.0,445.23326216038294
0.020000000000003126,-0.015104486398659986,0.5327584961296684,0.024999982234363137,179.99999578767236,-4.212328121627464e-06,8.469922103932646,-0.01498900773571737,0.5439760299543135,0.03338243552813897,0.0,0.0,0.0,0.0,0.0,0.0,0.0,0.26605744229575895,-1.0,0.0013607817996826527,-0.2,912.3260629756188,698.6820821353928,0.0,318.8312207180812
0.02400000000000091,-0.015104486398659986,0.5327584961296684,0.024999982234363137,179.99999578767236,-4.212328121627464e-06,8.469922103932646,-0.01498260499420733,0.5445979887441812,0.03527572179626142,0.0,0.0,0.0,0.0,0.0,0.0,0.0,4.108546486450314,-1.0,0.0760807183954803,-0.2,965.3159231635489,783.2017321015508,0.0,476.34194500841886
0.02400000000000091,-0.015104486398659986,0.5327584961296684,0.024999982234363137,179.99999578767236,-4.212328121627464e-06,8.469922103932646,-0.014939027764615339,0.5488310568666913,0.04594241910682523,0.0,0.0,0.0,0.0,0.0,0.0,0.0,0.6668600690932297,-1.0,0.001994341660357442,-0.2,918.6680512332867,707.097696381549,0.0,336.8736374898271
0.027999999999998693,-0.015104486398659986,0.5327584961296684,0.024999982234363137,179.99999578767236,-4.212328121627464e-06,8.469922103932646,-0.014930422860558791,0.5496669325155124,0.04812050456830356,0.0,0.0,0.0,0.0,0.0,0.0,0.0,5.0874039842913295,-1.0,0.10242335051825771,-0.2,977.7124527985183,804.0962513757302,0.0,509.96811359538515
0.027999999999998693,-0.015104486398659986,0.5327584961296684,0.024999982234363137,179.99999578767236,-4.212328121627464e-06,8.469922103932646,-0.01489013646867729,0.553580330472226,0.06011419778314592,0.0,0.0,0.0,0.0,0.0,0.0,0.0,1.1193726065148581,-1.0,0.002678923491883036,-0.2,925.7789023213825,716.4765744924755,0.0,356.1395473743488
0.03200000000000358,-0.015104486398659986,0.5327584961296684,0.024999982234363137,179.99999578767236,-4.212328121627464e-06,8.469922103932646,-0.01488163983272862,0.5544056890165767,0.0625539874512816,0.0,0.0,0.0,0.0,0.0,0.0,0.0,6.0711061858695965,-1.0,0.10189281995054905,-0.2,992.361357804841,821.7343595060732,0.0,537.3490978873889
0.03200000000000358,-0.015104486398659986,0.5327584961296684,0.024999982234363137,179.99999578767236,-4.212328121627464e-06,8.469922103932646,-0.014828312167920474,0.5595859090549052,0.07576470030279917,0.0,0.0,0.0,0.0,0.0,0.0,0.0,1.619389409667686,-1.0,0.003534113601932707,-0.2,933.5641422972537,726.7109851130575,0.0,376.3051305676349
0.036000000000001364,-0.015104486398659986,0.5327584961296684,0.024999982234363137,179.99999578767236,-4.212328121627464e-06,8.469922103932646,-0.014817784563626696,0.5606085547476131,0.07844440963304664,0.0,0.0,0.0,0.0,0.0,0.0,0.0,7.058106477862242,-1.0,0.12647361698637433,-0.2,1004.693791924922,841.6339522441459,0.0,567.313321699425
0.036000000000001364,-0.015104486398659986,0.5327584961296684,0.024999982234363137,179.99999578767236,-4.212328121627464e-06,8.469922103932646,-0.014768562855097445,0.5653899244505864,0.09276844351654695,0.0,0.0,0.0,0.0,0.0,0.0,0.0,2.1629436636923276,-1.0,0.004441801004424061,-0.2,941.9562778052307,737.6729037584265,0.0,397.0617185613881
0.03999999999999915,-0.015104486398659986,0.5327584961296684,0.024999982234363137,179.99999578767236,-4.212328121627464e-06,8.469922103932646,-0.014758848738739639,0.566333548372474,0.09566753294795839,0.0,0.0,0.0,0.0,0.0,0.0,0.0,8.046964258069712,-1.0,0.11795886481834221,-0.2,1019.7037306612879,857.7873704531543,0.0,591.0125788140816
0.03999999999999915,-0.015104486398659986,0.5327584961296684,0.024999982234363137,179.99999578767236,-4.212328121627464e-06,8.469922103932646,-0.014713503465751851,0.570738363258329,0.11100715249594656,0.0,0.0,0.0,0.0,0.0,0.0,0.0,2.746295449412631,-1.0,0.005355994684398773,-0.2,950.8858992676916,749.2521304654512,0.0,418.1811215425102
0.044000000000004036,-0.015104486398659986,0.5327584961296684,0.024999982234363137,179.99999578767236,-4.212328121627464e-06,8.469922103932646,-0.014704013553684685,0.5716602080986979,0.11410626506114299,0.0,0.0,0.0,0.0,0.0,0.0,0.0,9.036339227245772,-1.0,0.11631327284009448,-0.2,1033.930932897296,874.3280238877262,0.0,614.7732824081983
0.044000000000004036,-0.015104486398659986,0.5327584961296684,0.024999982234363137,179.99999578767236,-4.212328121627464e-06,8.469922103932646,-0.014646177354770742,0.5772783846611373,0.1303693984789934,0.0,0.0,0.0,0.0,0.0,0.0,0.0,3.3659203685557495,-1.0,0.006442065273962969,-0.2,960.2695105437896,761.3715321577422,0.0,439.52622832745936
0.04800000000000182,-0.015104486398659986,0.5327584961296684,0.024999982234363137,179.99999578767236,-4.212328121627464e-06,8.469922103932646,-0.014634765420990934,0.5783869336338876,0.13365030034401357,0.0,0.0,0.0,0.0,0.0,0.0,0.0,10.024985959116352,-1.0,0.13986111738943716,-0.2,1045.8813884636884,892.9837572404845,134.39567492475337,641.0278356692996
0.04800000000000182,-0.015104486398659986,0.5327584961296684,0.024999982234363137,179.99999578767236,-4.212328121627464e-06,8.469922103932646,-0.014581552081105705,0.5835560482120631,0.15075025383930726,0.0,0.0,0.0,0.0,0.0,0.0,0.0,4.018498703251333,-1.0,0.007581868123759453,-0.2,970.0543918293295,773.9298641441987,0.0,460.93831476868155
0.0519999999999996,-0.015104486398659986,0.5327584961296684,0.024999982234363137,179.99999578767236,-4.212328121627464e-06,8.469922103932646,-0.01457105595077982,0.584575636540835,0.15419577764083717,0.0,0.0,0.0,0.0,0.0,0.0,0.0,10.19,-1.0,0.13039134720690296,-0.2,1048.9640298586467,894.7702947410926,156.58816890505784,643.5142389711325
0.0519999999999996,-0.015104486398659986,0.5327584961296684,0.024999982234363137,179.99999578767236,-4.212328121627464e-06,8.469922103932646,-0.014522204225651232,0.5893210662596957,0.1720509633081599,0.0,0.0,0.0,0.0,0.0,0.0,0.0,4.700388302455116,-1.0,0.008729379370600553,-0.2,980.1782398437931,786.8333905503979,0.0,482.2898297627363
0.05600000000000449,-0.015104486398659986,0.5327584961296684,0.024999982234363137,179.99999578767236,-4.212328121627464e-06,8.469922103932646,-0.014512028325413687,0.5903095476137585,0.17564495416134818,0.0,0.0,0.0,0.0,0.0,0.0,0.0,10.19,-1.0,0.12786469479843526,-0.2,1049.1715507079177,894.5269551408143,157.97234415746397,643.1758460024992
0.05600000000000449,-0.015104486398659986,0.5327584961296684,0.024999982234363137,179.99999578767236,-4.212328121627464e-06,8.469922103932646,-0.01445114076880441,0.5962241313849956,0.19417863071256733,0.0,0.0,0.0,0.0,0.0,0.0,0.0,5.409079291389424,-1.0,0.01004993759745619,-0.2,990.5792329421796,800.0373437035607,0.0,503.54388758854327
0.060000000000002274,-0.015104486398659986,0.5327584961296684,0.024999982234363137,179.99999578767236,-4.212328121627464e-06,8.469922103932646,-0.014438589146550747,0.5974433890694615,0.1979058947683805,0.0,0.0,0.0,0.0,0.0,0.0,0.0,10.19,-1.0,0.15693806913831362,-0.2,1046.7811883612724,897.322996462988,141.2273876087248,647.0589272924451
0.060000000000002274,-0.015104486398659986,0.5327584961296684,0.024999982234363137,179.99999578767236,-4.212328121627464e-06,8.469922103932646,-0.014366601791726602,0.6044362011362918,0.21704592052542057,0.0,0.0,0.0,0.0,0.0,0.0,0.0,6.141802689869663,-1.0,0.011590905790809016,-0.2,1001.2042189732723,813.4823410454981,0.0,524.6429401034555
0.06400000000000006,-0.015104486398659986,0.5327584961296684,0.024999982234363137,179.99999578767236,-4.212328121627464e-06,8.469922103932646,-0.014352403654259209,0.6058154004033165,0.22089217596187063,0.0,0.0,0.0,0.0,0.0,0.0,0.0,10.19,-1.0,0.17774735125883767,-0.2,1045.0669281922776,899.3189266812468,127.90310045104758,649.8239971674207
0.06400000000000006,-0.015104486398659986,0.5327584961296684,0.024999982234363137,179.99999578767236,-4.212328121627464e-06,8.469922103932646,-0.014286349282632383,0.6122318857444898,0.24057077355483025,0.0,0.0,0.0,0.0,0.0,0.0,0.0,6.895956056855298,-1.0,0.013188249346840507,-0.2,1012.0225075941772,827.0935336072837,0.0,545.5093113252212
0.06800000000000495,-0.015104486398659986,0.5327584961296684,0.024999982234363137,179.99999578767236,-4.212328121627464e-06,8.469922103932646,-0.014272782630224731,0.6135497429000205,0.24452260389135594,0.0,0.0,0.0,0.0,0.0,0.0,0.0,10.19,-1.0,0.17206382785811494,-0.2,1045.5354135314049,898.7742293479868,131.6761924268514,649.0699582846224
0.06800000000000495,-0.015104486398659986,0.5327584961296684,0.024999982234363137,179.99999578767236,-4.212328121627464e-06,8.469922103932646,-0.01419617385954164,0.6209914767623972,0.2646761361295018,0.0,0.0,0.0,0.0,0.0,0.0,0.0,7.669094958490742,-1.0,0.014961413847855704,-0.2,1022.9829666326777,840.8325818679893,0.0,566.1237728079639
0.07200000000000273,-0.015104486398659986,0.5327584961296684,0.024999982234363137,179.99999578767236,-4.212328121627464e-06,8.469922103932646,-0.014180524904195727,0.6225116076804386,0.2687209457588565,0.0,0.0,0.0,0.0,0.0,0.0,0.0,10.19,-1.0,0.19818932158465963,-0.2,1043.3801846492577,901.2753222903833,113.29840432444917,652.528851451925
0.07200000000000273,-0.015104486398659986,0.5327584961296684,0.024999982234363137,179.99999578767236,-4.212328121627464e-06,8.469922103932646,-0.014094212341656117,0.6308959625483244,0.28928970216565125,0.0,0.0,0.0,0.0,0.0,0.0,0.0,8.458924841579723,-1.0,0.016957689827139612,-0.2,1034.0446884963078,854.6588309999256,0.0,586.4626269539207
0.07600000000000051,-0.015104486398659986,0.5327584961296684,0.024999982234363137,179.99999578767236,-4.212328121627464e-06,8.469922103932646,-0.014077193349164352,0.6325491781214266,0.29341567400235363,0.0,0.0,0.0,0.0,0.0,0.0,0.0,10.19,-1.0,0.21624930476189752,-0.2,1041.8877158249318,903.0002236441912,98.61202305318213,654.9092298242508
0.07600000000000051,-0.015104486398659986,0.5327584961296684,0.024999982234363137,179.99999578767236,-4.212328121627464e-06,8.469922103932646,-0.013998128648197555,0.640229479701219,0.3143436675282634,0.0,0.0,0.0,0.0,0.0,0.0,0.0,9.263293294022384,-1.0,0.01901297192608035,-0.2,1045.1878741693051,868.5155999330598,128.88759061406392,606.4783942850863
0.0799999999999983,-0.015104486398659986,0.5327584961296684,0.024999982234363137,179.99999578767236,-4.212328121627464e-06,8.469922103932646,-0.01398254529216554,0.6417432383379765,0.31853972267694985,0.0,0.0,0.0,0.0,0.0,0.0,0.0,10.19,-1.0,0.2016687215910096,-0.2,1043.0928146839326,901.6078949538454,110.62069765191484,652.988125198796
0.0799999999999983,-0.015104486398659986,0.5327584961296684,0.024999982234363137,179.99999578767236,-4.212328121627464e-06,8.469922103932646,-0.013896719228052086,0.6500803350162369,0.33977449612537775,0.0,0.0,0.0,0.0,0.0,0.0,0.0,10.08018267455817,-1.0,0.021212797534149414,-0.2,1056.3750413988025,882.3763684601039,200.30613269210954,626.1667118462742
0.08400000000000318,-0.015104486398659986,0.5327584961296684,0.024999982234363137,179.99999578767236,-4.212328121627464e-06,8.469922103932646,-0.013879259715891035,0.6517763424278026,0.3440302554769318,0.0,0.0,0.0,0.0,0.0,0.0,0.0,10.19,-1.0,0.22583011066153036,-0.2,1041.0950937918954,903.913946109251,89.85161668719539,656.1685129433841
0.08400000000000318,-0.015104486398659986,0.5327584961296684,0.024999982234363137,179.99999578767236,-4.212328121627464e-06,8.469922103932646,-0.013784708674989899,0.6609609785539668,0.3655226971992821,0.0,0.0,0.0,0.0,0.0,0.0,0.0,10.19,-1.0,0.023637951625671408,-0.2,1057.6964962885747,884.4306292905205,207.16224792387854,629.0582114834526
0.08800000000000097,-0.015104486398659986,0.5327584961296684,0.024999982234363137,179.99999578767236,-4.212328121627464e-06,8.469922103932646,-0.013766072901305897,0.6627712473631286,0.36982844486651695,0.0,0.0,0.0,0.0,0.0,0.0,0.0,10.19,-1.0,0.24207128545678244,-0.2,1039.7500777690993,905.4607623014402,72.62604852665065,658.2977194818765
0.08800000000000097,-0.015104486398659986,0.5327584961296684,0.024999982234363137,179.99999578767236,-4.212328121627464e-06,8.469922103932646,-0.013679689337138656,0.6711624992900838,0.39153261330215217,0.0,0.0,0.0,0.0,0.0,0.0,0.0,10.19,-1.0,0.02612427008432801,-0.2,1057.4939347133054,884.672817674944,206.12554586750258,629.3986731321086
0.09199999999999875,-0.015104486398659986,0.5327584961296684,0.024999982234363137,179.99999578767236,-4.212328121627464e-06,8.469922103932646,-0.013662671237553433,0.6728156281267355,0.3958792618109524,0.0,0.0,0.0,0.0,0.0,0.0,0.0,10.19,-1.0,0.22580981652760634,-0.2,1041.0967733675107,903.9120116317247,89.8710755470824,656.165848074742
0.09199999999999875,-0.015104486398659986,0.5327584961296684,0.024999982234363137,179.99999578767236,-4.212328121627464e-06,8.469922103932646,-0.013583983803147837,0.6804592822402051,0.4177522184666949,0.0,0.0,0.0,0.0,0.0,0.0,0.0,10.19,-1.0,0.028625533165525616,-0.2,1057.2901164338816,884.9163949094753,205.0773244718152,629.7409954791864
0.09600000000000364,-0.015104486398659986,0.5327584961296684,0.024999982234363137,179.99999578767236,-4.212328121627464e-06,8.469922103932646,-0.013567946142692359,0.682017171758868,0.4221312756220102,0.0,0.0,0.0,0.0,0.0,0.0,0.0,10.19,-1.0,0.21698050451662793,-0.2,1041.8272447746308,903.0699908277622,97.9710501038246,655.0054226807505
0.09600000000000364,-0.015104486398659986,0.5327584961296684,0.024999982234363137,179.99999578767236,-4.212328121627464e-06,8.469922103932646,-0.013480357987023276,0.6905254370419918,0.44413292610390703,0.0,0.0,0.0,0.0,0.0,0.0,0.0,10.19,-1.0,0.03130688824912258,-0.2,1057.0715795067017,885.1774353696326,203.947647460177,630.1077586374366
0.10000000000000142,-0.015104486398659986,0.5327584961296684,0.024999982234363137,179.99999578767236,-4.212328121627464e-06,8.469922103932646,-0.013463109036085894,0.6922009906520632,0.44853646345378767,0.0,0.0,0.0,0.0,0.0,0.0,0.0,10.19,-1.0,0.233879126577755,-0.2,1040.4287303161423,904.6808682740523,81.7695638425909,657.2245954227726
0.10000000000000142,-0.015104486398659986,0.5327584961296684,0.024999982234363137,179.99999578767236,-4.212328121627464e-06,8.469922103932646,-0.013383516206306468,0.6999325943743334,0.4706294061811297,0.0,0.0,0.0,0.0,0.0,0.0,0.0,10.19,-1.0,0.03404997280690614,-0.2,1056.8479647160693,885.4444058007566,202.7854512243069,630.482744546898
0.1039999999999992,-0.015104486398659986,0.5327584961296684,0.024999982234363137,179.99999578767236,-4.212328121627464e-06,8.469922103932646,-0.013367850618068987,0.7014543410023164,0.47505002900542753,0.0,0.0,0.0,0.0,0.0,0.0,0.0,10.19,-1.0,0.21826747792422135,-0.2,1041.7208020854466,903.1927738809732,96.83257820224512,655.1746959386793
0.1039999999999992,-0.015104486398659986,0.5327584961296684,0.024999982234363137,179.99999578767236,-4.212328121627464e-06,8.469922103932646,-0.013295785325555316,0.7084547238934549,0.4971994112535339,0.0,0.0,0.0,0.0,0.0,0.0,0.0,10.19,-1.0,0.03680855036675308,-0.2,1056.6230392185366,885.7128029338494,201.60993455473522,630.8596235997911
0.10800000000000409,-0.015104486398659986,0.5327584961296684,0.024999982234363137,179.99999578767236,-4.212328121627464e-06,8.469922103932646,-0.01328161033699323,0.709831674488546,0.50163023000696,0.0,0.0,0.0,0.0,0.0,0.0,0.0,10.19,-1.0,0.20374400117274757,-0.2,1042.9213758755955,901.8061987090732,108.99227019377149,653.2619041683378
0.10800000000000409,-0.015104486398659986,0.5327584961296684,0.024999982234363137,179.99999578767236,-4.212328121627464e-06,8.469922103932646,-0.01320303444144821,0.7174644937784267,0.523803610941031,0.0,0.0,0.0,0.0,0.0,0.0,0.0,10.19,-1.0,0.03971391296359548,-0.2,1056.386093562207,885.9953936769273,200.3644114491574,631.2563132549785
0.11200000000000188,-0.015104486398659986,0.5327584961296684,0.024999982234363137,179.99999578767236,-4.212328121627464e-06,8.469922103932646,-0.013187032535248631,0.7190189101483302,0.528238214083607,0.0,0.0,0.0,0.0,0.0,0.0,0.0,10.19,-1.0,0.22803113489427512,-0.2,1040.9129173513277,904.1237275835102,87.71556425514912,656.4574702043046
0.11200000000000188,-0.015104486398659986,0.5327584961296684,0.024999982234363137,179.99999578767236,-4.212328121627464e-06,8.469922103932646,-0.013099955246828845,0.7274775500677473,0.550405434461051,0.0,0.0,0.0,0.0,0.0,0.0,0.0,10.19,-1.0,0.042846783096790596,-0.2,1056.1305340555402,886.3000120297372,199.01262188159888,631.6837869784584
0.11599999999999966,-0.015104486398659986,0.5327584961296684,0.024999982234363137,179.99999578767236,-4.212328121627464e-06,8.469922103932646,-0.01308227717624822,0.7291947881240207,0.5548378626119909,0.0,0.0,0.0,0.0,0.0,0.0,0.0,10.19,-1.0,0.25079906215594683,-0.2,1039.026566029632,906.2909087997207,61.4045895603654,659.4390849658199
0.11599999999999966,-0.015104486398659986,0.5327584961296684,0.024999982234363137,179.99999578767236,-4.212328121627464e-06,8.469922103932646,-0.01298741619506061,0.7384095316791986,0.576970920845069,0.0,0.0,0.0,0.0,0.0,0.0,0.0,10.19,-1.0,0.04620847473425533,-0.2,1055.856239956737,886.6267629802152,197.55181132889135,632.1421614164877
0.12000000000000455,-0.015104486398659986,0.5327584961296684,0.024999982234363137,179.99999578767236,-4.212328121627464e-06,8.469922103932646,-0.012968747879705245,0.7402229615684242,0.5813956421987801,0.0,0.0,0.0,0.0,0.0,0.0,0.0,10.19,-1.0,0.26581204866314617,-0.2,1037.7808454077,907.7170997580866,34.40060753632585,661.3977839400178
0.12000000000000455,-0.015104486398659986,0.5327584961296684,0.024999982234363137,179.99999578767236,-4.212328121627464e-06,8.469922103932646,-0.012882928962202198,0.7485593640288789,0.6034685764832186,0.0,0.0,0.0,0.0,0.0,0.0,0.0,10.19,-1.0,0.049634728688979404,-0.2,1055.5766046133426,886.9596654196403,196.05174549281716,632.608997318924
0.12400000000000233,-0.015104486398659986,0.5327584961296684,0.024999982234363137,179.99999578767236,-4.212328121627464e-06,8.469922103932646,-0.012866051120171317,0.7501988683238195,0.6078804634290678,0.0,0.0,0.0,0.0,0.0,0.0,0.0,10.19,-1.0,0.24847881554364123,-0.2,1039.2189580600568,906.0702916975721,64.57833611341547,659.135850113205
0.12400000000000233,-0.015104486398659986,0.5327584961296684,0.024999982234363137,179.99999578767236,-4.212328121627464e-06,8.469922103932646,-0.012788739854376775,0.75770884217507,0.6298692396574843,0.0,0.0,0.0,0.0,0.0,0.0,0.0,10.19,-1.0,0.05307923256271434,-0.2,1055.2954051024528,887.294215160903,194.53203009812455,633.0779728165695
0.1280000000000001,-0.015104486398659986,0.5327584961296684,0.024999982234363137,179.99999578767236,-4.212328121627464e-06,8.469922103932646,-0.012773002753621024,0.7592375354897578,0.6342635465475893,0.0,0.0,0.0,0.0,0.0,0.0,0.0,10.19,-1.0,0.2387257441075732,-0.2,1040.0272816718275,905.1423477368974,76.49225663711434,657.8596849436791
0.1280000000000001,-0.015104486398659986,0.5327584961296684,0.024999982234363137,179.99999578767236,-4.212328121627464e-06,8.469922103932646,-0.012687542677590697,0.7675390802868541,0.6561459517392014,0.0,0.0,0.0,0.0,0.0,0.0,0.0,10.19,-1.0,0.05670704344529885,-0.2,1054.9991598880308,887.6464323839207,192.91849592042303,633.5715305562873
0.132000000000005,-0.015104486398659986,0.5327584961296684,0.024999982234363137,179.99999578767236,-4.212328121627464e-06,8.469922103932646,-0.01267019901503069,0.7692238341318721,0.6605182937508067,0.0,0.0,0.0,0.0,0.0,0.0,0.0,10.19,-1.0,0.26117702335485077,-0.2,1038.165601715542,907.2770247851313,44.52117798464974,660.7936857374576
0.132000000000005,-0.015104486398659986,0.5327584961296684,0.024999982234363137,179.99999578767236,-4.212328121627464e-06,8.469922103932646,-0.012577280621885229,0.7782498757527284,0.6822738347409507,0.0,0.0,0.0,0.0,0.0,0.0,0.0,10.19,-1.0,0.06056524973122141,-0.2,1054.6840093951248,888.020864965783,191.18754765288276,634.0960116749761
0.13600000000000279,-0.015104486398659986,0.5327584961296684,0.024999982234363137,179.99999578767236,-4.212328121627464e-06,8.469922103932646,-0.012559010926807659,0.7800245838873422,0.6866201677825501,0.0,0.0,0.0,0.0,0.0,0.0,0.0,10.19,-1.0,0.275937371273146,-0.2,1036.9398395568228,908.6777126287536,0.0,662.7155353813262
0.13600000000000279,-0.015104486398659986,0.5327584961296684,0.024999982234363137,179.99999578767236,-4.212328121627464e-06,8.469922103932646,-0.012475434287867702,0.7881431726410497,0.7082299749270742,0.0,0.0,0.0,0.0,0.0,0.0,0.0,10.19,-1.0,0.06448954898619023,-0.2,1054.3633635862634,888.4015498722489,189.410720859952,634.6290327608311
0.14000000000000057,-0.015104486398659986,0.5327584961296684,0.024999982234363137,179.99999578767236,-4.212328121627464e-06,8.469922103932646,-0.012459014189889164,0.789738211930427,0.7125465765397324,0.0,0.0,0.0,0.0,0.0,0.0,0.0,10.19,-1.0,0.2584119765058895,-0.2,1038.3950620676915,907.0143942417827,49.58450998358766,660.4330448798896
0.14000000000000057,-0.015104486398659986,0.5327584961296684,0.024999982234363137,179.99999578767236,-4.212328121627464e-06,8.469922103932646,-0.012384220654377887,0.797003614846284,0.7339933122003515,0.0,0.0,0.0,0.0,0.0,0.0,0.0,10.19,-1.0,0.06843358668351082,-0.2,1054.0410067133519,888.7839852602302,187.60800232677587,635.1642841522115
0.14399999999999835,-0.015104486398659986,0.5327584961296684,0.024999982234363137,179.99999578767236,-4.212328121627464e-06,8.469922103932646,-0.012369539381327661,0.7984297456381828,0.7382767634076483,0.0,0.0,0.0,0.0,0.0,0.0,0.0,10.19,-1.0,0.24218744114577986,-0.2,1039.7404520469156,905.471815500421,72.48811162164493,658.3129226083616
0.14399999999999835,-0.015104486398659986,0.5327584961296684,0.024999982234363137,179.99999578767236,-4.212328121627464e-06,8.469922103932646,-0.012302998850307159,0.8048934562355531,0.7595445349948872,0.0,0.0,0.0,0.0,0.0,0.0,0.0,10.19,-1.0,0.07239683997597715,-0.2,1053.7169799594205,889.1681182057481,185.77888081950928,635.7016893489314
0.14800000000000324,-0.015104486398659986,0.5327584961296684,0.024999982234363137,179.99999578767236,-4.212328121627464e-06,8.469922103932646,-0.012289407533418879,0.8062137092851706,0.763791703057271,0.0,0.0,0.0,0.0,0.0,0.0,0.0,10.19,-1.0,0.23353422141512847,-0.2,1040.457293142945,904.6480185320747,82.13219562444196,657.1793764578612
0.14800000000000324,-0.015104486398659986,0.5327584961296684,0.024999982234363137,179.99999578767236,-4.212328121627464e-06,8.469922103932646,-0.012214467877263968,0.8134933062800087,0.7848659804176987,0.0,0.0,0.0,0.0,0.0,0.0,0.0,10.19,-1.0,0.07654433753290195,-0.2,1053.3777830740316,889.5699311545953,183.84524083508146,636.2635914634167
0.15200000000000102,-0.015104486398659986,0.5327584961296684,0.024999982234363137,179.99999578767236,-4.212328121627464e-06,8.469922103932646,-0.012199220080364184,0.8149744688871619,0.7890740024488219,0.0,0.0,0.0,0.0,0.0,0.0,0.0,10.19,-1.0,0.2570764317155087,-0.2,1038.5058755135265,906.8875138694088,51.85337192375647,660.2587812515418
0.15200000000000102,-0.015104486398659986,0.5327584961296684,0.024999982234363137,179.99999578767236,-4.212328121627464e-06,8.469922103932646,-0.012116576136862834,0.8230024561187869,0.8099415393929078,0.0,0.0,0.0,0.0,0.0,0.0,0.0,10.19,-1.0,0.08092314015155236,-0.2,1053.0195506783923,889.9939562589342,181.78144243753545,636.8562927262035
0.1559999999999988,-0.015104486398659986,0.5327584961296684,0.024999982234363137,179.99999578767236,-4.212328121627464e-06,8.469922103932646,-0.012100353258396401,0.8245783376131955,0.8141078067976387,0.0,0.0,0.0,0.0,0.0,0.0,0.0,10.19,-1.0,0.27291873219644036,-0.2,1037.1906380374949,908.391433609833,0.0,662.3229514845924
0.1559999999999988,-0.015104486398659986,0.5327584961296684,0.024999982234363137,179.99999578767236,-4.212328121627464e-06,8.469922103932646,-0.01202680944943036,0.831722342779585,0.8347565665737671,0.0,0.0,0.0,0.0,0.0,0.0,0.0,10.19,-1.0,0.08536891860045427,-0.2,1052.6557142286085,890.424260445666,179.66182511009222,637.4574958361894
0.1600000000000037,-0.015104486398659986,0.5327584961296684,0.024999982234363137,179.99999578767236,-4.212328121627464e-06,8.469922103932646,-0.012012387989148826,0.8331232355019859,0.8388787102691384,0.0,0.0,0.0,0.0,0.0,0.0,0.0,10.19,-1.0,0.2564662693080523,-0.2,1038.556498258773,906.8295408801085,52.85753285268086,660.1791511554743
0.1600000000000037,-0.015104486398659986,0.5327584961296684,0.024999982234363137,179.99999578767236,-4.212328121627464e-06,8.469922103932646,-0.011947390014394255,0.8394371030318267,0.8592977947981177,0.0,0.0,0.0,0.0,0.0,0.0,0.0,10.19,-1.0,0.08983529233311292,-0.2,1052.2900656144434,890.8563487440068,177.50690379418234,638.0609136321059
0.16400000000000148,-0.015104486398659986,0.5327584961296684,0.024999982234363137,179.99999578767236,-4.212328121627464e-06,8.469922103932646,-0.011934660070052592,0.8406736828258742,0.8633736711804291,0.0,0.0,0.0,0.0,0.0,0.0,0.0,10.19,-1.0,0.24130561753047794,-0.2,1039.8135257829597,905.3878991278618,73.52881819353088,658.1974956612167
0.16400000000000148,-0.015104486398659986,0.5327584961296684,0.024999982234363137,179.99999578767236,-4.212328121627464e-06,8.469922103932646,-0.011877682175342491,0.8462084841898736,0.8835532538732406,0.0,0.0,0.0,0.0,0.0,0.0,0.0,10.19,-1.0,0.09432171323787636,-0.2,1051.9226478418996,891.2901655721555,175.31564604010777,638.6664658905886
0.16799999999999926,-0.015104486398659986,0.5327584961296684,0.024999982234363137,179.99999578767236,-4.212328121627464e-06,8.469922103932646,-0.01186599574678947,0.8473436974339684,0.8875809314961984,0.0,0.0,0.0,0.0,0.0,0.0,0.0,10.19,-1.0,0.23370721904955805,-0.2,1040.4429666897652,904.6644954645634,81.95050724643183,657.202057788689
0.16799999999999926,-0.015104486398659986,0.5327584961296684,0.024999982234363137,179.99999578767236,-4.212328121627464e-06,8.469922103932646,-0.011800390136418126,0.8537165903535264,0.9075121934857644,0.0,0.0,0.0,0.0,0.0,0.0,0.0,10.19,-1.0,0.09899318545354414,-0.2,1051.5399387647963,891.7416517528391,173.004513008242,639.2963857855101
0.17200000000000415,-0.015104486398659986,0.5327584961296684,0.024999982234363137,179.99999578767236,-4.212328121627464e-06,8.469922103932646,-0.011787001653763821,0.85501714019718,0.911489940415942,0.0,0.0,0.0,0.0,0.0,0.0,0.0,10.19,-1.0,0.2582951868579189,-0.2,1038.4047528647225,907.0032996171007,49.78704124360708,660.4178078488209
0.17200000000000415,-0.015104486398659986,0.5327584961296684,0.024999982234363137,179.99999578767236,-4.212328121627464e-06,8.469922103932646,-0.011713467483800276,0.8621602090361667,0.9311650100413795,0.0,0.0,0.0,0.0,0.0,0.0,0.0,10.19,-1.0,0.10389674595996286,-0.2,1051.1380660215978,892.2153229174716,170.54486958971418,639.9569343762611
0.17600000000000193,-0.015104486398659986,0.5327584961296684,0.024999982234363137,179.99999578767236,-4.212328121627464e-06,8.469922103932646,-0.011699059208496423,0.8635598209770852,0.9350912818590024,0.0,0.0,0.0,0.0,0.0,0.0,0.0,10.19,-1.0,0.2751741914275192,-0.2,1037.0032527820201,908.6053433740432,0.0,662.616303312405
0.17600000000000193,-0.015104486398659986,0.5327584961296684,0.024999982234363137,179.99999578767236,-4.212328121627464e-06,8.469922103932646,-0.01163440519903942,0.8698402759070426,0.9545031772481667,0.0,0.0,0.0,0.0,0.0,0.0,0.0,10.19,-1.0,0.10886804240104628,-0.2,1050.730485056273,892.6952806315055,168.01449619106728,640.6259122680698
0.17999999999999972,-0.015104486398659986,0.5327584961296684,0.024999982234363137,179.99999578767236,-4.212328121627464e-06,8.469922103932646,-0.01162175448969391,0.8710691588571295,0.9583766056626825,0.0,0.0,0.0,0.0,0.0,0.0,0.0,10.19,-1.0,0.25974940040864364,-0.2,1038.2840808554554,907.1414353509024,47.20329714760618,660.607507630688
0.17999999999999972,-0.015104486398659986,0.5327584961296684,0.024999982234363137,179.99999578767236,-4.212328121627464e-06,8.469922103932646,-0.011565430614488047,0.8765404291260867,0.9775191802658203,0.0,0.0,0.0,0.0,0.0,0.0,0.0,10.19,-1.0,0.11386067177879436,-0.2,1050.320995887719,893.1770383780491,165.43431659216745,641.2970585409832
0.1840000000000046,-0.015104486398659986,0.5327584961296684,0.024999982234363137,179.99999578767236,-4.212328121627464e-06,8.469922103932646,-0.011553884661245233,0.8776619966757855,0.9813385623169154,0.0,0.0,0.0,0.0,0.0,0.0,0.0,10.19,-1.0,0.251943840498252,-0.2,1038.9316292746564,906.3997385155521,59.776659416860895,659.5886455879872
0.1840000000000046,-0.015104486398659986,0.5327584961296684,0.024999982234363137,179.99999578767236,-4.212328121627464e-06,8.469922103932646,-0.01148922018480895,0.883943468362355,1.0002064532509554,0.0,0.0,0.0,0.0,0.0,0.0,0.0,10.19,-1.0,0.11903960308570635,-0.2,1049.8960577066237,893.6764986841956,162.71462961779886,641.9925075170094
0.1880000000000024,-0.015104486398659986,0.5327584961296684,0.024999982234363137,179.99999578767236,-4.212328121627464e-06,8.469922103932646,-0.011476028872338496,0.8852248652027594,1.0039707410672025,0.0,0.0,0.0,0.0,0.0,0.0,0.0,10.19,-1.0,0.2763785350731468,-0.2,1036.903181134172,908.7195437769498,0.0,662.7728907021784
0.1880000000000024,-0.015104486398659986,0.5327584961296684,0.024999982234363137,179.99999578767236,-4.212328121627464e-06,8.469922103932646,-0.011403701277742219,0.892250727973981,1.0225593201366137,0.0,0.0,0.0,0.0,0.0,0.0,0.0,10.19,-1.0,0.12445183905599909,-0.2,1049.4517927034615,894.1981609687219,159.82297679700605,642.718481520003
0.19200000000000017,-0.015104486398659986,0.5327584961296684,0.024999982234363137,179.99999578767236,-4.212328121627464e-06,8.469922103932646,-0.011389542573314355,0.8936260967372271,1.0262676112252023,0.0,0.0,0.0,0.0,0.0,0.0,0.0,10.19,-1.0,0.2931552160763624,-0.2,1035.5081629441586,910.3088820638669,0.0,664.9503411322543
0.19200000000000017,-0.015104486398659986,0.5327584961296684,0.024999982234363137,179.99999578767236,-4.212328121627464e-06,8.469922103932646,-0.01132634011194617,0.8997655490839411,1.044572938491476,0.0,0.0,0.0,0.0,0.0,0.0,0.0,10.19,-1.0,0.12993299396837893,-0.2,1049.0016787076474,894.7261560706106,156.84017545007416,643.4528652235723
0.19600000000000506,-0.015104486398659986,0.5327584961296684,0.024999982234363137,179.99999578767236,-4.212328121627464e-06,8.469922103932646,-0.011313987318846124,0.9009654926137469,1.0482244665335103,0.0,0.0,0.0,0.0,0.0,0.0,0.0,10.19,-1.0,0.27767625672081686,-0.2,1036.7953396848172,908.8425825720301,0.0,662.9415775946864
0.19600000000000506,-0.015104486398659986,0.5327584961296684,0.024999982234363137,179.99999578767236,-4.212328121627464e-06,8.469922103932646,-0.011259340640447809,0.9062738409069915,1.066243246311171,0.0,0.0,0.0,0.0,0.0,0.0,0.0,10.19,-1.0,0.13543663232009873,-0.2,1048.5495239531479,895.2560036693304,153.78693990752396,644.189418970472
0.20000000000000284,-0.015104486398659986,0.5327584961296684,0.024999982234363137,179.99999578767236,-4.212328121627464e-06,8.469922103932646,-0.011248137120533252,0.9073621446714634,1.0698373724383676,0.0,0.0,0.0,0.0,0.0,0.0,0.0,10.19,-1.0,0.26986202667011455,-0.2,1037.4445374229267,908.1014525149063,22.033768003180025,661.9251796594664
0.20000000000000284,-0.015104486398659986,0.5327584961296684,0.024999982234363137,179.99999578767236,-4.212328121627464e-06,8.469922103932646,-0.011185357253526325,0.9134605464342795,1.0875669116010063,0.0,0.0,0.0,0.0,0.0,0.0,0.0,10.19,-1.0,0.14112769143974002,-0.2,1048.081766389479,895.8035651024519,150.56462978348478,644.9501706781672
0.20400000000000063,-0.015104486398659986,0.5327584961296684,0.024999982234363137,179.99999578767236,-4.212328121627464e-06,8.469922103932646,-0.011172549278944637,0.9147047060429397,1.091103116130724,0.0,0.0,0.0,0.0,0.0,0.0,0.0,10.19,-1.0,0.2943310232844345,-0.2,1035.4103214900933,910.4201680763308,0.0,665.1026821834871
0.20400000000000063,-0.015104486398659986,0.5327584961296684,0.024999982234363137,179.99999578767236,-4.212328121627464e-06,8.469922103932646,-0.011102296504059618,0.9215290219682071,1.1085412846158893,0.0,0.0,0.0,0.0,0.0,0.0,0.0,10.19,-1.0,0.14705314321913698,-0.2,1047.5945217685346,896.3733230350557,147.13463475059925,645.7413024241538
0.2079999999999984,-0.015104486398659986,0.5327584961296684,0.024999982234363137,179.99999578767236,-4.212328121627464e-06,8.469922103932646,-0.011088558634578551,0.922863511056109,1.1120191592223099,0.0,0.0,0.0,0.0,0.0,0.0,0.0,10.19,-1.0,0.31118257741325506,-0.2,1034.0070501549694,912.0136164105072,0.0,667.2821981183866
0.2079999999999984,-0.015104486398659986,0.5327584961296684,0.024999982234363137,179.99999578767236,-4.212328121627464e-06,8.469922103932646,-0.011027604983005175,0.9287845152558176,1.1291643526291955,0.0,0.0,0.0,0.0,0.0,0.0,0.0,10.19,-1.0,0.15304857189714474,-0.2,1047.1012922493067,896.9494411939758,143.580761015935,646.5407918033632
0.2120000000000033,-0.015104486398659986,0.5327584961296684,0.024999982234363137,179.99999578767236,-4.212328121627464e-06,8.469922103932646,-0.011015707309185226,0.9299402487489928,1.1325835929297057,0.0,0.0,0.0,0.0,0.0,0.0,0.0,10.19,-1.0,0.29581678027178404,-0.2,1035.2866752221687,910.5607702925603,0.0,665.295131353984
0.2120000000000033,-0.015104486398659986,0.5327584961296684,0.024999982234363137,179.99999578767236,-4.212328121627464e-06,8.469922103932646,-0.010963468143412057,0.9350147325895526,1.1494346971084468,0.0,0.0,0.0,0.0,0.0,0.0,0.0,10.19,-1.0,0.15906751271504066,-0.2,1046.6058946315054,897.5274467173354,139.92218330615518,647.3424233112437
0.21600000000000108,-0.015104486398659986,0.5327584961296684,0.024999982234363137,179.99999578767236,-4.212328121627464e-06,8.469922103932646,-0.010953294760912474,0.9360029693719341,1.1527950956450683,0.0,0.0,0.0,0.0,0.0,0.0,0.0,10.19,-1.0,0.2818154121220918,-0.2,1036.4512984111914,909.2349104110052,0.0,663.4793272722541
0.21600000000000108,-0.015104486398659986,0.5327584961296684,0.024999982234363137,179.99999578767236,-4.212328121627464e-06,8.469922103932646,-0.010909215935638377,0.9402847622232117,1.1693514531811176,0.0,0.0,0.0,0.0,0.0,0.0,0.0,10.19,-1.0,0.16510933560924274,-0.2,1046.108377730178,898.1072755139492,136.15085993489765,648.1461052406491
0.21999999999999886,-0.015104486398659986,0.5327584961296684,0.024999982234363137,179.99999578767236,-4.212328121627464e-06,8.469922103932646,-0.010900113227990537,0.9411689942391835,1.1726528927779245,0.0,0.0,0.0,0.0,0.0,0.0,0.0,10.19,-1.0,0.27544436949493256,-0.2,1036.9808039132113,908.630963925324,0.0,662.6514347765327
0.21999999999999886,-0.015104486398659986,0.5327584961296684,0.024999982234363137,179.99999578767236,-4.212328121627464e-06,8.469922103932646,-0.010847520400140477,0.9462778326194387,1.1889142712794258,0.0,0.0,0.0,0.0,0.0,0.0,0.0,10.19,-1.0,0.17133896497095177,-0.2,1045.5951479305995,898.7047362244961,132.1496578874105,648.9737269873682
0.22400000000000375,-0.015104486398659986,0.5327584961296684,0.024999982234363137,179.99999578767236,-4.212328121627464e-06,8.469922103932646,-0.010836737546622887,0.947325273081404,1.1921567187575604,0.0,0.0,0.0,0.0,0.0,0.0,0.0,10.19,-1.0,0.30132345640464897,-0.2,1034.8282749596872,911.0816964643243,0.0,666.0079226554631
0.22400000000000375,-0.015104486398659986,0.5327584961296684,0.024999982234363137,179.99999578767236,-4.212328121627464e-06,8.469922103932646,-0.010776305071298313,0.9531956505068622,1.2081232808578923,0.0,0.0,0.0,0.0,0.0,0.0,0.0,10.19,-1.0,0.17780336018193743,-0.2,1045.0623104056,899.3242928210392,127.86536409066521,649.8314235750656
0.22800000000000153,-0.015104486398659986,0.5327584961296684,0.024999982234363137,179.99999578767236,-4.212328121627464e-06,8.469922103932646,-0.010764519428701968,0.9543405013485745,1.2113067810908054,0.0,0.0,0.0,0.0,0.0,0.0,0.0,10.19,-1.0,0.3195532596801283,-0.2,1033.3092939555343,912.8040968978331,0.0,668.3621882789322
0.22800000000000153,-0.015104486398659986,0.5327584961296684,0.024999982234363137,179.99999578767236,-4.212328121627464e-06,8.469922103932646,-0.010713032878772082,0.9593418764999284,1.226979056082523,0.0,0.0,0.0,0.0,0.0,0.0,0.0,10.19,-1.0,0.1843380933838984,-0.2,1044.5233988994607,899.9501571975369,123.38334390114922,650.6973035501265
0.23199999999999932,-0.015104486398659986,0.5327584961296684,0.024999982234363137,179.99999578767236,-4.212328121627464e-06,8.469922103932646,-0.010703017228832658,0.9603147912281421,1.2301037263748655,0.0,0.0,0.0,0.0,0.0,0.0,0.0,10.19,-1.0,0.30553507784150524,-0.2,1034.4775437337883,911.4799108037771,0.0,666.5525659739039
0.23199999999999932,-0.015104486398659986,0.5327584961296684,0.024999982234363137,179.99999578767236,-4.212328121627464e-06,8.469922103932646,-0.010659904996370182,0.9645026897851603,1.2454825833951468,0.0,0.0,0.0,0.0,0.0,0.0,0.0,10.19,-1.0,0.19089668811996052,-0.2,1043.9822398458848,900.5778695785959,118.71493510665807,651.5651882829966
0.2360000000000042,-0.015104486398659986,0.5327584961296684,0.024999982234363137,179.99999578767236,-4.212328121627464e-06,8.469922103932646,-0.010651002262655716,0.965367496443196,1.248548608169356,0.0,0.0,0.0,0.0,0.0,0.0,0.0,10.19,-1.0,0.29918827264184544,-0.2,1035.0060412706016,910.8797455326971,0.0,665.7316322883008
0.2360000000000042,-0.015104486398659986,0.5327584961296684,0.024999982234363137,179.99999578767236,-4.212328121627464e-06,8.469922103932646,-0.010599573512161389,0.9703632569891596,1.2636352308607688,0.0,0.0,0.0,0.0,0.0,0.0,0.0,10.19,-1.0,0.19764404191568805,-0.2,1043.425213113842,901.2231915162229,113.7123303138844,652.4568463386838
0.240000000000002,-0.015104486398659986,0.5327584961296684,0.024999982234363137,179.99999578767236,-4.212328121627464e-06,8.469922103932646,-0.010589029606417277,0.9713874861957899,1.2666428566362793,0.0,0.0,0.0,0.0,0.0,0.0,0.0,10.19,-1.0,0.32513039684793427,-0.2,1032.8441380472862,913.3303908168783,0.0,669.0807860021432
0.240000000000002,-0.015104486398659986,0.5327584961296684,0.024999982234363137,179.99999578767236,-4.212328121627464e-06,8.469922103932646,-0.010529943122774152,0.9771271147293783,1.281438719210214,0.0,0.0,0.0,0.0,0.0,0.0,0.0,10.19,-1.0,0.20462708798000723,-0.2,1042.8484155424865,901.8905690209198,108.29190414441038,653.3783696269816
0.24399999999999977,-0.015104486398659986,0.5327584961296684,0.024999982234363137,179.99999578767236,-4.212328121627464e-06,8.469922103932646,-0.01051843231716421,0.9782452680573452,1.2843882498609303,0.0,0.0,0.0,0.0,0.0,0.0,0.0,10.19,-1.0,0.34345989672787164,-0.2,1031.3139054336868,915.0579461145998,0.0,671.4370708823008
0.24399999999999977,-0.015104486398659986,0.5327584961296684,0.024999982234363137,179.99999578767236,-4.212328121627464e-06,8.469922103932646,-0.010468458979470793,0.9830996506040576,1.2988950944944295,0.0,0.0,0.0,0.0,0.0,0.0,0.0,10.19,-1.0,0.21168137295878234,-0.2,1042.2654095522025,902.5642538563847,102.5256194946818,654.3079762213406
0.24800000000000466,-0.015104486398659986,0.5327584961296684,0.024999982234363137,179.99999578767236,-4.212328121627464e-06,8.469922103932646,-0.010458751144929652,0.984042664313728,1.3017868867706106,0.0,0.0,0.0,0.0,0.0,0.0,0.0,10.19,-1.0,0.3295760357877352,-0.2,1032.4732035877971,913.7496922907851,0.0,669.6530411855371
0.24800000000000466,-0.015104486398659986,0.5327584961296684,0.024999982234363137,179.99999578767236,-4.212328121627464e-06,8.469922103932646,-0.010417305484314708,0.9880686729978079,1.316006702270552,0.0,0.0,0.0,0.0,0.0,0.0,0.0,10.19,-1.0,0.21876039556075105,-0.2,1041.6800310906185,903.2397960206367,96.39297628302121,655.2395169118967
0.25200000000000244,-0.015104486398659986,0.5327584961296684,0.024999982234363137,179.99999578767236,-4.212328121627464e-06,8.469922103932646,-0.010409284560290116,0.9888478211474144,1.318841161572057,0.0,0.0,0.0,0.0,0.0,0.0,0.0,10.19,-1.0,0.3170598204593564,-0.2,1033.5171891991665,912.5687020264324,0.0,668.0406659221741
0.25200000000000244,-0.015104486398659986,0.5327584961296684,0.024999982234363137,179.99999578767236,-4.212328121627464e-06,8.469922103932646,-0.010375811899029044,0.9920993370580511,1.3327761632437236,0.0,0.0,0.0,0.0,0.0,0.0,0.0,10.19,-1.0,0.2258634902215256,-0.2,1041.0923312391874,903.9171279068162,89.81960180713989,656.1728960653903
0.2560000000000002,-0.015104486398659986,0.5327584961296684,0.024999982234363137,179.99999578767236,-4.212328121627464e-06,8.469922103932646,-0.010368824171935496,0.9927781210258584,1.3355537396321666,0.0,0.0,0.0,0.0,0.0,0.0,0.0,10.19,-1.0,0.312176424475202,-0.2,1033.9242305337038,912.1075056174253,0.0,667.4105162575547
0.2560000000000002,-0.015104486398659986,0.5327584961296684,0.024999982234363137,179.99999578767236,-4.212328121627464e-06,8.469922103932646,-0.010326649912841056,0.9968749053656313,1.349206350292187,0.0,0.0,0.0,0.0,0.0,0.0,0.0,10.19,-1.0,0.23315554683524276,-0.2,1040.4886516326462,904.6119511216016,82.52849738163012,657.1297265529578
0.2600000000000051,-0.015104486398659986,0.5327584961296684,0.024999982234363137,179.99999578767236,-4.212328121627464e-06,8.469922103932646,-0.010318488281357474,0.9976677217604388,1.3519275347299997,0.0,0.0,0.0,0.0,0.0,0.0,0.0,10.19,-1.0,0.3332085564331439,-0.2,1032.1700149918481,914.0921597082435,0.0,670.1202667041306
0.2600000000000051,-0.015104486398659986,0.5327584961296684,0.024999982234363137,179.99999578767236,-4.212328121627464e-06,8.469922103932646,-0.01028443601169026,1.0009755405129621,1.3653003668064474,0.0,0.0,0.0,0.0,0.0,0.0,0.0,10.19,-1.0,0.24051795236133935,-0.2,1039.8787925856905,905.3129365136012,74.44610112840576,658.094376534562
0.2640000000000029,-0.015104486398659986,0.5327584961296684,0.024999982234363137,179.99999578767236,-4.212328121627464e-06,8.469922103932646,-0.010277880805017953,1.0016123096848626,1.367965687611547,0.0,0.0,0.0,0.0,0.0,0.0,0.0,10.19,-1.0,0.32190563383489756,-0.2,1033.1131219285426,913.0261187870879,0.0,668.6653789414759
0.2640000000000029,-0.015104486398659986,0.5327584961296684,0.024999982234363137,179.99999578767236,-4.212328121627464e-06,8.469922103932646,-0.010237821240933576,1.0055036737140801,1.3810615262766714,0.0,0.0,0.0,0.0,0.0,0.0,0.0,10.19,-1.0,0.24803592640861133,-0.2,1039.2556778410103,906.0281741555145,65.16657600737747,659.0779527272244
0.2680000000000007,-0.015104486398659986,0.5327584961296684,0.024999982234363137,179.99999578767236,-4.212328121627464e-06,8.469922103932646,-0.010229536909505834,1.0063084091139993,1.3836715457819526,0.0,0.0,0.0,0.0,0.0,0.0,0.0,10.19,-1.0,0.3496315129392403,-0.2,1030.7981587635056,915.6388874322233,0.0,672.2285828389432
0.2680000000000007,-0.015104486398659986,0.5327584961296684,0.024999982234363137,179.99999578767236,-4.212328121627464e-06,8.469922103932646,-0.010181393968576872,1.0109849879254191,1.3964933330655773,0.0,0.0,0.0,0.0,0.0,0.0,0.0,10.19,-1.0,0.2557899446769455,-0.2,1038.612607337036,906.7652773286575,53.948742554238144,660.0908752410165
0.27199999999999847,-0.015104486398659986,0.5327584961296684,0.024999982234363137,179.99999578767236,-4.212328121627464e-06,8.469922103932646,-0.010172058154776797,1.0118918637448506,1.3990486444728298,0.0,0.0,0.0,0.0,0.0,0.0,0.0,10.19,-1.0,0.36970628857017396,-0.2,1029.118771800264,917.52600498115,0.0,674.7967584570953
0.27199999999999847,-0.015104486398659986,0.5327584961296684,0.024999982234363137,179.99999578767236,-4.212328121627464e-06,8.469922103932646,-0.010132619015335916,1.015722960065327,1.4115994643068974,0.0,0.0,0.0,0.0,0.0,0.0,0.0,10.19,-1.0,0.2636155420722955,-0.2,1037.9631965529898,907.5085778602054,39.521084274700904,661.111574771904
0.27600000000000335,-0.015104486398659986,0.5327584961296684,0.024999982234363137,179.99999578767236,-4.212328121627464e-06,8.469922103932646,-0.010125004828608187,1.0164625979775523,1.4141006887253973,0.0,0.0,0.0,0.0,0.0,0.0,0.0,10.19,-1.0,0.35753073033563515,-0.2,1030.1376639939317,916.3819124739852,0.0,673.2403025049916
0.27600000000000335,-0.015104486398659986,0.5327584961296684,0.024999982234363137,179.99999578767236,-4.212328121627464e-06,8.469922103932646,-0.010093699684400959,1.019503562473344,1.426383752872479,0.0,0.0,0.0,0.0,0.0,0.0,0.0,10.19,-1.0,0.2714662059638159,-0.2,1037.311297093943,908.2536480574325,14.458415627799134,662.1339627425621
0.28000000000000114,-0.015104486398659986,0.5327584961296684,0.024999982234363137,179.99999578767236,-4.212328121627464e-06,8.469922103932646,-0.010087150414716976,1.020139754929463,1.4288315365328375,0.0,0.0,0.0,0.0,0.0,0.0,0.0,10.19,-1.0,0.353023711790744,-0.2,1030.5145711864461,915.9580420853174,0.0,672.6632368936943
0.28000000000000114,-0.015104486398659986,0.5327584961296684,0.024999982234363137,179.99999578767236,-4.212328121627464e-06,8.469922103932646,-0.010047290411828993,1.0240117336937875,1.4408501713536497,0.0,0.0,0.0,0.0,0.0,0.0,0.0,10.19,-1.0,0.27950679873559714,-0.2,1036.6432014689503,909.0161104934051,0.0,663.1794512378175
0.2839999999999989,-0.015104486398659986,0.5327584961296684,0.024999982234363137,179.99999578767236,-4.212328121627464e-06,8.469922103932646,-0.010039596134313858,1.0247591515810652,1.4432451829880721,0.0,0.0,0.0,0.0,0.0,0.0,0.0,10.19,-1.0,0.3744659150020679,-0.2,1028.7201956891643,917.9728619461475,0.0,675.4042276127201
0.2839999999999989,-0.015104486398659986,0.5327584961296684,0.024999982234363137,179.99999578767236,-4.212328121627464e-06,8.469922103932646,-0.010007991431230613,1.0278292150613666,1.4550028170051745,0.0,0.0,0.0,0.0,0.0,0.0,0.0,10.19,-1.0,0.2876186805573778,-0.2,1035.9687458108817,909.7846855115675,0.0,664.232541659106
0.2880000000000038,-0.015104486398659986,0.5327584961296684,0.024999982234363137,179.99999578767236,-4.212328121627464e-06,8.469922103932646,-0.010001929815720184,1.0284180370591933,1.4573457453855447,0.0,0.0,0.0,0.0,0.0,0.0,0.0,10.19,-1.0,0.363604832161761,-0.2,1029.629488492148,916.9528519590039,0.0,674.0172313251976
0.2880000000000038,-0.015104486398659986,0.5327584961296684,0.024999982234363137,179.99999578767236,-4.212328121627464e-06,8.469922103932646,-0.009964438485987055,1.0320599242156223,1.4688458976024237,0.0,0.0,0.0,0.0,0.0,0.0,0.0,10.19,-1.0,0.2958870449516281,-0.2,1035.2808273554906,910.5674191395628,0.0,665.3042313152821
0.2920000000000016,-0.015104486398659986,0.5327584961296684,0.024999982234363137,179.99999578767236,-4.212328121627464e-06,8.469922103932646,-0.009956671479446297,1.0328144069604606,1.471137449228164,0.0,0.0,0.0,0.0,0.0,0.0,0.0,10.19,-1.0,0.39180249069707584,-0.2,1027.2671051440973,919.598668429451,0.0,677.6122832304278
0.2920000000000016,-0.015104486398659986,0.5327584961296684,0.024999982234363137,179.99999578767236,-4.212328121627464e-06,8.469922103932646,-0.009911205544373216,1.0372309428949373,1.482383718164844,0.0,0.0,0.0,0.0,0.0,0.0,0.0,10.19,-1.0,0.304392342218594,-0.2,1034.5727190897196,911.3718808497754,0.0,666.4048323738292
0.2959999999999994,-0.015104486398659986,0.5327584961296684,0.024999982234363137,179.99999578767236,-4.212328121627464e-06,8.469922103932646,-0.009902408433713534,1.038085489387506,1.4846246150928768,0.0,0.0,0.0,0.0,0.0,0.0,0.0,10.19,-1.0,0.41237724854548347,-0.2,1025.5399299587905,921.52442634391,0.0,680.2234660433338
0.2959999999999994,-0.015104486398659986,0.5327584961296684,0.024999982234363137,179.99999578767236,-4.212328121627464e-06,8.469922103932646,-0.009865743883781457,1.0416470636086488,1.4956206685010534,0.0,0.0,0.0,0.0,0.0,0.0,0.0,10.19,-1.0,0.3129700825349371,-0.2,1033.8580883699635,912.1824759336029,0.0,667.5129697675486
0.30000000000000426,-0.015104486398659986,0.5327584961296684,0.024999982234363137,179.99999578767236,-4.212328121627464e-06,8.469922103932646,-0.009858143801935053,1.0423853313804576,1.4978116463104456,0.0,0.0,0.0,0.0,0.0,0.0,0.0,10.19,-1.0,0.407064646989497,-0.2,1025.986181758622,921.0275626324747,0.0,679.5501942728374
0.30000000000000426,-0.015104486398659986,0.5327584961296684,0.024999982234363137,179.99999578767236,-4.212328121627464e-06,8.469922103932646,-0.009813551087835257,1.0467170431097124,1.5085612115328975,0.0,0.0,0.0,0.0,0.0,0.0,0.0,10.19,-1.0,0.3217392680965258,-0.2,1033.1269969251869,913.0104186222071,0.0,668.6439410629787
0.30400000000000205,-0.015104486398659986,0.5327584961296684,0.024999982234363137,179.99999578767236,-4.212328121627464e-06,8.469922103932646,-0.00980438627968998,1.0476073075338606,1.5107030174172376,0.0,0.0,0.0,0.0,0.0,0.0,0.0,10.19,-1.0,0.4341325344028777,-0.2,1023.7104841594804,923.556311715921,0.0,682.9736131929619
0.30400000000000205,-0.015104486398659986,0.5327584961296684,0.024999982234363137,179.99999578767236,-4.212328121627464e-06,8.469922103932646,-0.009752487733755434,1.0526487037505794,1.5212098723579663,0.0,0.0,0.0,0.0,0.0,0.0,0.0,10.19,-1.0,0.3307467576086919,-0.2,1032.3754989311967,913.8600798234463,0.0,669.8036584719807
0.30799999999999983,-0.015104486398659986,0.5327584961296684,0.024999982234363137,179.99999578767236,-4.212328121627464e-06,8.469922103932646,-0.00974242525303071,1.053626167595528,1.5233032633388484,0.0,0.0,0.0,0.0,0.0,0.0,0.0,10.19,-1.0,0.453674097318606,-0.2,1022.064403028233,925.3776376976564,0.0,685.434510189288
0.30799999999999983,-0.015104486398659986,0.5327584961296684,0.024999982234363137,179.99999578767236,-4.212328121627464e-06,8.469922103932646,-0.009699957448655547,1.0577514667624706,1.533571228011994,0.0,0.0,0.0,0.0,0.0,0.0,0.0,10.19,-1.0,0.33982802517351496,-0.2,1031.6172914237425,914.7159014272653,0.0,670.9708456642722
0.3120000000000047,-0.015104486398659986,0.5327584961296684,0.024999982234363137,179.99999578767236,-4.212328121627464e-06,8.469922103932646,-0.009691216612042853,1.058600546825056,1.5356169692672017,0.0,0.0,0.0,0.0,0.0,0.0,0.0,10.19,-1.0,0.44742002463769814,-0.2,1022.5915023743427,924.7951316697867,0.0,684.647888310241
0.3120000000000047,-0.015104486398659986,0.5327584961296684,0.024999982234363137,179.99999578767236,-4.212328121627464e-06,8.469922103932646,-0.009641412585012398,1.0634384826270602,1.5456498978943254,0.0,0.0,0.0,0.0,0.0,0.0,0.0,10.19,-1.0,0.3491020377708584,-0.2,1030.842415810111,915.589061782155,0.0,672.1607140131451
0.3160000000000025,-0.015104486398659986,0.5327584961296684,0.024999982234363137,179.99999578767236,-4.212328121627464e-06,8.469922103932646,-0.009631767979928476,1.0643753542620218,1.5476487611947198,0.0,0.0,0.0,0.0,0.0,0.0,0.0,10.19,-1.0,0.46729711960831055,-0.2,1020.9152993891867,926.6452221651177,0.0,687.1448633068392
0.3160000000000025,-0.015104486398659986,0.5327584961296684,0.024999982234363137,179.99999578767236,-4.212328121627464e-06,8.469922103932646,-0.00959136378261088,1.0683001957740248,1.557450534821503,0.0,0.0,0.0,0.0,0.0,0.0,0.0,10.19,-1.0,0.35845008083088553,-0.2,1030.0607647894005,916.4683503153988,0.0,673.3579527542261
0.3200000000000003,-0.015104486398659986,0.5327584961296684,0.024999982234363137,179.99999578767236,-4.212328121627464e-06,8.469922103932646,-0.009583034624124753,1.0691092856497482,1.5594032970709009,0.0,0.0,0.0,0.0,0.0,0.0,0.0,10.19,-1.0,0.46138004278678063,-0.2,1021.4145643694178,926.0948677011366,0.0,686.4025053785277
0.3200000000000003,-0.015104486398659986,0.5327584961296684,0.024999982234363137,179.99999578767236,-4.212328121627464e-06,8.469922103932646,-0.009535262848078225,1.0737498097085658,1.5689778166757116,0.0,0.0,0.0,0.0,0.0,0.0,0.0,10.19,-1.0,0.3679911140528425,-0.2,1029.2623644822047,917.3649226719183,0.0,674.5777173583402
0.3240000000000052,-0.015104486398659986,0.5327584961296684,0.024999982234363137,179.99999578767236,-4.212328121627464e-06,8.469922103932646,-0.009526023637179241,1.0746473015753004,1.5708852585482243,0.0,0.0,0.0,0.0,0.0,0.0,0.0,10.19,-1.0,0.48159541369868475,-0.2,1019.7078436994032,927.973776453983,0.0,688.9354289001262
0.3240000000000052,-0.015104486398659986,0.5327584961296684,0.024999982234363137,179.99999578767236,-4.212328121627464e-06,8.469922103932646,-0.009487619962439403,1.0783778134240467,1.580236438616329,0.0,0.0,0.0,0.0,0.0,0.0,0.0,10.19,-1.0,0.3776064157907435,-0.2,1028.4571222731329,918.267588415283,0.0,675.8047494221638
0.32800000000000296,-0.015104486398659986,0.5327584961296684,0.024999982234363137,179.99999578767236,-4.212328121627464e-06,8.469922103932646,-0.00948023360350252,1.079095320269936,1.5820993432859953,0.0,0.0,0.0,0.0,0.0,0.0,0.0,10.19,-1.0,0.46968129969312256,-0.2,1020.7140604876446,926.8668852705755,0.0,687.4437565493721
0.32800000000000296,-0.015104486398659986,0.5327584961296684,0.024999982234363137,179.99999578767236,-4.212328121627464e-06,8.469922103932646,-0.009450579544014787,1.0819758993038913,1.5912311058244744,0.0,0.0,0.0,0.0,0.0,0.0,0.0,10.19,-1.0,0.3872493999649099,-0.2,1027.6489280765543,919.1719626443476,0.0,677.0330806681428
0.33200000000000074,-0.015104486398659986,0.5327584961296684,0.024999982234363137,179.99999578767236,-4.212328121627464e-06,8.469922103932646,-0.00944437968099643,1.0825781505886256,1.5930502577822672,0.0,0.0,0.0,0.0,0.0,0.0,0.0,10.19,-1.0,0.46555003923143445,-0.2,1021.062738126767,926.4827581220399,0.0,686.925757636847
0.33200000000000074,-0.015104486398659986,0.5327584961296684,0.024999982234363137,179.99999578767236,-4.212328121627464e-06,8.469922103932646,-0.00940674038309724,1.0862344112913485,1.6019665267518939,0.0,0.0,0.0,0.0,0.0,0.0,0.0,10.19,-1.0,0.3970848573897762,-0.2,1026.8239470971444,920.0934724016871,0.0,678.283637841669
0.3359999999999985,-0.015104486398659986,0.5327584961296684,0.024999982234363137,179.99999578767236,-4.212328121627464e-06,8.469922103932646,-0.009399507976688924,1.0869369632732604,1.6037427107053281,0.0,0.0,0.0,0.0,0.0,0.0,0.0,10.19,-1.0,0.4874760984438471,-0.2,1019.2108192171112,928.519640222617,0.0,689.670513859098
0.3359999999999985,-0.015104486398659986,0.5327584961296684,0.024999982234363137,179.99999578767236,-4.212328121627464e-06,8.469922103932646,-0.009370650147149594,1.0897401969678187,1.6124474068468386,0.0,0.0,0.0,0.0,0.0,0.0,0.0,10.19,-1.0,0.40699407850245395,-0.2,1025.9921081158939,921.0209608756237,0.0,679.5412465625551
0.3400000000000034,-0.015104486398659986,0.5327584961296684,0.024999982234363137,179.99999578767236,-4.212328121627464e-06,8.469922103932646,-0.00936515425813767,1.0902740646046338,1.6141814066977567,0.0,0.0,0.0,0.0,0.0,0.0,0.0,10.19,-1.0,0.47720105796694834,-0.2,1020.0790883380457,927.5656687392946,0.0,688.3856224757377
0.3400000000000034,-0.015104486398659986,0.5327584961296684,0.024999982234363137,179.99999578767236,-4.212328121627464e-06,8.469922103932646,-0.00934448897870813,1.0922814784860346,1.622678442731034,0.0,0.0,0.0,0.0,0.0,0.0,0.0,10.19,-1.0,0.41693048909278835,-0.2,1025.1573089322146,921.9500573410756,0.0,680.7999732952013
0.3440000000000012,-0.015104486398659986,0.5327584961296684,0.024999982234363137,179.99999578767236,-4.212328121627464e-06,8.469922103932646,-0.009340069117889623,1.0927108213357737,1.6243710406272702,0.0,0.0,0.0,0.0,0.0,0.0,0.0,10.19,-1.0,0.4746406110061784,-0.2,1020.2953381293325,927.3277949462661,0.0,688.0650657368373
0.3440000000000012,-0.015104486398659986,0.5327584961296684,0.024999982234363137,179.99999578767236,-4.212328121627464e-06,8.469922103932646,-0.009310889709836524,1.095545292990346,1.6326643168030208,0.0,0.0,0.0,0.0,0.0,0.0,0.0,10.19,-1.0,0.42705889163113075,-0.2,1024.3056795076689,922.8961432451031,0.0,682.080630588657
0.347999999999999,-0.015104486398659986,0.5327584961296684,0.024999982234363137,179.99999578767236,-4.212328121627464e-06,8.469922103932646,-0.009305332428286033,1.0960851242646021,1.6343162922599432,0.0,0.0,0.0,0.0,0.0,0.0,0.0,10.19,-1.0,0.49807242688661224,-0.2,1018.314624963342,929.5024157441019,0.0,690.9930797639404
0.347999999999999,-0.015104486398659986,0.5327584961296684,0.024999982234363137,179.99999578767236,-4.212328121627464e-06,8.469922103932646,-0.009284432443572044,1.0981153372882864,1.6424096922444493,0.0,0.0,0.0,0.0,0.0,0.0,0.0,10.19,-1.0,0.4372605879972018,-0.2,1023.44717092959,923.8480960658909,0.0,683.3681292042421
0.35200000000000387,-0.015104486398659986,0.5327584961296684,0.024999982234363137,179.99999578767236,-4.212328121627464e-06,8.469922103932646,-0.009280512128534939,1.098496154535485,1.6440218213324689,0.0,0.0,0.0,0.0,0.0,0.0,0.0,10.19,-1.0,0.4892411445849117,-0.2,1019.0615935183741,928.6834147889932,0.0,689.8909916151097
0.35200000000000387,-0.015104486398659986,0.5327584961296684,0.024999982234363137,179.99999578767236,-4.212328121627464e-06,8.469922103932646,-0.009253734186944883,1.101097349058235,1.6519192084069523,0.0,0.0,0.0,0.0,0.0,0.0,0.0,10.19,-1.0,0.4476207150062215,-0.2,1022.5745922137974,924.8138297231175,0.0,684.6731446863338
0.35600000000000165,-0.015104486398659986,0.5327584961296684,0.024999982234363137,179.99999578767236,-4.212328121627464e-06,8.469922103932646,-0.009248653492766313,1.1015908848972247,1.6534922630013666,0.0,0.0,0.0,0.0,0.0,0.0,0.0,10.19,-1.0,0.5131696691890152,-0.2,1017.0363976594211,930.900844410564,0.0,692.8730601862329
0.35600000000000165,-0.015104486398659986,0.5327584961296684,0.024999982234363137,179.99999578767236,-4.212328121627464e-06,8.469922103932646,-0.009230044479742322,1.1033985541905866,1.6611974765584172,0.0,0.0,0.0,0.0,0.0,0.0,0.0,10.19,-1.0,0.45805412889216446,-0.2,1021.695087780124,925.7853767987037,0.0,685.984882706501
0.35999999999999943,-0.015104486398659986,0.5327584961296684,0.024999982234363137,179.99999578767236,-4.212328121627464e-06,8.469922103932646,-0.009226578818677864,1.1037352066008645,1.6627322236481334,0.0,0.0,0.0,0.0,0.0,0.0,0.0,10.19,-1.0,0.5048232611047144,-0.2,1017.7432553922498,930.1279924784218,0.0,691.8343571979301
