Time_s,X,Y,Z,Roll_deg,Pitch_deg,Yaw_deg,Ref_X,Ref_Y,Ref_Z,Ref_Yaw,vx,vy,vz,p,q,r,T_pert,tau_x,tau_y,tau_z,RPM_0,RPM_1,RPM_2,RPM_3
0.0040000000000000036,3.540239794309915e-22,6.0,0.010006999594037988,1.030927412343402e-18,1.9273866450044995e-18,-5.1486728461073835e-21,0.0,0.0,7.200000000000012e-05,0.0,2.453515573794988e-19,1200.0,2.0013999188075973,0.0,0.0,0.0,-10.19,1.0,-6.376092462686879e-18,6.014464043099446e-21,0.0,401.5129355377966,401.5129355377966,0.0
0.008,4.409707067653788e-22,5.99999999999999,0.010010999365430017,5.727995625100803e-11,1.613606436713519e-18,-5.752151635292217e-21,0.0,0.0,0.000215133408,0.0,1.4595696303351745e-19,666.6666666666656,1.1123332628255573,0.0,0.0,0.0,-0.03433847600847206,1.0,3.046078796367972e-18,9.167391742475678e-22,336.9865612840292,676.9129418454993,676.9129418454992,336.98656128402934
0.012000000000000004,5.030801223203368e-22,5.999999999998682,0.010014999138799503,3.055185480044577e-09,1.912561324681863e-18,8.587925194742808e-20,1.0733184456825276e-06,0.00021150896244049076,0.0004285414703013123,0.0,4.2832058234056123e-20,-1.3179222151544664e-10,0.0009999430438785428,0.0,0.0,0.0,0.11268126516095456,1.0,0.012507316800849684,-1.068030061669179e-19,340.1531252291088,681.6641391136326,678.4949056220122,346.43153753900117
0.016,3.574858570463278e-15,5.999999999991842,0.010018998922870401,1.873028647431238e-08,8.193004832112024e-12,5.338424171467744e-12,3.2070368762353425e-06,0.0006319811654495373,0.0007113732083620774,0.0,3.5745723476725183e-13,-8.156823762098645e-10,0.0009999443155142911,0.0,0.0,0.0,0.2602149989452549,1.0,0.013264560278975025,-6.2361234996794456e-12,346.24879006122603,684.9168266540621,681.5712823674121,352.78870596885497
0.020000000000000004,6.841134837717735e-14,5.999999999976837,0.010022998725703948,5.311920450044448e-08,1.5678747626346281e-10,1.4314420469810843e-11,6.3883536779765105e-06,0.0012588939131410106,0.001062785356130613,0.0,6.840363133185854e-12,-2.2849631634092844e-09,0.0009999474148116735,0.0,0.0,0.0,0.40825152884710847,1.0,0.014030555582735357,-1.070496861703041e-11,352.25771325942435,688.1659193519245,684.6434728115921,359.0559067421826
0.024000000000000007,2.398208760277395e-13,5.999999999952863,0.010026998550837031,1.0806377451464652e-07,5.496294241949001e-10,2.148305354873763e-11,1.0604583143046904e-05,0.002089747350119804,0.0014819422978531054,0.0,2.3978284640274625e-11,-4.330806934575798e-09,0.0009999521977241113,0.0,0.0,0.0,0.5567797824964428,1.0,0.01480532495907094,-8.963265206186167e-12,358.1838030253307,691.4112364885765,687.7112948533088,365.23733319309116
0.027999999999999997,5.379671009313173e-13,5.999999999920017,0.010030998399130693,1.8333906134304854e-07,1.2329305179549006e-09,2.72734628542313e-11,1.584315453522581e-05,0.003122064277390734,0.0019680160063522034,0.0,5.1338166315306795e-11,-6.540169851083985e-09,0.0009999577494156921,0.0,0.0,0.0,0.7057887991884694,1.0,0.01558889008960807,-7.64914884318867e-12,364.0306593541368,694.6526029578897,690.7745719652232,371.33684225553844
0.032,1.1938468343518045e-12,5.999999938681003,0.010035181865594158,0.0001405338612243956,2.7630651396666507e-09,3.8750969954926127e-11,2.2529892806227868e-05,0.00435362730653205,0.0025201859817730854,0.0,1.0545006371791178e-10,-6.128204332501617e-06,0.0010183230366462542,0.00024445172136127195,9.710086476492006e-10,7.60016648929752e-12,0.8548951198241103,1.0,0.02148853932401439,-1.4532255254189777e-11,368.59492474668195,698.512317368043,693.190743481027,378.50795118445467
0.036000000000000004,2.3245031974404995e-12,5.999997921390413,0.01004523290619003,0.004763421796603342,5.432911094044473e-09,6.53597576115484e-11,3.064717923092943e-05,0.0057820011480522555,0.003137639190793573,0.0,1.9513127228715708e-10,-0.00020780428506382773,0.001623454643610659,0.00831291105246646,5.6307674920927535e-09,5.388724255704872e-11,0.9929190797956524,1.0,0.022598972236649674,-3.268199235438289e-11,373.7744256320903,701.5320892485142,695.9586981200929,384.05218886762503
0.04000000000000001,3.850131391681185e-12,5.999990452424579,0.01007162523822495,0.02187118267520856,8.99857225627592e-09,9.127568396471644e-11,4.017755500917481e-05,0.007404772650744507,0.0038195700062949463,0.0,3.1081575216212124e-10,-0.0009539881440530983,0.003862905241353304,0.0381715830023556,1.185402869507492e-08,9.777363703438184e-11,1.1099479346163617,1.0,0.023721841381107382,-3.2969826209038706e-11,378.069156258166,704.1045633196456,698.2746416311599,388.73133088950425
0.044,5.774376126012072e-12,5.999974356999818,0.010123811692110816,0.0586907254924495,1.3446681668418063e-08,1.139659965009307e-10,5.110371997519342e-05,0.009219550622900639,0.004565180147490074,0.0,4.0448251978084914e-10,-0.002499264692361042,0.008502286309251695,0.1000268737868891,1.650119304064942e-08,1.0345149462305114e-10,1.2077091249053122,1.0,0.024857173515674125,-3.027236278241397e-11,381.57519479960837,706.2703958325727,700.1791324565334,392.6406545009528
0.048,8.087889612172003e-12,5.999946821226224,0.010210025867077884,0.12152798752379841,1.874100679658089e-08,1.366396515981273e-10,6.340853131679328e-05,0.011223965654880099,0.005373678620505554,0.0,5.013476398205945e-10,-0.004806112375377503,0.015432132747439684,0.19241490532633013,2.031537059801064e-08,7.999301706840904e-11,1.2883652511592105,1.0,0.026004999789932128,-3.119259783641652e-11,384.39639365503604,708.0779829140162,701.7205823494547,395.88286325838266
0.052000000000000005,1.0785964928482578e-11,5.9999053317283115,0.010337368209663916,0.2158411455918006,2.4844838340343228e-08,1.6272001567740684e-10,7.707537545344906e-05,0.013415668475339607,0.006244281659414509,0.0,5.940633074785848e-10,-0.0077758218251153585,0.0243601920629781,0.3114347255508577,2.396578798426567e-08,5.579180768523353e-11,1.3539431599030083,1.0,0.027169698319555007,-3.611276511836142e-11,386.62343607399293,709.5723631079155,702.94300589844,398.54955777498736
0.05600000000000001,1.3867881042592279e-11,5.99984761201141,0.01051189748245371,0.3463183942825695,3.172087749159984e-08,1.965642016566867e-10,9.208741598523113e-05,0.015792332729515864,0.007176212667716818,0.0,6.830729752414981e-10,-0.011316822825015779,0.035015916990816374,0.45347387837540704,2.74573772159031e-08,2.645281401981621e-11,1.40632026362866,1.0,0.028342865778525374,-4.626444046438996e-11,388.3391085346019,710.7931161324017,703.888095793792,400.71893568957296
0.06,1.7332830855476815e-11,5.99977155793379,0.010738728934903618,0.5169609165440893,3.931813099403123e-08,2.4215169108725966e-10,0.00010842797012193878,0.018351653320291112,0.008168702160263459,0.0,7.68097543188942e-10,-0.0153461895874499,0.04715463397607664,0.6152650204698041,3.076238890558214e-08,-1.3595984150384481e-11,1.4472080261526294,1.0,0.02952862022377259,-6.138594981795025e-11,389.6134938750337,711.7773085817779,704.5919831625898,402.46210807430424
0.064,2.1184383629254915e-11,5.999675179119436,0.011022123996541398,0.7311591177129775,4.75976477521934e-08,3.082486484202641e-10,0.0001260805074403641,0.021091346236084912,0.009220987705621773,0.0,8.489686962211746e-10,-0.019789799380901828,0.06055779066622709,0.7938893754271673,3.3878189376947805e-08,-6.298665332507131e-11,1.4781660414054973,1.0,0.030726991481455388,-8.72331258790533e-11,390.5093086025217,712.5579292841215,705.0877308095841,403.8410750714658
0.068,2.5451135249043774e-11,5.999556529444761,0.011365622378178574,0.9918011229606033,5.655666156957129e-08,4.01061637376402e-10,0.00014502864865098298,0.024009148380052064,0.010332313868878385,0.0,9.275170025220742e-10,-0.024583476508883803,0.07503628705944758,0.9868213450160462,3.686388038840283e-08,-1.2644965373810224e-10,1.5005131088889974,1.0,0.03193800910846484,-1.2117734899780464e-10,391.0784606708895,713.1626907974309,705.4031119222605,404.90719276217084
0.07200000000000001,3.015324134965733e-11,5.999413662043607,0.011772112849136474,1.301334312694791,6.616742660761551e-08,5.287466704552249e-10,0.0001652561643740055,0.027102817400577305,0.011501932154876639,0.0,1.0059238487293093e-09,-0.029672373237146478,0.09042857394961128,1.1919033306686935,3.9791589402181515e-08,-2.0905111296808298e-10,1.51544748250171,1.0,0.033161703295352486,-1.6575261022365844e-10,391.367140651383,713.6165970477767,705.5631981102607,405.70612347387816
0.076,3.531051355724074e-11,5.9992445871589055,0.012243906565457796,1.6618286475786004,7.639399847506913e-08,7.004887849142915e-10,0.0001878162582215468,0.03037209710391615,0.012729100951885333,0.0,1.0826822034790318e-09,-0.03500952563367509,0.10659631321896139,1.4072878250771894,4.2591815210792506e-08,-3.137509070198165e-10,1.5240394387006597,1.0,0.046858410810717385,-2.224983198404176e-10,388.66336866897274,715.4440645272014,704.0670434579395,408.91199579115494
0.08,4.099976142578207e-11,5.999047235678952,0.012782803321669641,2.0750348338008378,8.739156784252638e-08,9.559259671626411e-10,0.00021268012709273434,0.03381476246780554,0.01401308547569566,0.0,1.1627763365749034e-09,-0.040554594609114376,0.12342061896732474,1.6313872015134223,4.557886847700962e-08,-4.0278055030893945e-10,1.5272433020904848,1.0,0.0488619436294146,-3.273685809285978e-10,388.3396066983362,715.7507704638346,703.8883699037276,409.44837998323356
0.084,4.758460058161282e-11,5.998819426549853,0.01339015400958226,2.542439956013663,9.979375043289033e-08,1.3044648326482273e-09,0.0002398192305880049,0.03742860892836576,0.015353157714143138,0.0,1.2788996504879397e-09,-0.04627370420555362,0.14080163085958913,1.8628680042053307,4.990407169885179e-08,-5.306982998738379e-10,1.5259030324558058,1.0,0.0508869575459726,-4.466818780171279e-10,387.83951957224207,715.9671303095924,703.6125920284213,409.8264775473788
0.08800000000000001,5.5103939085621143e-11,5.9985588426136545,0.01406690545439668,3.0653100981868464,1.1352435223758815e-07,1.7574981913472402e-09,0.00026920528888414367,0.041211452213964175,0.016748596372051536,0.0,1.4328769882448796e-09,-0.05213862211237692,0.15865610979482594,2.1006188416315603,5.551317896921435e-08,-7.404249557304381e-10,1.5207860001220013,1.0,0.05293351123478589,-5.831511660157006e-10,387.19139185825327,716.1089022151116,703.2555439875017,410.074102264421
0.09200000000000001,6.357542100743274e-11,5.998263010323164,0.014813639241414937,3.6447290235611183,1.2848822530034033e-07,2.340813662738918e-09,0.00030081028062544155,0.04516112818034205,0.01819868681659564,0.0,1.5963580885904251e-09,-0.058125883375276396,0.17691486039713794,2.343715940426187,6.124326057173681e-08,-1.0398989640537053e-09,1.512593753557836,1.0,0.05500165238108044,-7.540669792039766e-10,386.42101576738065,716.1904597472972,702.8316918166755,410.2165081081625
0.09600000000000002,7.303880309535566e-11,5.99792928377758,0.015630602251053494,4.281631277614803,1.4461854090342335e-07,3.0787252726279623e-09,0.00033460644083085396,0.04927549264699524,0.01970272102307982,0.0,1.752260513738317e-09,-0.06421611524638883,0.19552075713622302,2.5913967605781165,6.656419312265897e-08,-1.3769710636862016e-09,1.5019776103641198,1.0,0.05709143131339808,-9.587759451976655e-10,385.55234962112377,716.2251268261508,702.3544683030044,410.2770288965441
0.10000000000000002,8.353133657820154e-11,5.997554832064508,0.016517730739761465,4.976831243651879,1.6183856525774988e-07,3.997713008214106e-09,0.00037056625881704415,0.05355242123479964,0.021259997521129354,0.0,1.904248417260518e-09,-0.07039351704797318,0.21442723488346466,2.8430398042775935,7.159527362270835e-08,-1.7607283244444774e-09,1.4895507830309975,1.0,0.059202899075957396,-1.2008174543969836e-09,384.6080302366879,716.2254357357357,701.8365343044796,410.277567084816
0.104,9.510889791345572e-11,5.9971366303131814,0.017474666475792926,5.731047060314283,1.8010960301509824e-07,5.129725199011128e-09,0.00040866588404660253,0.05798974702291581,0.022869821341291525,0.0,2.0523636015250994e-09,-0.07664533071932189,0.23359674296145197,3.098143948598122,7.635899188727566e-08,-2.1841081310730104e-09,1.475903736464232,1.0,0.0613758182292947,-1.48767939031727e-09,383.6010755063801,716.2082254277321,701.2852258838251,410.2475208698163
0.108,1.0781119133127337e-10,5.99667145254574,0.018500769159888228,6.544922788532634,1.9934587113537863e-07,6.502503897649197e-09,0.000448878267246101,0.06258538550121169,0.024531503962043472,0.0,2.1966478733570878e-09,-0.08296144015559428,0.2529995844621763,3.356312916199606,8.085104672233978e-08,-2.648847904253041e-09,1.4616112137669597,1.0,0.0635332198107294,-1.815774929551415e-09,382.5702952148538,716.1759691865287,700.7219223733576,410.1912040138238
0.112,1.2168390516234385e-10,5.996155865791163,0.019595125615405103,7.419049336342688,2.1948393652200728e-07,8.151029480359492e-09,0.0004911766076741048,0.0673372714744199,0.026244363257203765,0.0,2.3369042404185277e-09,-0.08933410475287246,0.27261315964216076,3.617245131563768,8.507199311615598e-08,-3.1519242442640853e-09,1.447238397026263,1.0,0.06571248968421604,-2.1947155652874734e-09,381.52871437074185,716.1447031854045,700.1537975458705,410.13661080820015
0.116,1.3677982497426299e-10,5.995586228404499,0.02075654920814276,8.353978987048873,2.404723505872654e-07,1.0112532160213169e-08,0.0005355343511036165,0.07224335890470643,0.028007723443744872,0.0,2.4720070163434832e-09,-0.09575764145055257,0.292421043770956,3.880721384598419,8.902078357945011e-08,-3.678489899542197e-09,1.4333604435983986,1.0,0.06791367830952104,-2.628585120298594e-09,380.49833643202254,716.1261776489914,699.5928550020511,410.10426034455224
0.12000000000000001,1.531517183502947e-10,5.994958689115491,0.021983577475224413,9.350239888713142,2.6226135238408995e-07,1.2427333852705705e-08,0.0005819251878198546,0.07730162075543885,0.029820915030003513,0.0,2.6037248509214797e-09,-0.10222802028893332,0.3124117926125376,4.146588879394423,9.277126204828435e-08,-4.227587557883938e-09,1.4205661396122429,1.0,0.07013683616528839,-3.1225458341842687e-09,379.50192797179096,716.1324218451562,699.0514217644384,410.11516169314956
0.12400000000000001,1.7086523833967474e-10,5.994269188323259,0.023274464664560124,10.408347933138868,2.848314975692138e-07,1.5143575457147672e-08,0.0006303256641802269,0.0825099601205778,0.03168327476428597,0.0,2.733020041758824e-09,-0.10874266981373111,0.3325783836543018,4.414753751200942,9.63874417324013e-08,-4.790860157554252e-09,1.4094683048966627,1.0,0.07241246889061645,-3.687411928983959e-09,378.55648536512734,716.1796174274557,698.5386084416181,410.1975653100641
0.128,1.8995151181901008e-10,5.993513459541919,0.024627173350124456,11.528819478910568,3.0808716571415676e-07,1.829862566360974e-08,0.0006807104495220733,0.08786636486414742,0.033594145583865524,0.0,2.857576073471662e-09,-0.11530037493923975,0.3529179393134112,4.68517733673605,9.979713751734116e-08,-5.361016742436804e-09,1.4007059067754215,1.0,0.07468770633516003,-4.312604606931832e-09,377.6991912618988,716.2744405432013,698.07438834689,410.363095389536
0.132,2.1044539055606123e-10,5.99268703077774,0.026039364866551524,12.712184925191398,3.3197385653647376e-07,2.194850282563714e-08,0.0007330539182853437,0.09336886537103575,0.035552876564369104,0.0,2.975149352955113e-09,-0.12190126992271907,0.37343174277134117,4.957876336882198,1.0298557842993007e-07,-5.912895316465942e-09,1.394946723929453,0.9054245409101676,0.07697931098093057,-5.0214747373195105e-09,397.9838254174986,704.9665100483076,685.891209248401,430.02571777123364
0.136,1.7011439341144002e-08,5.991785360823718,0.027508202528089575,13.958844285853926,3.9611343528075694e-07,-1.4325262871781548e-05,0.0007873306819041053,0.0990155104020647,0.03755882286955031,0.0,1.6873924098895113e-06,-0.12853846280589504,0.39410441951651465,5.23265219613729,-5.787430815999404e-06,-2.4351277777286244e-05,1.3932676089383695,0.7731180709982306,0.0790975395681356,1.6758902358817853e-05,425.1424981160411,688.8129402225837,668.7775955756847,456.1452306513785
0.14,4.44113268226158e-07,5.990804633680361,0.029029801736768703,15.268604793259582,1.4869972544825808e-06,-0.00038517247221809794,0.0008435155868766025,0.10480436694372353,0.03961134570144605,0.0,4.472776206413925e-05,-0.13513829913297462,0.4148303151069038,5.508255758854039,-0.00016931742194990223,-0.0006506044234998504,1.3978774066805122,0.6358381816763523,0.07683252425043266,0.00043379741603952025,451.84711479717237,670.6628220289077,651.8389868008937,481.90465922871215
0.14400000000000002,2.073159775343638e-06,5.989742054187819,0.03059906166590041,16.64050846520247,5.843316026991782e-06,-0.0018280108522458797,0.0009015837128500113,0.11073352005904914,0.041709812250913796,0.0,0.0002098137674927002,-0.14154899221146516,0.4353866317912257,5.782102440413132,-0.0008586246253244653,-0.003072625790052511,1.4113600740458725,0.49444756778245713,0.06961469509480317,0.0017013076870941348,477.33875219808573,649.8130604682639,635.9904244251253,508.00065505637144
0.14800000000000002,5.687278145599736e-06,5.988595878930921,0.03220955663007601,18.072683098396144,1.6122910132187093e-05,-0.005104377955250153,0.0009615103707197855,0.11680107273964539,0.04385359564854689,0.0,0.0005654078139383,-0.14758927709989522,0.4554728561534159,6.050724621610292,-0.0025056584252094996,-0.008341771288260094,1.4365589149582194,0.350035919872302,0.061838571623989216,0.0039025343772624826,500.79084568602616,626.6933094177358,621.0463304712368,535.1364181572239
0.15200000000000002,1.1481669691588282e-05,5.987367236430984,0.03385422653158387,19.562889904076577,3.3725722646412734e-05,-0.010506301677724842,0.0010232711007434857,0.12300514575883253,0.04604207491596504,0.0,0.0010692513106868805,-0.15292695731767955,0.4747532545880123,6.311115052832742,-0.0051521501218227735,-0.015908839290493103,1.4749583091620946,0.20311726031726107,0.06025094228911344,0.006520415152028411,522.2266683909573,602.9020295048841,605.44401268258,563.3146600340909
0.15600000000000003,1.9174778259496154e-05,5.986059581824946,0.035525494630225696,21.1085841651329,5.8768185050901527e-05,-0.017921451204769085,0.0010868449676699748,0.12934368128491336,0.0482746349174772,0.0,0.0016144549706533311,-0.1571203162612666,0.4928966502481635,6.561357693930989,-0.008482885271893727,-0.024250801936229045,1.5278239601681247,0.0541614111460158,0.06407994869368468,0.009094735092312617,542.7432492906457,579.0701683143976,588.6300293811669,591.5266242881976
0.16000000000000003,2.846000223007922e-05,5.984676890801571,0.0372153132187142,22.706665266916882,0.00028134520136254714,-0.02705767784816369,0.00115220792519721,0.1358148375805262,0.05055066631211418,0.0,0.0021144226390741733,-0.159867170890508,0.5096232534797841,6.799778635308277,-0.011738555297416183,-0.03197427447548691,1.596345459036545,-0.09604721183714382,0.06816510690190339,0.01141096637244592,563.4901291775826,554.8977609261782,571.0816374593612,618.6519275317081
0.16400000000000003,3.909603298869576e-05,5.9832217981996445,0.03891643080571258,24.35267450374666,0.0025922257200002535,-0.03609160501333461,0.0012193361511715116,0.14241679023481005,0.05286956550602828,0.0,0.0025534724009093493,-0.16128782862317323,0.5248976081710032,7.02267020153251,-0.010606006076333923,-0.03747557566344378,1.679155759657617,-0.24574726726452467,0.0695164816746605,0.011668516253559875,587.3979778368862,533.1962440688501,550.4513939430412,641.601716651382
0.16800000000000004,5.023905375458782e-05,5.981695639131799,0.04062241482880899,26.04009030543478,0.009542655720630037,-0.04263667439028377,0.0012882060457553796,0.1491477320211653,0.0552307346052572,0.0,0.0028591798333245126,-0.16169764604966833,0.5389186734431756,7.223553891745804,0.000717942333194942,-0.03936284395724042,1.7748164513651117,-0.39225844470286964,0.07496369059224103,0.009134618583819133,613.8196429706802,517.1252653222463,524.3818285211702,660.3067213325751
0.172,6.127138720268867e-05,5.980094943530388,0.04233032026616833,27.758736799661666,0.02162052783891802,-0.04597343989068276,0.0013587942296092936,0.1560058727561027,0.057633581368849565,0.0,0.002971267767333508,-0.1616639045696326,0.5523900257544059,7.390961164565461,0.021754907359757523,-0.038312968882913793,1.876447136121739,-0.5308964439624619,0.0775958157719851,0.005658550539217098,639.9514474941014,503.296388784271,497.242534481761,675.9938746159254
0.176,7.221331392064135e-05,5.978414755646978,0.044038097512553956,29.49739269945016,0.03873225472718778,-0.045778323825474636,0.0014310775420873954,0.16298943915917294,0.06007751916234956,0.0,0.002913213093302741,-0.1617233493299005,0.5660865343494998,7.514708461423517,0.046864358102731145,-0.03645891169355415,1.9823170917913502,-0.6597664533287564,0.0730790198843453,0.001672982255310264,665.5111629147432,490.6144992113415,470.7779288078355,688.6275636901246
0.18,8.310076147219723e-05,5.976650026999006,0.045743648472660194,31.24403650313784,0.060937757857591805,-0.04167726183183107,0.0015069404540251554,0.17010131596037248,0.0625619669116377,0.0,0.00278705299217094,-0.16220559684093117,0.5804718351145476,7.588429670346223,0.0727800977573112,-0.03476270362402667,2.092582816687795,-0.7771806671682493,0.09018661981154787,-0.0028945963993382896,686.8509288834373,484.7585829006813,439.68849449491216,701.6160904557045
0.184,9.398756324117644e-05,5.974795633893546,0.04744486118898338,32.98652581613839,0.0883387321100763,-0.03329061032512553,0.0015863372791642281,0.1773397074073589,0.06508634905712558,0.0,0.0026046810321279862,-0.16320742885645825,0.595626492601008,7.609989487600606,0.09984054687375586,-0.03343751357089558,2.207332167442126,-0.8821814327059152,0.08571407071465181,-0.008066335810960699,709.5339352551173,478.4715064503074,412.1951452960527,709.5711192403385
0.188,0.00010494527201572027,5.972846405791268,0.04913961668993678,34.71283348603635,0.12121779914356022,-0.02014649125785801,0.0016692227522604928,0.1847028347422907,0.06765009550830155,0.0,0.0023624641702592736,-0.16481413499830158,0.6116125000014586,7.578778869773264,0.12862521459926984,-0.03266119396846464,2.3266396339196054,-0.9740700958313134,0.08032282117348481,-0.013965868995067857,731.0779721774155,475.8612624557239,384.3234913697783,714.9142031420128
0.192,0.00011606700279629934,5.970797152856101,0.05082579903290567,36.41123655222247,0.15988849731861934,-0.0017571129336204977,0.0017555520256614314,0.1921889360619285,0.0702526415986251,0.0,0.0020551547478150907,-0.16710955516282108,0.6284887733940708,7.495497085032467,0.1596056525749847,-0.03262057619765102,2.4505596360373225,-1.0,0.07389302202173892,-0.02063149457501545,745.55979336818,486.4930986006017,368.4890328923116,711.2683555202702
0.196,0.0001274714976280059,5.968642698803158,0.05250130178460999,38.070576503721895,0.2045539057246792,0.022325027530661522,0.0018452806659095455,0.19979626617880825,0.07289342804076722,0.0,0.001676607057577485,-0.1701756587842758,0.6463075461031019,7.361792320506103,0.192872299372409,-0.03341336871141014,2.5791334334237264,-1.0,0.06646143272438089,-0.02803654533089268,757.9153917807291,502.68336407152975,356.77629170061283,703.4532837648578
0.2,0.00013930610061506187,5.966377912616059,0.05416404844144418,39.68109752728352,0.2553025810078533,0.05241008423253777,0.0019383646503716196,0.20752309648347883,0.07557190088219415,0.0,0.0012213579613681083,-0.1740892764956895,0.6651137007238492,7.181393147095667,0.22788971956230455,-0.03515395690238991,2.7123606266759888,-1.0,0.05808585239502652,-0.03603934950046264,770.9756562745325,519.3954488349233,343.51217251471047,694.745391544304
0.20400000000000001,0.0001517490808981102,5.963997658090844,0.055812099587658634,41.234543961578794,0.3121556526798142,0.08865016604119702,0.002034763357836469,0.21536737228367844,0.07828751146109221,0.0,0.000685243826943565,-0.1789177778240049,0.684956126224435,6.959962988179707,0.263977076732098,-0.03802216987448022,2.8500224696976235,-1.0,0.04881637422330397,-0.04446844027325332,784.496092143648,536.2905477666505,328.96265857491545,685.3409665820818
0.20800000000000002,0.00016501153041155635,5.9614968499580785,0.05744361150155472,42.72412840389898,0.3750584683993383,0.13102216077548634,0.0021344335412745905,0.22332740183953187,0.0810397163626309,0.0,6.576876120783874e-05,-0.18471671385529423,0.7058827405635869,6.7040458480355785,0.300392068644318,-0.042341129137266,2.99197994110662,-1.0,0.03861737605500373,-0.05312580753625274,798.2279387379223,553.0155317694865,313.5295671428077,675.4713186901712
0.21200000000000002,0.0001793384361999399,5.958870493938654,0.059056815801673,44.144281166959004,0.44385401352246234,0.17936428595584586,0.0022373323548477014,0.23140150954490726,0.08382797737556207,0.0,-0.0006376800919476218,-0.19153194780725818,0.727927571379982,6.419621808623627,0.336367971540172,-0.04820874575202021,3.13813236172105,-1.0,0.027597423998245184,-0.06184894148075615,811.9642423540499,569.3384120943705,297.538376133491,665.3508537610021
0.21600000000000003,0.0001950083143343003,5.9561137674123055,0.060649959646777815,45.49043068932319,0.5183582977649377,0.2333295608454604,0.002343417350636893,0.23958803579413296,0.08665176144915254,0.0,-0.0014236308955460765,-0.19940291840246702,0.7510964456577636,6.111796374311102,0.37114801812667714,-0.055782668271089686,3.2884980991366155,-1.0,0.0157666303229924,-0.07041527474142875,825.4576617584039,584.947135116399,281.6148797706237,655.2801818590583
0.22000000000000003,0.00021233367244522368,5.953221976342266,0.06222138166481565,46.75881224232915,0.5983419938966973,0.29240255623793876,0.0024526511765136827,0.2478849002172491,0.08951054065044776,0.0,-0.002288293292073396,-0.20836584808806227,0.775380553568316,5.784732702544363,0.40400926835772,-0.06515893740374933,3.4429410091394352,-1.0,0.0032033479258979716,-0.07861417729335764,838.4799414688686,599.5844073715638,266.461778136996,645.5672739762978
0.22400000000000003,0.0002316593954566338,5.950190602072957,0.06376949115389409,47.946332146826904,0.6835237130843294,0.35595387794780153,0.002564992114099287,0.2562904800690498,0.09240379212186403,0.0,-0.003225397183363823,-0.21845610399142687,0.8007613883701895,5.441841482348084,0.4342882001773942,-0.07640370530970228,3.6013643251866223,-1.0,-0.010140784516268257,-0.08629171142401687,850.8906139445088,613.0812467468056,252.78604785337663,636.4408384970834
0.22800000000000004,0.0002533603839829291,5.947015336032783,0.06529276275359043,49.050455416402365,0.7736172809038421,0.42324800931174983,0.002680398833779448,0.2648031681635162,0.09533099803910691,0.0,-0.004226317415048591,-0.22970995136668876,0.8272047181677905,5.085949787141508,0.4614481407211117,-0.08942994052119649,3.7636799232070732,-1.0,-0.024198373869929152,-0.09329837699371632,862.5494567566675,625.3002308402534,241.37675816546033,628.1511994925314
0.23200000000000004,0.0002778399334697816,5.943692059208818,0.06678978151908246,50.069104086542765,0.8683712751917907,0.49341452684042725,0.0027988303915271215,0.2734213727449648,0.09829164556941347,0.0,-0.0052801342031990476,-0.2421659178067174,0.8546636826989488,4.7194055442161815,0.4850646166760074,-0.10425481141581132,3.9297061971927265,-1.0,-0.03900640569794078,-0.09944664011317172,873.2909420967507,636.0363803425129,233.30579195876317,620.9985320725547
0.23600000000000004,0.000305530741737617,5.940216724921789,0.0682593646582552,51.000566570644004,0.9674781483855858,0.5654326866024296,0.0029202462257494188,0.282143517360187,0.10128522683011584,0.0,-0.006372963230957552,-0.2558655141467313,0.8831012499255504,4.344130836093135,0.5046220898899653,-0.12090294656694885,4.099011032437712,-1.0,-0.054527766201714616,-0.10452536087684351,882.919235872882,645.0597873863053,229.7264733629693,615.3311153322943
0.24000000000000005,0.0003368899359439131,5.93658544462231,0.06970050364360471,51.84344935231355,1.0706197653894542,0.6381958139772819,0.00304461400650497,0.2909674891968374,0.10431123884752391,0.0,-0.007487667119722268,-0.27085368098144846,0.9124785734519898,3.961725677901723,0.5196173421701562,-0.13937006596654183,4.271272475458536,-1.0,-0.07061466237356875,-0.10839237289016497,891.3050768441302,652.254646862795,231.3346049740615,611.4159472145622
0.24400000000000005,0.000372398168205242,5.93279441787519,0.0711124390098713,52.59662126116022,1.1774152634067412,0.7104928493949171,0.0031718938331952687,0.29989174866527274,0.10736918351612457,0.0,-0.008603541484884139,-0.28717899706961186,0.9427528101621092,3.573539718862083,0.5295642531507626,-0.15942891524875924,4.446011290168975,-1.0,-0.08737020502841396,-0.11088034641303326,898.3151185274957,657.4242304886426,238.67456196166788,609.5116815040512
0.24800000000000005,0.00041255282884030667,5.9288400287444265,0.07249459957687121,53.259167606861446,1.2874694516304581,0.7810771935432861,0.0033020461791953373,0.30891477104057075,0.11045856755809544,0.0,-0.00969662578008624,-0.3048940008646743,0.9738646930478921,3.180709084209997,0.5341159608287976,-0.18091617596972887,4.62286372308965,-1.0,-0.10461714328803919,-0.1118980028644703,903.8662976444094,660.5048621390428,251.4944491161338,609.7903111167954
0.25200000000000006,0.0004578657797822644,5.924718794208926,0.07384666154084835,53.83034774360298,1.400342502826505,0.8486426077187956,0.0034350318887890023,0.31803504633904356,0.11357890248313057,0.0,-0.010739676371328905,-0.3240552170849841,1.005743410874954,2.7841707101831554,0.533011400813982,-0.2035859624162378,4.801340164312746,-0.9788685253853681,-0.12227500745077487,-0.11132436505671522,905.8402859412182,664.1055612597212,276.0468704636199,609.4488071884667
0.256,0.0005088573282851058,5.920427409537062,0.0751685318387544,54.309575868944314,1.515542044815968,0.9118748591324103,0.0035708121741275935,0.3272510791957022,0.11672970454857584,0.0,-0.011702400796043812,-0.3447230786347063,1.0383070113083013,2.3847169314067473,0.5260595848173143,-0.2271841870749877,4.980976951471547,-0.9102172710773553,-0.14020536142260473,-0.10909624550820066,901.657792863856,671.5335932544886,316.9357363307006,604.8419468514927
0.26,0.0005660584295257275,5.915962582188044,0.07646049359693133,54.69665408384229,1.6324379400503448,0.9693522433813501,0.003709361627264353,0.3365607039665103,0.11991049471987206,0.0,-0.012550820739350748,-0.3669597744945917,1.0714840354684694,1.983482124197104,0.5129014144332279,-0.2513943981109491,5.161007945559632,-0.8351113597576022,-0.1581057685571331,-0.10503383124030087,894.9682175297055,677.2404645494611,359.3969946022742,602.0772220050056
0.264,0.0006299981279698073,5.91132121300405,0.07772309622061804,54.99227459460858,1.7503340823880777,1.0196566788656234,0.0038506420304053874,0.3459624624020062,0.1231207986313028,0.0,-0.013247205267589632,-0.39082350501361274,1.1051944997918595,1.5828893134022446,0.49322083322608223,-0.2758812515750599,5.340878147756079,-0.7545761802279534,-0.1760236508034458,-0.09908257273625955,885.7536679069997,681.0486198250904,402.8283031889575,601.3896063620031
0.268,0.000701194497009114,5.906500460084364,0.07895712630667788,55.19813575378742,1.8684972763860879,1.0614353874239402,0.003994615526056133,0.35545491043490995,0.12636014654704567,0.0,-0.013750717700951057,-0.41636063027925874,1.1393361981835848,1.1867158051087316,0.46695256013034403,-0.30034350337311866,5.520083169468548,-0.6769683594701797,-0.19362882655967462,-0.09126002297877989,874.7351719633195,681.9891981026492,445.21656793741073,603.9878614351632
0.272,0.0007801474926342033,5.901497752147911,0.08016360687780909,55.31682960996658,1.986155605690786,1.0934376790203708,0.004141244614060629,0.3650366180619235,0.1296280733225239,0.0,-0.014019030071581996,-0.44360051481779206,1.1737842739859825,0.7991846875683828,0.4343524931901189,-0.3244751823804909,5.698112679114981,-0.5963931186402753,-0.21074343582800426,-0.08162929240894638,861.2945234472708,680.9167962831552,487.71153313475,608.9147403548616
0.276,0.000867332866732684,5.896310782699051,0.08134380371815593,55.351682721403115,2.1024853726696784,1.1145317927281702,0.004290492148663463,0.37470616922644295,0.1329241183660568,0.0,-0.014009200924827164,-0.4725542938778206,1.208413201107565,0.4240127401435657,0.39577910222444057,-0.34795045283292125,5.874436012573424,-0.5138245646481224,-0.2271773765125998,-0.07027726915231917,845.4808525295214,677.8279076594174,529.9338824049522,616.1357104968209
0.28,0.0009631964728494171,5.890937500774441,0.08249922952717488,55.30665410051764,2.2165958717558882,1.1237125657977458,0.0044423213355942095,0.38446216170217634,0.13624782560080612,0.0,-0.01367832363617687,-0.5032149022219412,1.243101913958316,0.06435246796402834,0.3516110346560829,-0.3704188000521578,6.04850639752528,-0.4301701807726549,-0.24271784404415958,-0.05730460461866778,827.3319580363543,672.7306380769309,571.600305392438,625.5658076793709
0.28400000000000003,0.0010681485388923447,5.8853761078051905,0.08363163835746497,55.18621726939368,2.327551880626787,1.1200750282738197,0.004596695729174203,0.3943032069776599,0.1395987434270168,0.0,-0.012983913540759128,-0.5355572257706909,1.2777357347216751,-0.2771811851117964,0.3021971178042777,-0.39158976304152515,6.21978053830494,-0.34624573530646807,-0.2571675549052565,-0.04278623291007225,806.8313391260024,665.5897401981657,612.5569961390478,637.1239865602263
0.28800000000000003,0.001182557803688937,5.8796250554169225,0.08474301652971275,54.99532265205248,2.4342304193091677,1.1029236509179572,0.004753597185109569,0.4042274353874663,0.1429764246845496,0.0,-0.011884483730370017,-0.5695386023327327,1.3122066933992016,-0.5983259487958936,0.24786318706938099,-0.41094092646987496,6.3877259414078615,-0.26286138728191,-0.2699421568271175,-0.026928758037212907,784.0502428775583,656.5846546494073,652.4522064613022,650.5793464889738
0.29200000000000004,0.0013067481777400982,5.873682993038498,0.08583560967379684,54.73959298339098,2.5355507033386933,1.071604535363048,0.004912989730199629,0.41423349146176086,0.14638042661570336,0.0,-0.010340198452270206,-0.6050957085667836,1.3464218941644877,-0.8967011001872628,0.18890143091484474,-0.42820513979447156,6.551747884957615,-0.1810915488124683,-0.28135115445124953,-0.009751307328164087,758.9520036928519,645.4662785032945,691.3365067645063,665.8765451329941
0.29600000000000004,0.0014409915456512034,5.867548810617945,0.08691186138172563,54.424700751173454,2.630240922443708,1.025618741027552,0.005074837733242903,0.42432003305055105,0.1498103108283251,0.0,-0.008312775085753751,-0.642146858274978,1.3803001189934223,-1.1705072810142554,0.1255167343967147,-0.4429610245087023,6.7113679402895645,-0.10133355047858705,-0.2907828943131125,0.00859294428596833,731.4546828193544,632.3626762772955,729.0508031252226,682.8038752471141
0.30000000000000004,0.0015855024667943733,5.861221603846113,0.08797442623888284,54.05687993476284,2.716955880957272,0.9646390418664186,0.005239105902215843,0.4344857312121657,0.15326564325920558,0.0,-0.005766089782202607,-0.6805922885581783,1.4137715299549343,-1.4183552264568409,0.05790144366258434,-0.45486573691981774,6.866074974234637,-0.02458965911840061,-0.29796118430299684,0.027924919106561023,701.5879971216827,617.2991059576584,765.4005571060417,701.1563247962599
0.30400000000000005,0.0017404327284823299,5.854700670198525,0.08902614133298553,53.642636833899985,2.79428443571249,0.8884719836771457,0.00540575928147321,0.44472927010259716,0.15674599413775817,0.0,-0.0026674847483470977,-0.7203141685999274,1.4467820280315469,-1.6386575132299992,-0.013674259809108543,-0.4634138922109365,7.015409002448282,0.04843278476649032,-0.30260552330077434,0.048102834194636186,669.273265814003,600.2714119053525,800.2950317739906,720.754027286502
0.30800000000000005,0.0019058653382525604,5.847985503606172,0.09006999878007418,53.188661602307754,2.860755918638291,0.7970742179618127,0.005574799499691128,0.45504808953208625,0.16025093794997916,0.0,0.0010118397780671143,-0.7611766035320807,1.4792950357040353,-1.8302292971093472,-0.08895999287646054,-0.46831696657246147,7.158960032277879,0.11710658158338627,-0.30400291080923336,0.06896034648081209,634.354942706897,581.3709240840789,833.5888984778047,741.4408706606758
0.31200000000000006,0.0020818089078163777,5.841075781589992,0.09110912033509896,52.7017004091214,2.914908589229775,0.6905110003545241,0.005746191829354215,0.4654409146566648,0.1637800534026873,0.0,0.0052966112840985395,-0.8030296931643163,1.5112901490477832,-1.9925135648178685,-0.1677148090995647,-0.4693657546661676,7.296364706684464,0.18093656999911634,-0.30275533814459954,0.09037343249812207,596.7154487236946,560.4322827430767,865.3404166459924,762.9607104845788
0.31600000000000006,0.0022681916383605234,5.833971358074631,0.09214672469803165,52.188403127443,2.9551918917225164,0.5690463556478654,0.0059199018750012615,0.47590648326628726,0.16733292338804046,0.0,0.010207089464100217,-0.8457135354698817,1.5427629174124022,-2.1255177603100477,-0.2496759600611957,-0.4662383378870686,7.427321937089333,0.23959690750844442,-0.29812327999383004,0.11210827758006975,556.1145545767059,537.6729619248439,895.3675842663051,785.0842052489766
0.32,0.0024648519191844075,5.826672296412964,0.09318606794026855,51.65562385341592,2.98011716149591,0.43320247862337674,0.006095895570478814,0.48644354567866305,0.17090913494832735,0.0,0.01575686118202021,-0.8890590627502781,1.573720525649657,-2.229170702592808,-0.3343540508227286,-0.4585829082338552,7.551648497471019,0.29241276821118467,-0.2898873829384917,0.13385349696343654,512.4750858802996,513.3235730835871,923.4441240307536,807.5014620022077
0.324,0.0026715365194734018,5.8191788082320235,0.09423044529421469,51.11008941758732,2.988317411944758,0.2836250327998937,0.006274139176215874,0.4970508646339125,0.1745082792410327,0.0,0.021951434494087072,-0.9328889478253585,1.6041866267795282,-2.3034548421551286,-0.4211071010195101,-0.4461622493880494,7.669156385196684,0.3390776659103001,-0.27798046704169,0.15544442050062054,465.3042156229116,487.4066426214272,949.5477691179254,830.0428585517286
0.328,0.002887896472330132,5.81149123137207,0.09528316457729137,50.558250080201056,2.978425359586776,0.12117852828631365,0.006454640425745893,0.5077259776716904,0.17812995150417293,0.0,0.0287886847341688,-0.9770216028467258,1.6342070497188455,-2.349048773220796,-0.5093561236094357,-0.4288299735444544,7.779710331671513,0.37946346886194965,-0.26169081626784113,0.17659984653042832,413.88981426638276,460.3208261912286,973.4968772692074,852.4796676554857
0.332,0.0031134766356495573,5.803610105511606,0.0963474415042796,50.00656005295973,2.949277999930062,-0.05295908205202127,0.006637365729298372,0.5184676869589369,0.18177375102190133,0.0,0.036256835400304936,-1.0212745894507338,1.6638352755604118,-2.3667350773096745,-0.5982533531066039,-0.40634564087477243,7.883387177850535,0.41312888037507506,-0.24187538087366844,0.19691902321142554,357.7422348759316,432.4375431511547,995.1160781607464,874.3614881724213
0.336,0.0033477169844281936,5.795536092730487,0.0974264157076988,49.461232268031274,2.899929382297573,-0.2373868740948299,0.006822281820114114,0.5292748066391241,0.1854392810903802,0.0,0.044332064407821434,-1.065465398979867,1.693133250701291,-2.357222300767242,-0.6866379770708682,-0.378462029933287,7.980234232413524,0.43991419183427594,-0.2181645964424526,0.2,341.28919912522474,439.2090379396593,999.6248093021914,878.8868658500331
0.34,0.0035899528562274214,5.7872699234759395,0.09852315157088977,48.92816159897083,2.8297682167996028,-0.43056854171786324,0.007009355751766691,0.5401461627312283,0.18912614898391802,0.0,0.05297840133438316,-1.109413165454979,1.722186412853064,-2.321621264104033,-0.7733121337294395,-0.34543982764240677,8.07029958369629,0.4597615138631175,-0.19077826445217452,0.2,333.125617743139,451.30707257141836,1000.2922184304425,881.1215662926164
0.34400000000000003,0.0038394280780117865,5.778812070113045,0.09964089748572794,48.412695696336215,2.7385707831786843,-0.6311088037112079,0.00719855489550452,0.5510805930294871,0.19283396592137,0.0,0.06215193053252836,-1.1529427518643949,1.7511404407010591,-2.2617262792932413,-0.8573744413668953,-0.30808080155146256,8.153107595881616,0.47289819396538035,-0.16016889123149436,0.2,325.35488573199757,462.21026328866196,999.9976095639794,884.1990137486588
0.34800000000000003,0.004095293910245277,5.770162720191367,0.10078309507389145,47.91947078169118,2.6263133740476228,-0.8377554968225471,0.007389886046515223,0.5620758306594204,0.19656234703279937,0.0,0.07180651485170159,-1.195889705527559,1.7801960400643893,-2.180040768262668,-0.9383912865278898,-0.26749330153791007,8.228158096065417,0.4797770153491513,-0.12598455037992856,0.2,317.76467932865717,472.1328043150919,998.7415095294743,888.0924272680081
0.35200000000000004,0.0043565994323356465,5.7613218765964715,0.10195327302703763,47.452552297143164,2.4933008521055204,-1.0491754590911109,0.00758331673279009,0.5731307501044933,0.20031091132639842,0.0,0.08189553025178639,-1.2381046035832455,1.8095668383663095,-2.079342566942067,-1.0158423035705963,-0.224487151708585,8.295160246820169,0.4807319327097778,-0.08927442689342424,0.2,310.5530446313713,480.99842837444834,996.6355995855762,892.6528715889066
0.35600000000000004,0.004622286570811342,5.752289464419474,0.10315492453797483,47.01544491872621,2.3402000828395844,-1.2638974696277911,0.0077788147964012455,0.5842442372058243,0.20407928165566652,0.0,0.0923670033723299,-1.2794543356550396,1.8394296486076729,-1.9622152254792091,-1.088617439638933,-0.17961952485219929,8.35406923188477,0.47612140083008464,-0.049881376978053615,0.2,303.5984955608846,488.95416681993277,993.6912730053779,897.8501342646649
0.36000000000000004,0.004891192288750428,5.743065455269961,0.1043913607385056,46.610987123549315,2.167839497819241,-1.4805046184071295,0.007976348390890363,0.5954151890660027,0.2078670846868438,0.0,0.1031626893780393,-1.3198224049584035,1.869916502651715,-1.8312536476444101,-1.1556593730508262,-0.13332342981880077,8.40513885795339,0.46646289163832977,-0.007945263308752532,0.2,296.8220023887386,496.11686787100996,989.9620113780278,903.614657697234
0.36400000000000005,0.005162050832534644,5.73364984006905,0.10566570860473298,46.24144210829663,1.977409096198683,-1.6974050778479255,0.008175885978677506,0.6066425139536551,0.21167395086659824,0.0,0.11421756347625067,-1.3591095650012792,1.9011264523814901,-1.6891175818720137,-1.2159708366373856,-0.08595177991901445,8.44863302798666,0.4522112832165749,0.03614831856656578,0.2,290.228764777458,502.5400013947808,985.5163037694178,909.8603133445805
0.36800000000000005,0.0054335029412188665,5.724042666771038,0.10698084811062847,45.9085180892555,1.7703043005598884,-1.9129768810748624,0.008377461133722439,0.617923247169523,0.21549951438996442,0.0,0.12545952493678067,-1.39723333592846,1.9331401878406993,-1.5382837091729773,-1.2683951643988507,-0.03779325156537497,8.484949104868226,0.4338355076772504,0.08284462869492651,0.2,283.57438695003725,508.41799332102596,980.3524106915124,916.5813796967111
0.37200000000000005,0.005704104153113088,5.714244016795986,0.10833941138142256,45.61337167161007,1.5482338924616887,-2.1254374162882295,0.008581042148512484,0.629256341707272,0.21934341316853218,0.0,0.13680729948842693,-1.4341270475139578,1.9660241413633401,-1.3811044079096237,-1.311700164318015,0.010915987461558863,8.514494085683893,0.41183732101558235,0.13023272081673903,0.2,277.3141435584657,513.5447578400891,974.6783311727029,923.5488558564264
0.37600000000000006,0.005972336518575875,5.704253990821609,0.1097437769879849,45.35661069535419,1.3132528435041713,-2.332801009408425,0.008786597623814169,0.6406407612396361,0.22320528879888304,0.0,0.1481683457685943,-1.469739988110683,1.999834360786205,-1.2198879148893371,-1.3443713253461844,0.05997429227161856,8.537694490646947,0.38675206897503217,0.17847034831520753,0.2,271.2782233404044,518.0699298945437,968.525130067818,930.7289535818139
0.38000000000000006,0.006236627640789662,5.694072719157599,0.1111960459996097,45.13843631162719,1.067488410298736,-2.5331248935642074,0.008994096466104242,0.6520754800275769,0.22708478653127295,0.0,0.1594394920655175,-1.5040360459153284,2.034615788010509,-1.0566690996500847,-1.365257614246098,0.10922010615719517,8.55503356712224,0.35898629167215146,0.2272063759203396,0.2,265.490561737155,522.0318360602436,961.9588262200809,938.0547312273104
0.38400000000000006,0.0064953613508380095,5.6837003226239915,0.11269806673928276,44.958448610044385,0.813492143613836,-2.724142568735963,0.009203507885020522,0.663559482830151,0.23098155523855904,0.0,0.17050587710534942,-1.5369938545951107,2.070403867072178,-0.8935139191662358,-1.3730312578432176,0.158515102390501,8.56695321116348,0.3292011744052153,0.27575502962336446,0.2,260.0007428904694,525.4514829390976,955.0991860605639,945.4068848393581
0.388,0.006746899737266924,5.673136911477513,0.11425143113664325,44.81578292287465,0.5540230886315037,-2.903458863226447,0.009415103305015307,0.6750903276306155,0.23489524738536907,0.0,0.18123902869685377,-1.5686073225467012,2.107225268929408,-0.7324954732551661,-1.3661841719414793,0.20774350733220212,8.573910821825153,0.2979401168715252,0.32703089772506383,0.2,253.68246861284644,528.9156811323625,947.7313454578466,953.0062304909643
0.392,0.006989605074710056,5.662382577368699,0.11585748137131324,44.70916796269618,0.29197390173715765,-3.068594860684088,0.009628848900640542,0.6866670372145832,0.23882551899751156,0.0,0.19149540668715975,-1.5988857108429777,2.1450966852392264,-0.575490818822956,-1.3434378746437388,0.2568010061702303,8.5763585334994,0.26571101440603706,0.37366068782890866,0.2,248.8870632094331,531.3238063618679,940.5726341174313,960.1467925676756
0.396,0.0072218621279703295,5.651437385255472,0.1175173199556358,44.636965156668346,0.030357630902273183,-3.2169767758768786,0.009844711174947215,0.698288644443107,0.24277202963162442,0.0,0.20112034472304724,-1.6278511745342885,2.1840244549115786,-0.4240373916673376,-1.3040084105243355,0.3056100884423792,8.574736024323892,0.23300452358523432,0.41838408758731105,0.2,244.59456165438104,533.2244916640705,933.4271682784232,967.0457928711274
0.4,0.007442101932998507,5.640301364599595,0.11923182473903196,44.59720788406231,-0.22774971170277356,-3.3459698987281348,0.010062656956749277,0.7099541921665918,0.2467344423450612,0.0,0.20994862854552343,-1.655537713576741,2.224006629827484,-0.27950424665895157,-1.2472579305286886,0.35410474096923533,8.569460206740255,0.20029174183782417,0.46065402968454766,0.2,240.8843435308506,534.6223083164729,926.3965386075905,973.6245265257629
0.404,0.007648826208695306,5.628974503037201,0.12100166473553277,44.587644384158665,-0.47926550265379625,-3.4529094949316677,0.010282653397908634,0.7216627331393802,0.2507124236660123,0.0,0.21780546734975573,-1.6819902803414095,2.2650333463760774,-0.143089954355101,-1.1727810014936162,0.4022298739363971,8.560923078960888,0.16801746730334824,0.4999551893996399,0.2,237.83332338049038,535.5205501467385,919.5795791689496,979.8108658327127
0.40800000000000003,0.007840631857440232,5.617456742695594,0.12282731606768463,44.6057840100873,-0.7211408651905005,-3.535120689400251,0.01050466797064112,0.7334133299350054,0.25470564356386005,0.0,0.22450811683608735,-1.7072638543402587,2.307086890693122,-0.015820223665890358,-1.080441048914547,0.44994425202451593,8.5494909846011,0.13659355658861735,0.5357945308749882,0.2,235.5195760233844,535.9186729982671,913.072338445357,985.5385255854303
0.41200000000000003,0.008016235397289954,5.605747978206445,0.12470907877340079,44.64894533492639,-0.9504001556514677,-3.5899411437567896,0.010728668464843237,0.7452050548621088,0.2587137754197653,0.0,0.22986725348116574,-1.731422467986842,2.3501414662816673,0.1014561801568401,-0.9703088449524303,0.4972169891710193,8.535502353359737,0.10639376565134827,0.5677044054886671,0.2,234.02069835058953,535.8119287639482,906.9668780974456,990.7472827038847
0.41600000000000004,0.008174497025976729,5.5938480563349415,0.12664709416794234,44.71430559317227,-1.1641788241488598,-3.614746355233029,0.01095469002320638,0.7570338745380373,0.26273649599748455,0.0,0.23368834901027152,-1.754538135227417,2.394163184215689,0.2080669259386621,-0.8426601316007613,0.5440259602482247,8.51926603884506,0.07774903402481241,0.5960277165399592,0.1748693806514155,316.67359294364684,576.6282357237326,875.420543593821,972.1041569566505
0.42000000000000004,0.008314443752850238,5.581756805691258,0.12864134789784504,44.7988958394094,-1.35946840382801,-3.6071790620032,0.01118270025618452,0.7688989179882967,0.26677348541441526,0.0,0.23577469722458755,-1.7766888647112395,2.439106701427478,0.30340964619503064,-0.6978648165845314,0.5897498888317095,8.501089803714489,0.05100759034977881,0.6185075901010142,0.13832411480308493,409.0055907032471,630.8999728867569,830.991510161003,941.3482029852859
0.42400000000000004,0.008435291327981579,5.569474106364161,0.1306916691512599,44.899674449956684,-1.5333188642804103,-3.5650036776005947,0.011412667091313885,0.7807993233860308,0.2708244271128679,0.0,0.23593051738230247,-1.7979551367722202,2.4849081213695277,0.3869909886617592,-0.5363835123910736,0.633592464238418,8.481288023113878,0.026443901857439292,0.6353532127524867,0.09783748293522349,491.97708776355387,685.6607155747462,780.2736399599909,904.8139426506004
0.42800000000000005,0.008536479123846518,5.557000008776262,0.13279762263834388,45.01384320269744,-1.6826931184683145,-3.4864129588754156,0.011644558770562597,0.7927342379732755,0.27488900783156306,0.0,0.23396665218946783,-1.8184163911219564,2.5314700983168312,0.4588871628883952,-0.3589052570668575,0.6741981222753621,8.460399334971834,0.003970432487862829,0.6456992165538815,0.05381564130093004,569.1988791532049,740.2005002752021,722.5603905167807,862.1288221441919
0.43200000000000005,0.008617707316806639,5.5443349723488335,0.13495829838288248,45.13874600309959,-1.8043940828483664,-3.369742348842886,0.011878343847700772,0.8047028179828316,0.2789669175773519,0.0,0.22970163541646552,-1.838148910959451,2.5786393103310647,0.519671986728452,-0.1660436709058381,0.7103923611507298,8.439397477894333,-0.01639678376062885,0.6485276117935679,0.00634851641459197,642.775283015735,794.3706348622015,656.2908082153887,812.3328185170942
0.43600000000000005,0.00867896000805384,5.531479859380304,0.13717231030087793,45.27188122483521,-1.8952194250155627,-3.2134626559791775,0.012113991185690958,0.8167042285607511,0.2830578495971585,0.0,0.22296126097020572,-1.8572271511441845,2.6262096545309594,0.569866227877116,0.04190739238157336,0.741013882719449,8.419274257174628,-0.03466398814843706,0.6431166446061904,-0.0444767740042899,713.8310528751847,848.0912115762819,578.8011935163771,754.0614843212478
0.44000000000000006,0.00872050628101816,5.51843570772386,0.13943801709456646,45.410924640735324,-1.952018886897315,-3.016445372061155,0.012351469954098766,0.8287376436894328,0.28716150035014193,0.0,0.2135786663210944,-1.875728646621192,2.6739871408177374,0.6099137215954117,0.2641860125331157,0.7651025891147802,8.400588398768177,-0.050873015592398804,0.6290420938731642,-0.09825772726100347,782.6444983433535,900.9989293472574,485.5832284389918,685.6563440944363
0.44400000000000006,0.008742961028797397,5.505204306714024,0.14175294999678192,45.55360001055976,-1.9713272489977312,-2.778059180014435,0.012590778211800754,0.8407991914309774,0.29127756948007694,0.0,0.20140393714877813,-1.8937361898410372,2.7217212754234343,0.6399927711634048,0.4998223135001007,0.7810531250319027,8.385068218344053,-0.06492509051435619,0.6050834196461133,-0.1544627296725576,849.3321517465903,952.6443796212343,366.48055941367954,604.3403260257013
0.44800000000000006,0.008747283900675307,5.491788096841861,0.14411390591646875,45.697615876176094,-1.9498773350185088,-2.497862156296813,0.012831885389828117,0.8528880999783117,0.29540575978795147,0.0,0.18630870781462447,-1.9113429562033208,2.7690940582679526,0.6599015591707484,0.7477263278968189,0.7872950391762628,8.374279424255285,-0.07664932336351246,0.5702808340645905,-0.2,901.2792579971272,991.1785851535127,233.9498398543793,526.9703740308015
0.452,0.008734735844947602,5.478189638207137,0.1465174714506633,45.84064440432455,-1.8844163225211386,-2.1760354971712292,0.013074761221278536,0.8650036058010585,0.2995457772047791,0.0,0.16818850188474954,-1.9286576493469247,2.815803490753227,0.6690725728458395,1.006476527992568,0.7826513896674244,8.368747700156447,-0.08584747822514072,0.5249196055093166,-0.2,906.3909233188349,986.3423524899736,246.58178672218025,520.8686770755215
0.456,0.008706914964662403,5.4644121316672045,0.14895947794190748,45.97999379195626,-1.7720266356449297,-1.8127799106857456,0.01331937573878101,0.8771449535737035,0.30369733076462546,0.0,0.14696377744628158,-1.945815123783222,2.8615655266981292,0.6663205860664598,1.2743990263440161,0.7668480156753574,8.370111461547127,-0.09193466373337827,0.4684518261241549,-0.2,912.339964079469,980.8829173297855,263.6746593924549,512.5058006222683
0.46,0.008665585694053424,5.450456919656663,0.15143760167949574,46.11375612963029,-1.611601450410375,-1.408904457240196,0.01356569927198028,0.889311396104328,0.30786013257784617,0.0,0.12258510182035462,-1.9629601745913672,2.9063590276990694,0.6517098550732688,1.5477029051370104,0.7412677946689208,8.374756109342199,-0.09563961744712662,0.40444629732291326,-0.2,918.7863136562197,974.9866047039714,282.9337191127167,502.40092975082325
0.464,0.00861271135328635,5.436323455479676,0.15395144710700306,46.241010499919994,-1.403563259859585,-0.9663107434826672,0.013813702445040791,0.901502194263905,0.3120338978045354,0.0,0.09505146021025068,-1.9802153084124647,2.9505357864702915,0.6275632503830577,1.819750212130391,0.7087229832584605,8.378839411680218,-0.09798051404639459,0.33403482688205743,-0.2,925.6483131717431,968.597542383881,303.15211714898976,490.70949325354815
0.468,0.008550535016297565,5.422010182656338,0.15650168086669602,46.36147527059932,-1.1494524411247917,-0.48769984656211696,0.014063356174169978,0.9137166169161535,0.3162183446281834,0.0,0.06443257244591535,-1.9976629407695765,2.9945309739859534,0.5971542481680872,2.0831448963393426,0.6709894610823512,8.38021518537664,-0.09963634963390988,0.2573800690959585,-0.2,932.9308405204924,961.6270137438503,323.82969898627493,477.40109648169823
0.47200000000000003,0.008481617981644384,5.407515099591912,0.15908948017764418,46.47524578056991,-0.8516327289592271,0.023638350791541255,0.014314631665160766,0.9259539408479458,0.320413194229541,0.0,0.03086502585376181,-2.015360544380253,3.0385407512980622,0.5626924512446123,2.332270507001594,0.6292760847646914,8.377822951199741,-0.10102332689357604,0.1748002830794497,-0.2,940.6166145566636,954.0371749583378,344.65535389798777,462.4394532511902
0.47600000000000003,0.008408848064891011,5.392836110033759,0.16171619378042212,46.5826104768823,-0.5130989953112151,0.5639572757317477,0.014567496968111281,0.9382096268572605,0.32461817076069005,0.0,-0.005460978750717286,-2.0333526433666718,3.082589654681515,0.5254942750470242,2.5629433515659352,0.5845324707007946,8.37127410890022,-0.10236879049154607,0.08672118088185787,-0.2,948.671828711068,945.8251801168948,365.4342900612713,445.77158241845626
0.48000000000000004,0.0083354269024346,5.377971231509684,0.1643831425876971,46.683925414314004,-0.13735683593798909,1.1291292977694516,0.014821923902127101,0.9504830133944709,0.3288330013193179,0.0,-0.044309857949830146,-2.0516782453333757,3.1266008327254196,0.4862946263547374,2.7719024474687948,0.5375115177165656,8.360579209300832,-0.10376694075276484,-0.006177140065605158,-0.2,957.034568713185,937.02871226325,386.00164938195786,427.35431915852456
0.48400000000000004,0.008264841951910127,5.362918705075563,0.16709151599587463,46.779520514519305,0.2717310212766798,1.7147630547015544,0.015077884568265816,0.962773446211327,0.33305741592319477,0.0,-0.08540580322210625,-2.0703753191222676,3.1704445873439466,0.4454637351056962,2.956636972475091,0.48880845840076814,8.34596016327683,-0.10520738552448296,-0.10328895987225567,-0.2,965.6452323561024,927.6918677901937,406.27130268245975,407.08421618150174
0.48800000000000004,0.008200827206918717,5.34767703339634,0.16984233639047877,46.869623039141324,0.7102530272935056,2.316499094740725,0.015335351347157971,0.9750802782968915,0.33729114748485184,0.0,-0.12844460747983782,-2.089483774726546,3.213972219071939,0.4031214639424364,3.1158200152824973,0.4388931916586859,8.327715147011334,-0.10658881301149403,-0.20415432133374106,-0.2,974.4520946698019,917.8555955498051,426.2234517158532,384.7601361980697
0.49200000000000005,0.008147331872347455,5.332245065976993,0.17263638162562328,46.95439297498911,1.1735694628452518,2.929284860738809,0.015594296896646485,0.9874028698139848,0.3415339317864596,0.0,-0.17308905649966425,-2.1090457400520726,3.2570291245814227,0.35937547464370523,3.2473910393148167,0.38816407216306487,8.306305026058077,-0.1078443703597039,-0.30757877373007453,-0.2,983.3462252769798,907.6308272018215,445.69789703406923,360.28865641904
0.49600000000000005,0.008108468238885539,5.316621951441858,0.17547423001537993,47.03383949911722,1.6568166239320818,3.547864264336217,0.01585469414944442,0.9997405880361342,0.3457855074549037,0.0,-0.21896287233340087,-2.129104846460826,3.2994728388490797,0.3143478941492456,3.3489339366902797,0.3369556465513485,8.282107187263712,-0.10880516956134353,-0.4126394108329371,-0.2,992.2360349725595,897.115296272181,464.6267589857054,333.40844747743006
0.5,0.008088464006378445,5.300807157059461,0.17835624045712747,47.10781291608727,2.1546843215685265,4.166541977809182,0.01611651631081096,1.0120928072850228,0.3500456159370582,0.0,-0.2656414086870601,-2.1497050945959773,3.341184627401257,0.26816626388037573,3.4179670171284817,0.2855491521423067,8.2555457556352,-0.10928260116579902,-0.5181467599000186,-0.2,1001.0092209087584,886.4396118440085,482.908468596298,303.78457969386113
0.504,0.008091609584905644,5.284800345606263,0.181282672239558,47.17596921886549,2.662199675500294,4.7799581665428414,0.016379818058022345,1.0244533547714503,0.35431400147525305,0.0,-0.3126747320271785,-2.170890817904195,3.382087300484527,0.22089020743888405,3.4539331408978837,0.2341382430368084,8.226808736171712,-0.10903570374935032,-0.6227506369886615,-0.2,1009.5357524971673,875.7576169323238,500.4284741655536,270.88040818896826
0.508,0.008122204530856705,5.2686015446113625,0.18425351156835074,47.23782167651155,3.1735607490456097,5.381862278131929,0.016644572157185532,1.0368216855768566,0.35859041108293643,0.0,-0.35958396354838623,-2.192705908691384,3.4221242486664023,0.17271263809481446,3.4551749154575786,0.1828856986353919,8.196439415892213,-0.10787022885377245,-0.7264877939520717,-0.2,1017.8163008633278,865.0939476335146,517.3180132147979,233.26090081713693
0.512,0.008184505698025079,5.252211026646139,0.18726858506218513,47.29270239274267,3.682651899257616,5.96566793179408,0.016910751648929533,1.0491972610415052,0.36287459452052867,0.0,-0.40584880114481736,-2.21519137197891,3.461268297930745,0.12393940811171619,3.419213180762094,0.1319488377220166,8.164759483640294,-0.10553693910912305,-0.827187594922032,-0.2,1025.6581409607218,854.6987791381242,533.3354457521681,189.02100834251587
0.516,0.008282672961476398,5.235629237206712,0.19032762521239924,47.339776823266455,4.183431082416912,6.524794395453578,0.017178329846081673,1.0615795487087683,0.36716630427146707,0.0,-0.4509044446486311,-2.238383140648107,3.4995366405600308,0.07492112555866173,3.344056092598413,0.08145123863428166,8.131962902841542,-0.10179069471000232,-0.9239242078567361,-0.2,1032.976339993152,844.7048353749226,548.4554149120252,132.1137761794089
0.52,0.008420700660356025,5.218856878533045,0.19343017146292918,47.378135741522634,4.669494260141319,7.052227874067001,0.017447280331361958,1.0739680222698584,0.37146529551844043,0.0,-0.4941598889755648,-2.262310837376905,3.5369874135623833,0.026141052703670807,3.228823927028426,0.031439528718810325,8.098447436093513,-0.09648176881883144,-1.0,-0.2,1038.3905402438875,836.8698640997873,560.2212641857952,49.489723900422625
