Time_s,X,Y,Z,Roll_deg,Pitch_deg,Yaw_deg,Ref_X,Ref_Y,Ref_Z,Ref_Yaw,vx,vy,vz,p,q,r,T_pert,tau_x,tau_y,tau_z,RPM_0,RPM_1,RPM_2,RPM_3
0.0040000000000000036,1.0221975646044887e-22,-4.0,0.010006999594037988,-7.417734548572634e-19,7.147505149775166e-19,-9.884920825861219e-20,1.968275594888396e-22,-4.0,7.200000000000012e-05,0.0,2.8463870859018855e-19,-800.0,2.0013999188075973,0.0,0.0,0.0,-10.19,8.661928940161907e-19,2.6782183975770925e-19,1.1547150625617203e-19,0.0,0.0,0.0,0.0
0.008000000000000007,4.8092474872333755e-23,-4.0,0.010010999365392528,-1.581388883969184e-18,7.632465471407532e-19,-1.4811880225608202e-19,1.968275594888396e-22,-4.0,0.00021513340800000038,0.0,1.5211147414780046e-19,-444.44444444444446,1.1123332628213918,0.0,0.0,0.0,-0.034338475932384316,1.031688221068517e-18,-4.977063177138214e-19,6.162064434312589e-20,534.6826504237879,534.682650423788,534.6826504237879,534.682650423788
0.01200000000000001,-2.603373473025037e-22,-4.0,0.01001499913738627,-2.6734645500197904e-18,-1.2849668729467034e-18,-2.237938424263836e-19,1.968275594888396e-22,-4.0,0.00042854147030131276,0.0,-4.1383920671020426e-20,-2.848668407077713e-23,0.0009999429025551315,0.0,0.0,0.0,0.11268126795424338,1.3850131309707604e-18,5.3493071309494136e-18,9.449988968252544e-20,538.6882898857357,538.6882898857358,538.6882898857357,538.6882898857358
0.016000000000000014,-3.7391976326490528e-22,-4.0,0.010018998918182361,-1.7945213659859677e-18,-1.864932085873772e-18,-1.2669916762355075e-19,1.968275594888396e-22,-4.0,0.0007113732083620786,0.0,-5.1071477300883067e-20,-4.0029002094137585e-23,0.0009999438467103022,0.0,0.0,0.0,0.26021500563658706,-8.400642792191e-19,-1.2421540261641948e-18,-1.0419937302814294e-19,542.6782123972301,542.6782123972303,542.6782123972301,542.6782123972301
0.020000000000000018,-4.496020734420055e-22,-4.0,0.010022998716766816,-2.846274376004563e-18,-1.7291928838432999e-18,2.894584125837564e-20,1.968275594888396e-22,-4.0,0.0010627853561306145,0.0,-2.1007660438171793e-20,-4.2857861495172756e-23,0.0009999465697017526,0.0,0.0,0.0,0.4082515376201834,1.355620806518475e-18,-3.6755749091213495e-19,-1.7657359631176416e-19,546.6524625309181,546.6524625309182,546.6524625309181,546.6524625309181
0.023999999999999994,-3.8230473771844767e-22,-4.0,0.010026998537361222,-2.7067607967104167e-18,-9.01080147380375e-19,-1.5162284511822842e-19,1.968275594888396e-22,-4.0,0.001481942297853104,0.0,-1.6371916941098896e-20,-4.052492663771719e-23,0.0009999511376240083,0.0,0.0,0.0,0.5567797919927227,3.8448657534880245e-20,-2.43867584237296e-18,2.0978385944470513e-19,550.6110856198836,550.6110856198836,550.6110856198836,550.6110856198836
0.027999999999999997,-3.3254097370451147e-22,-4.0,0.01003099838115748,-3.220645627617358e-18,-4.484057900989866e-19,-1.2412003634769606e-19,1.968275594888396e-22,-4.0,0.001968016006352204,0.0,8.528556775988195e-21,-5.2360289399591466e-23,0.0009999566262222995,0.0,0.0,0.0,0.7057888087457271,7.9379255489635485e-19,-3.0536658389176537e-19,-2.5851232603310812e-20,554.5541273297912,554.5541273297913,554.5541273297912,554.5541273297912
0.032,-4.499782209491008e-22,-4.0,0.010034998247589662,-2.9926593340287804e-18,-1.0690768235481459e-18,-5.350725418898334e-20,1.968275594888396e-22,-4.0,0.002520185981773086,0.0,-7.260970515808073e-21,-5.558400165579661e-23,0.000999962341291169,0.0,0.0,0.0,0.8552677396701623,-3.5125292572601455e-20,2.675211938836534e-18,-7.733118711209638e-20,558.4816336571247,558.4816336571248,558.4816336571247,558.4816336571247
0.036000000000000004,-4.479086388062427e-22,-4.0,0.010038998135379312,-3.55496785426016e-18,-1.4712021428228525e-18,-7.386529901922002e-20,1.968275594888396e-22,-4.0,0.0031376391907935734,0.0,-7.467224363630702e-21,-5.6541478843967e-23,0.0009999679000867803,0.0,0.0,0.0,1.005205847794971,8.742265910034051e-19,-7.371426608184579e-19,2.6041271460190647e-20,562.3936509157165,562.3936509157166,562.3936509157165,562.3936509157165
0.04000000000000001,-4.152919784135339e-22,-4.0,0.0100429980428761,-2.788991976446151e-18,-1.6267963929679824e-18,-3.7901302534777666e-19,1.968275594888396e-22,-4.0,0.0038195700062949468,0.0,-4.677664989985399e-22,-5.516789383062517e-23,0.0009999731253972424,0.0,0.0,0.0,1.155592507810798,-6.359203059727325e-19,-5.885082442007988e-20,3.5956177680164554e-19,566.2902257493706,566.2902257493707,566.2902257493706,566.2902257493707
0.04400000000000001,-3.6905815860867544e-22,-4.0,0.010046997968086245,-2.6089999999132597e-18,-1.6319610926233346e-18,-7.657434697898433e-20,1.968275594888396e-22,-4.0,0.004565180147490077,0.0,6.600779558049914e-21,-5.24605017338445e-23,0.0009999779190708602,0.0,0.0,0.0,1.3064172057273493,-2.0800844921004396e-21,-5.123006753655827e-20,-3.3763841373181704e-19,570.1714051244069,570.171405124407,570.1714051244069,570.1714051244069
0.048000000000000015,-2.937970141415675e-22,-4.0,0.010050997909062654,-2.376056401866578e-18,-1.359200900638357e-18,2.729459666784897e-20,1.968275594888396e-22,-4.0,0.0053736786205055564,0.0,7.88882840394615e-21,-4.586805453984634e-23,0.0009999822286749227,0.0,0.0,0.0,1.457669537180586,-7.440026108704139e-20,-5.658324217794525e-19,-1.1809132324723083e-19,574.0372362882099,574.03723628821,574.0372362882099,574.0372362882099
0.05200000000000002,-3.6128921141790257e-22,-4.0,0.01005499786412531,-1.7843261619958354e-18,-1.939366112986324e-18,-4.940648693859262e-21,1.968275594888396e-22,-4.0,0.006244281659414512,0.0,1.0228914356377895e-20,-3.9933267662151496e-23,0.0009999860722011145,0.0,0.0,0.0,1.6093392068144097,-5.07637481645196e-19,2.388953714556482e-18,3.663279305439451e-20,577.8877667567133,577.8877667567133,577.8877667567133,577.8877667567133
0.05600000000000002,-8.579553750664811e-22,-4.0,0.010058997831717306,-1.5278398396287472e-18,-2.202647396552152e-18,7.670470699153634e-12,1.968275594888396e-22,-4.0,0.007176212667716821,0.0,-5.179238409764997e-20,-3.2361748500826555e-23,0.0009999894991912298,0.0,0.0,0.0,1.7614160280702877,-1.55380521289037e-19,5.5171237876298855e-18,-8.960322712434977e-12,581.7230443267828,581.7230443267829,581.7230442986277,581.7230442986277
0.060000000000000026,-6.94966973777612e-22,-4.0,0.010062997810367572,-1.4845543837800642e-18,-2.2477342991598562e-18,9.691738380766486e-12,1.968275594888396e-22,-4.0,0.008168702160263464,0.0,-3.419367549288701e-20,-2.736013765618155e-23,0.0009999925448972782,0.0,0.0,0.0,1.9138899220398042,7.710852776592628e-20,-7.041974322598307e-18,-2.676669984845069e-12,585.5431169850444,585.5431169850445,585.5431169766887,585.5431169766888
0.06400000000000003,-1.1613381530634553e-21,-4.0,0.010066997798912049,-1.5843498651848503e-18,-2.233678232907371e-18,1.1406491201272622e-11,1.968275594888396e-22,-4.0,0.00922098770562178,0.0,-5.0935652403615666e-20,-2.660298045647481e-23,0.0009999952460711115,0.0,0.0,0.0,2.0667509160132607,2.422652258293895e-19,7.365063489504122e-18,-2.4022885242755265e-12,589.3480330000247,589.3480330000248,589.3480329925738,589.3480329925738
0.06800000000000003,-1.52323965330571e-21,-4.0,0.010071025165551728,-9.827920357795698e-18,4.403094507375373e-18,7.372472593615447e-08,1.968275594888396e-22,-4.0,0.010332313868878392,0.0,-7.147531631603025e-20,-5.657430150478899e-23,0.001002734579805785,0.0,0.0,0.0,2.2199335970487497,9.75994547190783e-18,-8.389501075621429e-18,-8.6109283783251e-08,593.1366041346627,593.1366041346627,593.1363387691323,593.1363387691323
0.07200000000000004,-2.5956546154400397e-21,-4.0,0.010077079454628626,-1.3662275352436205e-16,9.009872384003846e-17,1.0423392892766124e-06,1.968275594888396e-22,-4.0,0.011501932154876646,0.0,-1.5901448003070964e-19,-9.362295994143663e-22,0.0012081651176141378,0.0,0.0,0.0,2.369424767188173,1.4876667161663172e-16,-9.174931720542514e-17,-1.1345275003093431e-06,596.8121651564057,596.8121651564059,596.8086903726191,596.8086903726193
0.07599999999999998,-4.15112408490769e-21,-4.0,0.010090057849139144,-4.509193073266773e-16,2.4083006393923013e-16,2.9439456746237006e-06,1.968275594888396e-22,-4.0,0.012729100951885328,0.0,-2.846223106001898e-19,-8.597728212228584e-21,0.0021060052559482637,0.0,0.0,0.0,2.5092702131092923,3.7648441732202613e-16,-1.7565985350820406e-16,-2.2642566822129554e-06,600.2304164660568,600.2304164660568,600.2235210684302,600.2235210684299
0.07999999999999999,-5.806711228557951e-21,-4.0,0.01011466138734507,-9.451800345480706e-16,4.580813122387343e-16,5.5933100374436625e-06,1.968275594888396e-22,-4.0,0.014013085475695655,0.0,-4.0544217322855866e-19,-4.140959229584434e-20,0.004116309760330075,0.0,0.0,0.0,2.639702316756645,6.084415577761305e-16,-2.678480363659265e-16,-3.216047846416195e-06,603.4009697756119,603.4009697756121,603.391227303635,603.3912273036348
0.08399999999999999,-6.6170364973228494e-21,-4.0,0.0101551720640362,-1.644772960859945e-15,7.100689313126489e-16,8.823453265006344e-06,1.968275594888396e-22,-4.0,0.015353157714143133,0.0,-3.9448422590672804e-19,-1.3663332001250765e-19,0.007277309290690433,0.0,0.0,0.0,2.761412172821632,8.826731997977771e-16,-3.3449160222760026e-16,-4.003671311906393e-06,606.3443979113005,606.3443979113007,606.3323283209282,606.3323283209279
0.088,-5.7529570036648256e-21,-4.0,0.010215495801911771,-2.5750639759292392e-15,9.923656509353957e-16,1.2486950699497632e-05,1.968275594888396e-22,-4.0,0.016748596372051533,0.0,-2.2349492056312615e-19,-3.551524847675959e-19,0.01148662264835714,0.0,0.0,0.0,2.875017107437683,1.2010549237943582e-15,-3.979597194672195e-16,-4.643153620480812e-06,609.0788383063464,609.0788383063467,609.0649037331355,609.0649037331351
0.092,-2.3430658011068285e-21,-4.0,0.01029918525346616,-3.736654736082726e-15,1.307562660870174e-15,1.6456908531274247e-05,1.968275594888396e-22,-4.0,0.018198686816595637,0.0,1.1025710780497476e-19,-7.797544142317271e-19,0.016650937264840737,0.0,0.0,0.0,2.981100243267156,1.536564369578544e-15,-4.679312921973484e-16,-5.152454572316906e-06,611.6210620471352,611.6210620471356,611.6056632652407,611.6056632652402
0.096,4.58412543395842e-21,-4.0,0.010409435199438143,-5.1302129527370464e-15,1.661927735565709e-15,2.0622158973627692e-05,1.968275594888396e-22,-4.0,0.019702721023079815,0.0,5.769669811532451e-19,-1.5129009103463831e-18,0.022680838803351873,0.0,0.0,0.0,3.0802653888777045,1.8894812921899795e-15,-5.496235059536028e-16,-5.544755375764434e-06,613.9878564982487,613.9878564982491,613.9713491387756,613.9713491387749
0.1,1.6245652573780402e-20,-4.0,0.010549192746514361,-6.750509808433454e-15,2.0513612640505e-15,2.4884530739001017e-05,1.968275594888396e-22,-4.0,0.02125999752112935,0.0,1.2098340903710645e-18,-2.6714756513385466e-18,0.02949779185676265,0.0,0.0,0.0,3.1729041990315965,2.253127727360152e-15,-6.331808446109462e-16,-5.830686723907003e-06,616.1905530460137,616.1905530460144,616.1732564783849,616.1732564783841
0.10400000000000001,3.439607164215982e-20,-4.0,0.01072122097063702,-8.542044997547925e-15,2.4344736083518826e-15,2.9160399511225197e-05,1.968275594888396e-22,-4.0,0.022869821341291532,0.0,2.05438972878134e-18,-4.376185152598116e-18,0.03704186000614042,0.0,0.0,0.0,3.259287144795312,2.568600764234376e-15,-6.784296386335884e-16,-6.0232173310048735e-06,618.2373219702198,618.2373219702205,618.2195134131907,618.2195134131899
0.10800000000000001,6.121618356416956e-20,-4.0,0.010928061886244391,-1.0444775072801885e-14,2.7318512314701056e-15,3.337938842966598e-05,1.968275594888396e-22,-4.0,0.02453150396204348,0.0,3.25189757410108e-18,-6.730421681401999e-18,0.04526143012010351,0.0,0.0,0.0,3.3397658042438567,2.826919533477776e-15,-6.373126260727657e-16,-6.134389378687787e-06,620.1380149197521,620.1380149197528,620.1199332522968,620.1199332522959
0.11200000000000002,9.786458214945694e-20,-4.0,0.011172052932703272,-1.2457572793268896e-14,2.944946124992662e-15,3.7482610259817104e-05,1.968275594888396e-22,-4.0,0.026244363257203772,0.0,4.799329616419505e-18,-9.819909819547144e-18,0.05410438070999214,0.0,0.0,0.0,3.4146654289662566,3.0928541132392224e-15,-5.822811697190296e-16,-6.1747306957953584e-06,621.9016341689885,621.9016341689893,621.8834852057133,621.8834852057124
0.11600000000000002,1.4472056905445263e-19,-4.0,0.011455345887732947,-1.4574823526975973e-14,3.12401723120467e-15,4.142146697248742e-05,1.968275594888396e-22,-4.0,0.02800772344374488,0.0,6.563363871538095e-18,-1.3735392938910936e-17,0.06352066865218595,0.0,0.0,0.0,3.484279492865358,3.361164189922252e-15,-5.72373452624813e-16,-6.153834519752947e-06,623.5362390801939,623.5362390801947,623.5181989545166,623.5181989545155
0.12000000000000002,2.0247637088462632e-19,-4.0,0.01177992352302804,-1.6760950259769266e-14,3.2723640769676138e-15,4.5156535445944784e-05,1.968275594888396e-22,-4.0,0.02982091503000352,0.0,8.43766090918719e-18,-1.8564393271070155e-17,0.07346485017130956,0.0,0.0,0.0,3.5488736713833564,3.596550699288204e-15,-5.682559820271389e-16,-6.08041152698423e-06,625.0490697869637,625.0490697869647,625.0312880492587,625.0312880492576
0.12400000000000003,2.7141904308839806e-19,-4.0,0.012147614276129148,-1.8980063333244946e-14,3.4240458567301266e-15,4.8656536577357887e-05,1.968275594888396e-22,-4.0,0.03168327476428598,0.0,1.0362284080638534e-17,-2.4362577974005195e-17,0.08389552976482366,0.0,0.0,0.0,3.608689336455595,3.7962638004151286e-15,-5.979566270171997e-16,-5.96234215203437e-06,626.4466540765432,626.4466540765442,626.4292565305622,626.4292565305609
0.12800000000000003,3.521918802134057e-19,-4.0,0.01256010517791539,-2.1269735238436195e-14,3.575323166076641e-15,5.1897387031123704e-05,1.968275594888396e-22,-4.0,0.03359414558386553,0.0,1.235279010437103e-17,-3.118393612644814e-17,0.09477487825794699,0.0,0.0,0.0,3.663946628837668,4.043656433942389e-15,-6.282114003883077e-16,-5.806731357478025e-06,627.7348999802393,627.7348999802405,627.7179912704397,627.7179912704385
0.13200000000000003,4.45245952512368e-19,-4.0,0.013018945582392747,-2.3680910445247418e-14,3.7424122050267404e-15,5.4860731496418735e-05,1.968275594888396e-22,-4.0,0.03555287656436911,0.0,1.4366286270919947e-17,-3.9131676753644455e-17,0.1060674425545142,0.0,0.0,0.0,3.7148627126426876,4.356962048222515e-15,-6.759836886688739e-16,-5.619263350639849e-06,628.9195367157736,628.9195367157746,628.9032047259383,628.9032047259369
0.13600000000000004,5.511359629306565e-19,-4.0,0.013525545178862414,-2.623167128483241e-14,3.935736560476445e-15,5.753450954781612e-05,1.968275594888396e-22,-4.0,0.03755882286955033,0.0,1.640277778412045e-17,-4.836368647180312e-17,0.11773856972379979,0.0,0.0,0.0,3.7616632601908844,4.701374988227392e-15,-7.389268508381662e-16,-5.406518451370525e-06,630.0063961282169,630.0063961282182,629.9907095832294,629.990709583228
0.14000000000000004,6.710567335909874e-19,-4.0,0.014081227538444268,-2.887171214856987e-14,4.110212201231786e-15,5.991075386296656e-05,1.968275594888396e-22,-4.0,0.039611345701446074,0.0,1.8523550287519452e-17,-5.901138201336668e-17,0.12975854791081526,0.0,0.0,0.0,3.8044698072548084,4.998370403012637e-15,-7.593026746052401e-16,-5.172762595879049e-06,630.9988060351212,630.9988060351226,630.983821325623,630.9838213256215
0.144,8.053963597758903e-19,-4.0,0.014687197990958967,-3.155069418081859e-14,4.299045666996287e-15,6.198648904922648e-05,1.968275594888396e-22,-4.0,0.04170981225091379,0.0,2.0718322058994732e-17,-7.110748052466443e-17,0.1421007993698204,0.0,0.0,0.0,3.8434719135726545,5.244531781322301e-15,-8.091301372277009e-16,-4.923479211767287e-06,631.9016058333882,631.9016058333896,631.8873636456766,631.887363645675
0.148,9.54488622597943e-19,-4.0,0.015344591548859568,-3.421238012339512e-14,4.540660707075368e-15,6.37624118852495e-05,1.968275594888396e-22,-4.0,0.043853595648546885,0.0,2.2923167982076743e-17,-8.460620944231185e-17,0.15474172227377836,0.0,0.0,0.0,3.8787657297717577,5.429556263125965e-15,-9.048901041002304e-16,-4.662814817098585e-06,632.7174071747047,632.7174071747061,632.703936412495,632.7039364124932
0.152,1.1188694630545253e-18,-4.0,0.016054449028263963,-3.6791360085807886e-14,4.870520750470558e-15,6.524108760555524e-05,1.968275594888396e-22,-4.0,0.046042074915965035,0.0,2.4962659735720058e-17,-9.940088163464119e-17,0.1676595278813574,0.0,0.0,0.0,3.91049819429008,5.53887495645233e-15,-1.0487414998620407e-15,-4.392959744906262e-06,633.449941228083,633.4499412280844,633.4372647552319,633.4372647552302
0.156,1.2994894290496322e-18,-4.0,0.016817708406706513,-3.923585458046596e-14,5.311581232475904e-15,6.642783715235522e-05,1.968275594888396e-22,-4.0,0.048274634917477195,0.0,2.678683827501845e-17,-1.1531819724098718e-16,0.18083089470040511,0.0,0.0,0.0,3.938836871033063,5.583873901205153e-15,-1.2312194558158479e-15,-4.117217682554858e-06,634.1033653409978,634.1033653409992,634.0914968092111,634.0914968092093
0.16,1.4979165830896063e-18,-4.0,0.0176352358954618,-4.149631339990061e-14,5.86570987692411e-15,6.733146572298657e-05,1.968275594888396e-22,-4.0,0.050550666312114176,0.0,2.836043060776655e-17,-1.3213753212946788e-16,0.1942333684241092,0.0,0.0,0.0,3.9638896231440808,5.563521607246341e-15,-1.4320730140901131e-15,-3.839856905713983e-06,634.6804150480202,634.6804150480215,634.6693561236312,634.6693561236294
0.164,1.7167779132275123e-18,-4.0,0.018507840995053204,-4.356819248664888e-14,6.472629878728296e-15,6.796241440334528e-05,1.968275594888396e-22,-4.0,0.05286956550602828,0.0,2.983408176496315e-17,-1.496388255508807e-16,0.20784927094199687,0.0,0.0,0.0,3.9857361283817685,5.526856372109132e-15,-1.5846251549661886e-15,-3.5631301950678124e-06,635.183135978871,635.1831359788721,635.1728821657135,635.1728821657116
0.168,1.959026273940927e-18,-4.0,0.019436261817628316,-4.550210951326311e-14,7.065481387717907e-15,6.833225843264794e-05,1.968275594888396e-22,-4.0,0.0552307346052572,0.0,3.145983853220308e-17,-1.6769449607852582e-16,0.2216625424108089,0.0,0.0,0.0,4.004487742526221,5.537849948055189e-15,-1.6694861164146613e-15,-3.288772128976598e-06,635.6142687388985,635.6142687388997,635.6048108863673,635.6048108863654
0.17200000000000001,2.226970812097921e-18,-4.0,0.020421167481465198,-4.7306175047182746e-14,7.642778453202459e-15,6.845366882680739e-05,1.968275594888396e-22,-4.0,0.05763358136884958,0.0,3.341182831535439e-17,-1.8628816452246054e-16,0.23565615184466987,0.0,0.0,0.0,4.020253318646364,5.550230452200632e-15,-1.7474379607758708e-15,-3.0185198359241354e-06,635.9764641599312,635.9764641599324,635.9677884481806,635.9677884481787
0.17600000000000002,2.5232903037773894e-18,-4.0,0.021463158704689643,-4.901941197290252e-14,8.160199957868424e-15,6.833857189876261e-05,1.968275594888396e-22,-4.0,0.060077519162349574,0.0,3.581666778566685e-17,-2.0541603370244886e-16,0.2498127644728075,0.0,0.0,0.0,4.03314278503041,5.600559165015683e-15,-1.7796655567360154e-15,-2.7520063538257743e-06,636.2723657327841,636.2723657327853,636.2644597069246,636.2644597069227
0.18000000000000002,2.84994624704937e-18,-4.0,0.02256275897009731,-5.068986628046366e-14,8.625841234320037e-15,6.79999654086344e-05,1.968275594888396e-22,-4.0,0.06256196691163772,0.0,3.869693604887852e-17,-2.2515612305728773e-16,0.26411441372153205,0.0,0.0,0.0,4.043286261892552,5.701977726241301e-15,-1.8119945384840457e-15,-2.490956523879464e-06,636.5050576259346,636.5050576259357,636.4979041702537,636.4979041702517
0.18400000000000002,3.2088567531714202e-18,-4.0,0.02372044489716657,-5.230429735299045e-14,9.031500853467577e-15,6.74535390807809e-05,1.968275594888396e-22,-4.0,0.0650863490571256,0.0,4.208268024069883e-17,-2.455726546652093e-16,0.2785451639702018,0.0,0.0,0.0,4.050754770966418,5.7861754103843004e-15,-1.8332077670642294e-15,-2.2390331119400816e-06,636.6762455352953,636.6762455352965,636.6698172784095,636.6698172784075
0.18800000000000003,3.602267721311874e-18,-4.0,0.024936646530441742,-5.3917324153115454e-14,9.315257753336645e-15,6.671462198171154e-05,1.968275594888396e-22,-4.0,0.06765009550830156,0.0,4.6099987485948355e-17,-2.667375151842684e-16,0.29309194979818265,0.0,0.0,0.0,4.055620321973294,5.931449510454868e-15,-1.784298644570934e-15,-1.9964445746189915e-06,636.7876328965272,636.7876328965284,636.7819021163062,636.7819021163042
0.19200000000000003,4.0312741303632434e-18,-4.0,0.02621174110061061,-5.5434314460008153e-14,9.487324681563364e-15,6.579953495724208e-05,1.968275594888396e-22,-4.0,0.07025264159862511,0.0,5.08625721664468e-17,-2.8861908658431285e-16,0.3077428013613476,0.0,0.0,0.0,4.0579691501695505,5.967248578185114e-15,-1.7282639175836373e-15,-1.7649654893842102e-06,636.8412336586073,636.8412336586085,636.836167766547,636.8361677665449
0.19600000000000004,4.496339533277889e-18,-4.0,0.02754605464246119,-5.6786445537572135e-14,9.577915388314622e-15,6.472365677584154e-05,1.968275594888396e-22,-4.0,0.07289342804076723,0.0,5.631414965216676e-17,-3.1095019533715463e-16,0.322484812541168,0.0,0.0,0.0,4.057885969065994,5.917172963172554e-15,-1.694203148650586e-15,-1.5441532483922739e-06,636.8390068676231,636.8390068676243,636.8345747485886,636.8345747485865
0.20000000000000004,4.997717559454486e-18,-4.0,0.028939860862295556,-5.789469137193833e-14,9.602565768092039e-15,6.350203680474046e-05,1.968275594888396e-22,-4.0,0.07557190088219418,0.0,6.229110597091937e-17,-3.331880541746772e-16,0.3373050343174911,0.0,0.0,0.0,4.055459500618116,5.764486612007909e-15,-1.671387259489339e-15,-1.334243335289745e-06,636.7829895824148,636.782989582416,636.7791596240202,636.7791596240182
0.20400000000000004,5.535760205920289e-18,-4.0,0.030393384351053754,-5.873314525278422e-14,9.541462604473677e-15,6.214827540088149e-05,1.968275594888396e-22,-4.0,0.07828751146109224,0.0,6.875209552375548e-17,-3.5481522234493325e-16,0.3521907167229215,0.0,0.0,0.0,4.050773691148334,5.565644406008096e-15,-1.6229824667298786e-15,-1.1341508776790037e-06,636.6750940185143,636.6750940185156,636.6718378772039,636.6718378772019
0.20800000000000005,6.109782471572966e-18,-4.0,0.03190680379915245,-5.930461975471315e-14,9.444795751295892e-15,6.067624533778494e-05,1.968275594888396e-22,-4.0,0.08103971636263092,0.0,7.56018536419991e-17,-3.7541892391400126e-16,0.3671297749945013,0.0,0.0,0.0,4.04390760493571,5.352222871960854e-15,-1.6161814499617384e-15,-9.447433504091565e-07,636.517111336942,636.5171113369431,636.5143983116172,636.5143983116154
0.212,6.719653981685212e-18,-4.0,0.03348025377492625,-5.959358126304165e-14,9.289581842210445e-15,5.9099420919546354e-05,1.968275594888396e-22,-4.0,0.08382797737556205,0.0,8.277090665122688e-17,-3.9471371210321547e-16,0.3821108035141924,0.0,0.0,0.0,4.034938236415957,5.102804514040946e-15,-1.586626242480446e-15,-7.661166821949416e-07,636.3107736899002,636.3107736899012,636.3085729153503,636.3085729153485
0.216,7.364747571296785e-18,-4.0,0.03511382644793219,-5.959485336385735e-14,9.081676221420343e-15,5.743081588949695e-05,1.968275594888396e-22,-4.0,0.08665176144915253,0.0,9.022046992715014e-17,-4.1242321393830585e-16,0.3971228776661878,0.0,0.0,0.0,4.023940564879282,4.828224314428231e-15,-1.554591028801451e-15,-5.982788474951074e-07,636.0577577284038,636.0577577284048,636.0560384078981,636.0560384078964
0.22,8.044328894026855e-18,-4.0,0.036807574774137895,-5.936310039969691e-14,8.816045063248759e-15,5.56823391080963e-05,1.968275594888396e-22,-4.0,0.08951054065044775,0.0,9.799948460824673e-17,-4.283311748858554e-16,0.41215565225647327,0.0,0.0,0.0,4.010984532106008,4.597805442494636e-15,-1.511846919938382e-15,-4.404671470840013e-07,635.7596152710057,635.7596152710066,635.7583488731161,635.7583488731145
0.224,8.757639856663908e-18,-4.0,0.03856151830579951,-5.89759488498772e-14,8.468346569096826e-15,5.3865521138600095e-05,1.968275594888396e-22,-4.0,0.092403792121864,0.0,1.0616178484264642e-16,-4.425540870510174e-16,0.4271997665708828,0.0,0.0,0.0,3.996129613458976,4.44193692447725e-15,-1.4363391872629644e-15,-2.927231100400265e-07,635.4176515123545,635.4176515123554,635.4168094443143,635.4168094443128
0.228,9.503617430412315e-18,-4.0,0.040375639283292894,-5.842301228040694e-14,8.014826448626106e-15,5.19915806243516e-05,1.968275594888396e-22,-4.0,0.09533099803910688,0.0,1.148501478156559e-16,-4.552683051766549e-16,0.44224628585010084,0.0,0.0,0.0,3.9794443550726593,4.263043024322581e-15,-1.323728112402823e-15,-1.5515107549882733e-07,635.0333741583097,635.0333741583106,635.0329275697911,635.0329275697896
0.232,1.0280702984177262e-17,-4.0,0.04224988117747665,-5.769911390468346e-14,7.442814873182378e-15,5.00717185284861e-05,1.968275594888396e-22,-4.0,0.09829164556941344,0.0,1.2422660997770523e-16,-4.664771843442159e-16,0.4572858955429943,0.0,0.0,0.0,3.9610015245299195,4.066381227288032e-15,-1.1827717349835698e-15,-2.8187075872632632e-08,634.6083836440579,634.6083836440588,634.6083024557663,634.6083024557648
0.23600000000000002,1.1086433357703858e-17,-4.0,0.04418414368664325,-5.6829393566468083e-14,6.783475682822132e-15,4.8116457525650055e-05,1.968275594888396e-22,-4.0,0.10128522683011582,0.0,1.3426929986052795e-16,-4.760310512314511e-16,0.47230847068959053,0.0,0.0,0.0,3.9408853522969967,3.886879889994453e-15,-1.0585096128036667e-15,8.850449539174255e-08,634.144539846848,634.1445398468489,634.1447949560646,634.1447949560633
0.24000000000000002,1.191826084893851e-17,-4.0,0.046178292784288415,-5.5803448503908945e-14,6.040548361059147e-15,4.613554773461906e-05,1.968275594888396e-22,-4.0,0.10431123884752388,0.0,1.4483184789825514e-16,-4.838736204920576e-16,0.4873042216321344,0.0,0.0,0.0,3.919161144852284,3.684652079631984e-15,-9.297562191361238e-16,1.9539648214294995e-07,633.6432638106943,633.6432638106952,633.6438274754593,633.643827475458
0.24400000000000002,1.2772789956256992e-17,-4.0,0.04823216672960436,-5.4585060970178284e-14,5.270128300112457e-15,4.413736457075164e-05,1.968275594888396e-22,-4.0,0.10736918351612454,0.0,1.556517774535066e-16,-4.898222681382662e-16,0.5022649241079286,0.0,0.0,0.0,3.8958831575831177,3.4287323709674184e-15,-8.488437108654005e-16,2.93696174724528e-07,633.1057179714797,633.1057179714805,633.1065659228094,633.1065659228083
0.24800000000000003,1.3646948844986758e-17,-4.0,0.050345604644866315,-5.311815768202627e-14,4.480304485271532e-15,4.212960872245056e-05,1.968275594888396e-22,-4.0,0.11045856755809541,0.0,1.664720658439869e-16,-4.934565672918215e-16,0.5171862583204969,0.0,0.0,0.0,3.8710486027688384,3.0933238052421303e-15,-7.764252073346776e-16,3.8384904531780927e-07,632.531744771754,632.5317447717547,632.5328540153238,632.5328540153229
0.252,1.4537452926737756e-17,-4.0,0.05251839469117229,-5.144036831722384e-14,3.694016321227243e-15,4.012089988391053e-05,1.968275594888396e-22,-4.0,0.11357890248313054,0.0,1.7703763131354856e-16,-4.943561620452092e-16,0.5320620488381743,0.0,0.0,0.0,3.8447599143958238,2.7838384448294366e-15,-7.243506991017141e-16,4.644660030886691e-07,631.923617221687,631.9236172216877,631.9249607228433,631.9249607228423
0.256,1.5440918135554736e-17,-4.0,0.05475027694992292,-4.965437882774255e-14,2.9429883051858032e-15,3.811847487920484e-05,1.968275594888396e-22,-4.0,0.11672970454857585,0.0,1.8716878011412386e-16,-4.925422274525276e-16,0.5468825346353706,0.0,0.0,0.0,3.817115373609996,2.5786705890746366e-15,-7.055412588574126e-16,5.36808573161711e-07,631.283511263325,631.2835112633256,631.2850655947391,631.2850655947383
0.26,1.6355026643307593e-17,-4.0,0.05704097927181771,-4.7814143063865907e-14,2.16587110898096e-15,3.612878522266148e-05,1.968275594888396e-22,-4.0,0.11991049471987207,0.0,1.9682871902742593e-16,-4.88564771615651e-16,0.5616382812413181,0.0,0.0,0.0,3.788142108309242,2.427860555135615e-15,-6.26952652291816e-16,6.014965155217446e-07,630.6119576471189,630.6119576471195,630.6137011371792,630.6137011371784
0.264,1.727726625272747e-17,-4.0,0.0593902166261023,-4.594026271028191e-14,1.3190964296102847e-15,3.415787823954089e-05,1.968275594888396e-22,-4.0,0.12312079863130282,0.0,2.0643034169331288e-16,-4.829595516656609e-16,0.5763251142617165,0.0,0.0,0.0,3.757869026597569,2.296113559980897e-15,-4.912919835491555e-16,6.587361778799486e-07,629.9095265478242,629.9095265478248,629.9114380810095,629.9114380810088
0.268,1.820358944271687e-17,-4.0,0.06179766357824276,-4.402621694719677e-14,4.854854162257574e-16,3.221152841591326e-05,1.968275594888396e-22,-4.0,0.12636014654704567,0.0,2.160732913350729e-16,-4.759024794264709e-16,0.5909370710765623,0.0,0.0,0.0,3.7263813732616167,2.1531430801701663e-15,-4.272926742660788e-16,7.085966456413203e-07,629.1780955682138,629.1780955682144,629.1801541776019,629.1801541776014
0.272,1.9131134715643767e-17,-4.0,0.06426296582698436,-4.2084525951732556e-14,-3.7036611079939585e-16,3.0294862459254992e-05,1.968275594888396e-22,-4.0,0.12962807332252388,0.0,2.2550318053515553e-16,-4.67460172841283e-16,0.6054665626069947,0.0,0.0,0.0,3.6937423350278147,2.020709954790151e-15,-3.329441549135843e-16,7.515957932432869e-07,628.4190329504158,628.4190329504165,628.4212191178318,628.4212191178312
0.276,2.0056635105752972e-17,-4.0,0.06678574072097834,-4.0102729845922126e-14,-1.2448636888540993e-15,2.841265526504609e-05,1.968275594888396e-22,-4.0,0.13292411836605678,0.0,2.346464669242487e-16,-4.576158379805201e-16,0.6199055613647275,0.0,0.0,0.0,3.6600150384338006,1.8704810236477167e-15,-2.33739956739363e-16,7.87932001298133e-07,627.6337088456615,627.6337088456621,627.6360035717165,627.636003571716
0.28,2.097651874186254e-17,-4.0,0.06936557096426998,-3.8123579473077283e-14,-2.112072758744166e-15,2.65689975934088e-05,1.968275594888396e-22,-4.0,0.1362478256008061,0.0,2.435669041273556e-16,-4.464301231927256e-16,0.6342465479446807,0.0,0.0,0.0,3.625276356186852,1.7660475999473688e-15,-1.5678125187711122e-16,8.182059698367508e-07,626.8238169320447,626.8238169320452,626.8262029048507,626.8262029048502
0.28400000000000003,2.188788194039222e-17,-4.0,0.07200202177859838,-3.611095219318015e-14,-3.010284133647731e-15,2.476775519248628e-05,1.968275594888396e-22,-4.0,0.13959874342701678,0.0,2.5222597159481755e-16,-4.339605104156672e-16,0.6484826723867937,0.0,0.0,0.0,3.589569501380292,1.6182318131354002e-15,-3.9874953785947495e-17,8.425098773928815e-07,625.9902711210141,625.9902711210146,625.9927312378094,625.992731237809
0.28800000000000003,2.278718705426608e-17,-4.0,0.07469461706750083,-3.4086277779502924e-14,-3.921059551723548e-15,2.3012077739257827e-05,1.968275594888396e-22,-4.0,0.14297642468454957,0.0,2.60640706358518e-16,-4.202381620938064e-16,0.6626067715839609,0.0,0.0,0.0,3.5529866863716384,1.4917459575988511e-15,6.804415691397915e-17,8.615185071150377e-07,625.1351327163457,625.1351327163461,625.137651779126,625.1376517791256
0.29200000000000004,2.3670748135341232e-17,-4.0,0.07744287982007204,-3.20857533945121e-14,-4.81564869098941e-15,2.1304721548974434e-05,1.968275594888396e-22,-4.0,0.14638042661570333,0.0,2.6877009087117964e-16,-4.0535306094043965e-16,0.6766130619279831,0.0,0.0,0.0,3.5155395067786905,1.4052914003544693e-15,1.486089568679156e-16,8.7555885079836e-07,624.2585841135007,624.2585841135011,624.2611478246351,624.2611478246348
0.29600000000000004,2.4534526735570104e-17,-4.0,0.08024632128037683,-3.005846346153127e-14,-5.626111431346974e-15,1.964796840447799e-05,1.968275594888396e-22,-4.0,0.14981031082832508,0.0,2.761213123179434e-16,-3.893889768847344e-16,0.6904990494618901,0.0,0.0,0.0,3.4772616338359192,1.2596358815015218e-15,1.56645010379321e-16,8.850686806999335e-07,623.3613241851407,623.3613241851413,623.3639194720568,623.3639194720564
0.30000000000000004,2.5375315720833736e-17,-4.0,0.08310444987987205,-2.800073288440583e-14,-6.3391936449798885e-15,1.804377544164388e-05,1.968275594888396e-22,-4.0,0.15326564325920555,0.0,2.821527600642944e-16,-3.722513408695854e-16,0.704262936486967,0.0,0.0,0.0,3.4381690497734736,1.1064432267772083e-15,1.3787367936046902e-16,8.903300057077939e-07,622.4436384014848,622.4436384014853,622.4462529651843,622.446252965184
0.30400000000000005,2.6191372330552612e-17,-4.0,0.08601674384120737,-2.590742205492334e-14,-7.047588711758058e-15,1.649369265985279e-05,1.968275594888396e-22,-4.0,0.15674599413775814,0.0,2.8698657009903565e-16,-3.5372988078361843e-16,0.7179011077139739,0.0,0.0,0.0,3.3983334920344452,9.437307146351817e-16,2.0702958492266817e-16,8.917343899382413e-07,621.5071234893619,621.5071234893624,621.50974612314,621.5097461231398
0.30800000000000005,2.6980390195777543e-17,-4.0,0.08898274012720958,-2.3759355936928697e-14,-7.777907831995975e-15,1.4998863805600907e-05,1.968275594888396e-22,-4.0,0.16025093794997913,0.0,2.9122043514298666e-16,-3.3366469642810046e-16,0.7314157807426029,0.0,0.0,0.0,3.357647201717539,7.547324228661627e-16,3.157323011328508e-16,8.896889754354022e-07,620.5491544284129,620.5491544284133,620.5517750859126,620.5517750859125
0.31200000000000006,2.7740466710562164e-17,-4.0,0.09200199505697193,-2.1594641459834213e-14,-8.601038430301189e-15,1.356026750783348e-05,1.968275594888396e-22,-4.0,0.16378005340268728,0.0,2.956529569692979e-16,-3.1204105688761856e-16,0.7448137874357526,0.0,0.0,0.0,3.3160805409342053,6.049888975312876e-16,5.067562195137768e-16,8.843358222452669e-07,619.5689320158982,619.5689320158987,619.5715410264335,619.5715410264335
0.31600000000000006,2.846855590611138e-17,-4.0,0.0950739632104927,-1.951124166980667e-14,-9.500765966454775e-15,1.2178598335485649e-05,1.968275594888396e-22,-4.0,0.16733292338804043,0.0,3.006718749369475e-16,-2.8925454735120775e-16,0.7580907965233987,0.0,0.0,0.0,3.273849082397809,5.66990284767111e-16,7.010313600830035e-16,8.759626459513014e-07,618.5714459440936,618.5714459440941,618.5740344190726,618.5740344190727
0.32000000000000006,2.9161202937534633e-17,-4.0,0.09819806120247573,-1.7594926796788686e-14,-1.0448223006920254e-14,1.0854221843623771e-05,1.968275594888396e-22,-4.0,0.17090913494832735,0.0,3.063061711607846e-16,-2.6634396634158047e-16,0.7712320075896535,0.0,0.0,0.0,3.2310422746135723,6.332543519040998e-16,8.751712462720409e-16,8.649212912804921e-07,617.5587299687737,617.5587299687743,617.5612900077901,617.5612900077903
0.32400000000000007,2.981499385292033e-17,-4.0,0.10137365844293623,-1.589977480557449e-14,-1.1436428477870583e-14,9.58726429973467e-06,1.968275594888396e-22,-4.0,0.1745082792410327,0.0,3.1224263912205347e-16,-2.444994282584134e-16,0.784223250367641,0.0,0.0,0.0,3.1877695899439087,7.72754833272405e-16,1.0479530081681236e-15,8.514722733132264e-07,616.5333050135571,616.5333050135577,616.5358294372122,616.5358294372123
0.32800000000000007,3.0426379352450843e-17,-4.0,0.10460013315550933,-1.4436225753682992e-14,-1.2457642288767356e-14,8.377634643538888e-06,1.968275594888396e-22,-4.0,0.17812995150417293,0.0,3.182668991007392e-16,-2.2459609884542506e-16,0.79705979953031,0.0,0.0,0.0,3.1440283772103115,9.38386711167463e-16,1.2201236890954814e-15,8.358602716984178e-07,615.4950442109903,615.4950442109911,615.4975265289494,615.4975265289496
0.3320000000000001,3.099172483499912e-17,-4.0,0.10787684933174538,-1.3200984086909388e-14,-1.3505929058446768e-14,7.22497094292895e-06,1.968275594888396e-22,-4.0,0.18177375102190133,0.0,3.243085190342478e-16,-2.0710269632772758e-16,0.8097388692864845,0.0,0.0,0.0,3.099862537049091,1.11498607204756e-15,1.3928787304540424e-15,8.184014445506348e-07,614.444926752881,614.4449267528818,614.4473613759112,614.4473613759114
0.3360000000000001,3.150668289734401e-17,-4.0,0.11120313911094373,-1.2155311247587886e-14,-1.4512191316637227e-14,6.128720185914522e-06,1.968275594888396e-22,-4.0,0.1854392810903802,0.0,3.2998104789533587e-16,-1.9208895017820308e-16,0.822256439921104,0.0,0.0,0.0,3.0553522448724806,1.261099003355138e-15,1.4995249147851741e-15,7.993298885115638e-07,613.3848026768694,613.3848026768703,613.3871846746874,613.3871846746875
0.3400000000000001,3.196743011758535e-17,-4.0,0.11457832857823767,-1.1322910355832496e-14,-1.5447949846497408e-14,5.088170409388969e-06,1.968275594888396e-22,-4.0,0.18912614898391802,0.0,3.347027056217099e-16,-1.7949798312120622e-16,0.8346075981109132,0.0,0.0,0.0,3.0105263941132394,1.4471239846602857e-15,1.5689975927716436e-15,7.788500537054303e-07,612.3153096892926,612.3153096892936,612.3176347113281,612.3176347113282
0.3440000000000001,3.2370586747803737e-17,-4.0,0.11800173961172819,-1.07235060819733e-14,-1.6301722446883183e-14,4.1024571396356285e-06,1.968275594888396e-22,-4.0,0.19283396592137,0.0,3.379306107417842e-16,-1.694963554336838e-16,0.8467900050919421,0.0,0.0,0.0,2.9654103821644635,1.6701850187506515e-15,1.6197211743587348e-15,7.571654434754264e-07,611.2370058761312,611.2370058761322,611.2392701528573,611.2392701528574
0.3480000000000001,3.271243614420204e-17,-4.0,0.12147268972623325,-1.036567737781731e-14,-1.699697927602553e-14,3.1705799563502578e-06,1.968275594888396e-22,-4.0,0.19656234703279937,0.0,3.391855333011541e-16,-1.6253550221126882e-16,0.858802604505482,0.0,0.0,0.0,2.920030116888611,1.9187783710975965e-15,1.5836878914275437e-15,7.344665346953387e-07,610.1504651231648,610.150465123166,610.152665430996,610.1526654309959
0.3520000000000001,3.2990603161180844e-17,-4.0,0.12499049202141206,-1.0227644207718803e-14,-1.7537747073416074e-14,2.291418254338513e-06,1.968275594888396e-22,-4.0,0.20031091132639842,0.0,3.3796122691209056e-16,-1.5884458289899926e-16,0.8706443054252567,0.0,0.0,0.0,2.8744118092648057,2.1582081691693645e-15,1.5304142267612712e-15,7.109310443307668e-07,609.0562723575246,609.0562723575258,609.0584059843359,609.0584059843358
0.3560000000000001,3.320398748596289e-17,-4.0,0.12855446170259036,-1.0307686162267752e-14,-1.7993842115256034e-14,1.4638293605909542e-06,1.968275594888396e-22,-4.0,0.20407928165566652,0.0,3.3426398698428263e-16,-1.5844209773619044e-16,0.8823146575069052,0.0,0.0,0.0,2.8285686351386046,2.4105627641083037e-15,1.5366059684875104e-15,6.866270864998117e-07,607.9547030615328,607.954703061534,607.956767481894,607.9567674818938
0.3600000000000001,3.3403028935080584e-11,-4.000000000033403,0.13216391668198568,-3.2682518857792525e-06,-3.2682877893250376e-06,-2.658407043903142e-07,1.968275594888396e-22,-4.0,0.2078670846868438,0.0,1.201728253593038e-08,-1.2017172965802337e-08,0.8938139211563302,0.0,0.0,0.0,2.7825125407526317,3.4272048979003027e-06,3.4272423669572804e-06,1.774281809017133e-06,606.8433558570335,606.845302314537,606.8496734024408,606.8496734130808
0.3640000000000001,1.3794872622347305e-10,-4.000000000137944,0.13581814701595815,-1.4301567589036271e-05,-1.4302030207875924e-05,-2.2713417887633556e-06,1.968275594888396e-22,-4.0,0.21167395086659824,0.0,8.388330371365722e-08,-8.388112430798444e-08,0.9051400120853101,0.0,0.0,0.0,2.736317470858307,1.225250719728384e-05,1.2252960435164322e-05,2.1675404348476453e-06,605.726126715569,605.7330983398434,605.7361533387696,605.736153467711
0.3680000000000001,2.654739146008653e-10,-4.000000000265458,0.13951647172397788,-3.163983272945147e-05,-3.1641504471760315e-05,-4.469140973031829e-06,1.968275594888396e-22,-4.0,0.21549951438996442,0.0,2.5471234052421413e-07,-2.547016809463505e-07,0.916292248622684,0.0,0.0,0.0,2.6899429999902034,2.0880007127702728e-05,2.088136855505519e-05,2.4746859213171646e-06,604.6026807772131,604.6145836073995,604.6161135885413,604.6161139765708
0.3720000000000001,3.455140196163216e-10,-4.000000000345481,0.1432581793021466,-5.3955639632758733e-05,-5.395954356808032e-05,-6.791355537192431e-06,1.968275594888396e-22,-4.0,0.21934341316853218,0.0,5.221257288965564e-07,-5.220944781884672e-07,0.9272702883181404,0.0,0.0,0.0,2.6434685643574514,2.8700054415743033e-05,2.8702699522630702e-05,2.7105834706568155e-06,603.4750596720676,603.4914511188747,603.4914650850342,603.4914658403384
0.3760000000000001,2.900285582694888e-10,-4.000000000289979,0.1470425535501441,-8.00149108649735e-05,-8.002217373497563e-05,-9.181243498761887e-06,1.968275594888396e-22,-4.0,0.22320528879888304,0.0,8.614665916824133e-07,-8.61399204796323e-07,0.9380711692878559,0.0,0.0,0.0,2.5969222128132095,3.569892590519996e-05,3.570310708708324e-05,2.8854684288777828e-06,602.3439092706832,602.3643364534546,602.3628784451738,602.3628796413377
0.38,-1.897409464533528e-12,-3.9999999999980473,0.1508688826128646,-0.00010867757233869105,-0.00010868930246666635,-1.1591606122052507e-05,1.968275594888396e-22,-4.0,0.22708478653127284,0.0,1.2507324655489465e-06,-1.2506119324191462e-06,0.9486935236077028,0.0,0.0,0.0,2.5503138491196866,4.186588956010701e-05,4.187173023592059e-05,3.008163533409592e-06,601.2094402092425,601.2334415739725,601.2305857877774,601.2305874618405
0.384,-6.396926502972969e-10,-3.999999999360274,0.1547364695092437,-0.00013890499573373307,-0.00013892217915231536,-1.3982213713122463e-05,1.968275594888396e-22,-4.0,0.23098155523855893,0.0,1.6696893562641928e-06,-1.6694994162338174e-06,0.9591391548117221,0.0,0.0,0.0,2.5036319249330647,4.720484939554219e-05,4.721234914522554e-05,3.084873024454616e-06,600.0713417070345,600.0984553702489,600.0942942066528,600.0942963603123
0.388,-1.7377606865160976e-09,-3.999999998262276,0.158644588177405,-0.00016971816499084422,-0.00016974156896633292,-1.6319601114575834e-05,1.968275594888396e-22,-4.0,0.234895247385369,0.0,2.0997176416645807e-06,-2.0994444326845534e-06,0.9694071927811556,0.0,0.0,0.0,2.4569536791369675,5.168317905729566e-05,5.1692224966622756e-05,3.121845610521497e-06,598.9314786549513,598.9612212653251,598.9558761295428,598.9558787321415
0.392,-3.4116896507963224e-09,-3.999999996588489,0.16259250954455676,-0.00020022030157175057,-0.00020025039995717257,-1.8576519331110728e-05,1.968275594888396e-22,-4.0,0.23882551899751148,0.0,2.523675612780851e-06,-2.5233094408668412e-06,0.9794945480617498,0.0,0.0,0.0,2.410304422316525,5.5292328499505496e-05,5.530269164442566e-05,3.1249648493742806e-06,597.790453557692,597.8223340339752,597.8159475054883,597.8159504927542
0.396,-5.774971388291796e-09,-3.999999994225448,0.1665795039556851,-0.00022959824787620062,-0.00022963516512358587,-2.073101071872902e-05,1.968275594888396e-22,-4.0,0.24277202963162434,0.0,2.925894360041073e-06,-2.925430770472581e-06,0.9893996017328114,0.0,0.0,0.0,2.3637046854340014,5.8033182394766335e-05,5.804454195358894e-05,3.099287326814105e-06,596.6487549212828,596.6822798397444,596.6750105741506,596.6750138549028
0.4,-8.936082071534857e-09,-3.999999991064704,0.17060484797911263,-0.00025712448274570887,-0.00025716795720792885,-2.276566223021957e-05,1.968275594888396e-22,-4.0,0.24673444234506112,0.0,3.2923357697456197e-06,-3.2917765173071196e-06,0.9991228849247541,0.0,0.0,0.0,2.3171612590172574,5.9915620013945816e-05,5.9927565813711406e-05,3.0492130482614895e-06,595.5065360105108,595.5412148018382,595.5332330357201,595.5332364923988
0.404,-1.2995913461582857e-08,-3.999999987005392,0.1746678349620891,-0.00028216054668818896,-0.00028220991377142106,-2.466717316502702e-05,1.968275594888396e-22,-4.0,0.2507124236660122,0.0,3.6106513487920204e-06,-3.6100049243881946e-06,1.008666670618138,0.0,0.0,0.0,2.2706593649631848,6.09604445293484e-05,6.097251939121385e-05,2.978822482740435e-06,594.3634179613067,594.3987693052211,594.3902527780095,594.390256278753
0.40800000000000003,-1.8045512745581804e-08,-3.9999999819564884,0.17876773101074944,-0.0003041407043061072,-0.000304194891336635,-2.6425752934785207e-05,1.968275594888396e-22,-4.0,0.25470564356385994,0.0,3.870130774865692e-06,-3.869412533952033e-06,1.018030557848711,0.0,0.0,0.0,2.2242730816520226,6.117642222985123e-05,6.118809195304338e-05,2.8916605318097638e-06,593.2212135400567,593.2567583004537,593.2478942006518,593.2478975904522
0.41200000000000003,-2.41641614165891e-08,-3.9999999758387332,0.18290380108703366,-0.0003225807454096933,-0.0003226382859926562,-2.803461183183595e-05,1.968275594888396e-22,-4.0,0.2587137754197652,0.0,4.06164710267759e-06,-4.06087952816868e-06,1.0272119221653924,0.0,0.0,0.0,2.1780244433624505,6.058904446625197e-05,6.059977607364344e-05,2.7908206871233845e-06,592.0804600093629,592.115731082964,592.106709822222,592.1067129455284
0.41600000000000004,-3.141775832155129e-08,-3.999999968586244,0.18707531142214195,-0.00033707803562221887,-0.0003371370997866979,-2.9489559601240697e-05,1.968275594888396e-22,-4.0,0.26273649599748444,0.0,4.177649276403336e-06,-4.1768614656212615e-06,1.0362096086654504,0.0,0.0,0.0,2.1319306738701354,5.9230910916987145e-05,5.924014591609951e-05,2.67905026077467e-06,590.9415782067316,590.9761247664627,590.9671368658941,590.9671395588133
0.42000000000000004,-3.9857413235301954e-08,-3.999999960147919,0.19128151674549526,-0.0003473127342392871,-0.00034737117497519304,-3.078920314944608e-05,1.968275594888396e-22,-4.0,0.26677348541441515,0.0,4.212221516604944e-06,-4.211448488890878e-06,1.045022654429707,0.0,0.0,0.0,2.0860349262329407,5.7142251396080686e-05,5.7149414393631766e-05,2.5594339692006226e-06,589.8056322837976,589.8390243381016,589.8302592498701,589.830261342621
0.42400000000000004,-4.9518510736742115e-08,-3.9999999504883745,0.1955216685210015,-0.0003530450397322382,-0.00035310045022687316,-3.193309885317987e-05,1.968275594888396e-22,-4.0,0.2708244271128678,0.0,4.161084620219194e-06,-4.160366304401498e-06,1.0536496477851969,0.0,0.0,0.0,2.0403640548368878,5.436953277225746e-05,5.437410608380792e-05,2.433012896644954e-06,588.673291057263,588.7051233245271,588.6967612190703,588.6967625577877
0.42800000000000005,-6.04202390653456e-08,-3.9999999395884145,0.1997950434423412,-0.0003541085050891137,-0.00035415828070373844,-3.2922728563231e-05,1.968275594888396e-22,-4.0,0.27488900783156295,0.0,4.021534317936191e-06,-4.020914438463251e-06,1.0620917887301533,0.0,0.0,0.0,1.994887236392015,5.096116146321289e-05,5.09626390512783e-05,2.3020072114361794e-06,587.5437906113128,587.5736839281343,587.5658987086857,587.5658991420435
0.43200000000000005,-7.256498049346854e-08,-3.9999999274456415,0.20410091929603982,-0.00035041203471122985,-0.0003504534479151903,-3.3760926112970026e-05,1.968275594888396e-22,-4.0,0.2789669175773518,0.0,3.7923780363886414e-06,-3.7919031279538803e-06,1.0703524729635996,0.0,0.0,0.0,1.949621878943702,4.697043243041531e-05,4.696840970762433e-05,2.168046322782278e-06,586.417563214601,586.4451675818686,586.4381235441248,586.4381229497452
0.43600000000000005,-8.593815888841481e-08,-3.999999914074604,0.20843857534810495,-0.00034193720690106865,-0.00034196748841857673,-3.4451644204493724e-05,1.968275594888396e-22,-4.0,0.2830578495971584,0.0,3.473900852098102e-06,-3.4736185598547695e-06,1.0784327077294746,0.0,0.0,0.0,1.9045846199004979,4.245725311451257e-05,4.245133052810821e-05,2.032543040640222e-06,585.2950235653454,585.3200222567242,585.3138714125779,585.3138696688754
0.44000000000000006,-1.005083456006266e-07,-3.999999899506693,0.21280729266818982,-0.00032873518556367833,-0.0003287516092951078,-3.499975158693064e-05,1.968275594888396e-22,-4.0,0.2871615003501418,0.0,3.0678265882332284e-06,-3.0677839683120164e-06,1.0863328818132998,0.0,0.0,0.0,1.8597914400594615,3.7485372478233686e-05,3.7475272259039704e-05,1.8967194674567498e-06,584.1765721968944,584.1986843352199,584.1935645457645,584.1935615663988
0.44400000000000006,-1.1622768887602472e-07,-3.9999998837897146,0.21720636082078834,-0.00031091893495537124,-0.0003109189013241857,-3.5410345008507726e-05,1.968275594888396e-22,-4.0,0.2912775694800768,0.0,2.57723209652256e-06,-2.5774741456368214e-06,1.0940541031575595,0.0,0.0,0.0,1.8152447308389272,3.2117839496877536e-05,3.2103383828816537e-05,1.7610319126332248e-06,583.0622732449197,583.081253688086,583.0772863566707,583.0772820843698
0.44800000000000006,-1.330326811829128e-07,-3.999999866987121,0.22163509446336202,-0.0002886480179973956,-0.00028862912704566337,-3.568922451954576e-05,1.968275594888396e-22,-4.0,0.29540575978795136,0.0,2.0063515897481825e-06,-2.0069197884660418e-06,1.101599824708748,0.0,0.0,0.0,1.7709129742312228,2.640828377377759e-05,2.6389373216839335e-05,1.6265016328261201e-06,581.9513411341277,581.9669751996533,581.9642697056906,581.9642641060807
0.45200000000000007,-1.508444809783332e-07,-3.9999998491776894,0.22609280099926563,-0.0002621455027354241,-0.0002621056425796947,-3.5843342563098306e-05,1.968275594888396e-22,-4.0,0.29954577720477904,0.0,1.3604850361064848e-06,-1.3614157480685666e-06,1.1089725778417814,0.0,0.0,0.0,1.7268295482433365,2.042854480799146e-05,2.0405184348095246e-05,1.494703778339874e-06,580.8446116415446,580.8567261091976,580.8553760551561,580.8553691246786
0.45600000000000007,-1.69569614959311e-07,-3.9999998304548203,0.23057876341175917,-0.00023170745474326095,-0.00023164489777966716,-3.587990545213142e-05,1.968275594888396e-22,-4.0,0.3036973307646254,0.0,6.461222284095027e-07,-6.474449163961208e-07,1.116170167320272,0.0,0.0,0.0,1.6830629474168775,1.4270458304590822e-05,1.4242791861124313e-05,1.3662116890676166e-06,579.7438081868405,579.75228352852,579.7523574945315,579.7523492709574
0.4600000000000001,-1.8910147869093685e-07,-3.9999998109250394,0.2350922673357931,-0.00019767867293683743,-0.00019759215079948056,-3.580618756723052e-05,1.968275594888396e-22,-4.0,0.3078601325778461,0.0,-1.2903770076509457e-07,1.2730211930147845e-07,1.1231896414462321,0.0,0.0,0.0,1.639627548447855,8.012351518554554e-06,7.980643949827338e-06,1.2413925862543562e-06,578.6493039614709,578.6540667618161,578.6556114740458,578.6556020314248
0.4640000000000001,-2.0932153727202247e-07,-3.9999997907068,0.2396325910995129,-0.0001604564580089372,-0.00016034523429585867,-3.5630241960632495e-05,1.968275594888396e-22,-4.0,0.31203389780453533,0.0,-9.562608198208972e-07,9.54101087712971e-07,1.1300296105313807,0.0,0.0,0.0,1.59655790031649,1.73800899572408e-06,1.7026786573820633e-06,1.121447091945281e-06,577.561982543666,577.5630091313487,577.5660502851904,577.5660397438478
0.4680000000000001,-2.3010090165853451e-07,-3.9999997699289036,0.24419901337205976,-0.00012047833030463332,-0.00012034226010102219,-3.5359049055267415e-05,1.968275594888396e-22,-4.0,0.3162183446281833,0.0,-1.8259302132185112e-06,1.8233462887327542e-06,1.1366896217573004,0.0,0.0,0.0,1.5538733091017112,-4.4740284073748325e-06,-4.512494714609166e-06,1.0054457528933122e-06,576.4823522554246,576.479665943279,576.4842028743185,576.4841913757739
0.4720000000000001,-2.5130225093237405e-07,-3.9999997487285857,0.248790839909832,-7.819285828881746e-05,-7.803242032486961e-05,-3.4999952415974756e-05,1.968275594888396e-22,-4.0,0.32041319422954095,0.0,-2.727854126714538e-06,2.724858094437676e-06,1.1431716540210215,0.0,0.0,0.0,1.511538833133044,-1.057119394604607e-05,-1.0612157075507379e-05,8.940927653845694e-07,575.4095515674117,575.4032074709934,575.4092259081067,575.4092136403234
0.4760000000000001,-2.7278123939417714e-07,-3.999999727250107,0.2534073867326764,-3.406817610015903e-05,-3.388450306474581e-05,-3.4559797978604776e-05,1.968275594888396e-22,-4.0,0.32461817076069,0.0,-3.651554839387355e-06,3.6481712100145864e-06,1.1494803314126258,0.0,0.0,0.0,1.4695528560204214,-1.6494399385999344e-05,-1.6537144802220417e-05,7.871022336349579e-07,574.3435603129906,574.3336494687077,574.3411163457871,574.341103520431
0.4800000000000001,-2.9438825377253994e-07,-3.9999997056429994,0.25804798979135035,1.1422509316861152e-05,1.1627617809050592e-05,-3.4045847311968456e-05,1.968275594888396e-22,-4.0,0.32883300131931786,0.0,-4.586463636776373e-06,4.582729910008632e-06,1.1556195443929727,0.0,0.0,0.0,1.4278938580619203,-2.219473015608552e-05,-2.223846311271368e-05,6.852351399206964e-07,573.2838516625735,573.2704951628099,573.2793648830459,573.2793517370856
0.4840000000000001,-3.159697390354938e-07,-3.9999996840607417,0.2627119709054883,5.7776994850503807e-05,5.8001059117288995e-05,-3.3464861927453615e-05,1.968275594888396e-22,-4.0,0.3330574159231947,0.0,-5.521836766077947e-06,5.5178034576609644e-06,1.1615906916828396,0.0,0.0,0.0,1.3866088573115514,-2.7598353332287035e-05,-2.764218250590401e-05,5.882003695316857e-07,572.2316401959747,572.2150044564139,572.2252079057839,572.2251947066302
0.4880000000000001,-3.373702287319536e-07,-3.9999996626587335,0.2673986707079573,0.00010449820733432946,0.00010473807795347962,-3.282378281855207e-05,1.968275594888396e-22,-4.0,0.3372911474848518,0.0,-6.44687725334582e-06,6.4426076856719595e-06,1.167394670484483,0.0,0.0,0.0,1.3456785045216257,-3.265974197590329e-05,-3.270269547654251e-05,4.964805554565633e-07,571.1864574877897,571.1667374556305,571.1781928772415,571.1781799180849
0.4920000000000001,-3.5843376445882796e-07,-3.9999996415928774,0.27210741123892285,0.00015106914621578485,0.00015132102309528485,-3.2129370297828794e-05,1.968275594888396e-22,-4.0,0.3415339317864595,0.0,-7.3507306263358965e-06,7.346300400570066e-06,1.1730312695731462,0.0,0.0,0.0,1.30515880952853,-3.7309581983575825e-05,-3.735063837341377e-05,4.1014545799698143e-07,570.1497575783179,570.1271913643009,570.1397957284853,570.1397833191307
0.4960000000000001,-3.7900583441444674e-07,-3.9999996210176394,0.2768375249073603,0.00019698181324788726,0.0001972412798023705,-3.138768687362321e-05,1.968275594888396e-22,-4.0,0.34578550745490366,0.0,-8.222651848436609e-06,8.218148337679659e-06,1.1785001525358147,0.0,0.0,0.0,1.265047639564378,-4.150340302770624e-05,-4.154152973217288e-05,3.286538082875994e-07,569.1215194293588,569.0963735105153,569.1100079632679,569.109996418563
0.5000000000000001,-3.989351040841112e-07,-3.9999996010843253,0.2815883655108212,0.00024175074016066875,0.0002420128094827465,-3.0604945795013115e-05,1.968275594888396e-22,-4.0,0.3500456159370581,0.0,-9.052224489843472e-06,9.047745692648756e-06,1.1838037377205326,0.0,0.0,0.0,1.2253202086490567,-4.5213682972196154e-05,-4.5247775080944246e-05,2.5242734131719423e-07,568.1011419851409,568.073701095028,568.0882390898256,568.0882287482227
0.5040000000000001,-4.18074863304763e-07,-3.999999581939632,0.28635926975119014,0.000284891651041638,0.00028515083549269013,-2.9787116039722168e-05,1.968275594888396e-22,-4.0,0.35431400147525294,0.0,-9.829521572404332e-06,9.825174920292054e-06,1.188943364654501,0.0,0.0,0.0,1.1860291950298045,-4.839094311894637e-05,-4.8419934207197676e-05,1.814329791536383e-07,567.0900110017983,567.0605916426427,567.0758907409639,567.0758819310204
0.5080000000000001,-4.362846771759292e-07,-3.9999995637239985,0.29114957972685895,0.0003259421660414745,0.00032619255213565756,-2.8939777978805765e-05,1.968275594888396e-22,-4.0,0.3585904110829363,0.0,-1.0545115170330407e-05,1.0541015743784187e-05,1.1939183868216399,0.0,0.0,0.0,1.147182215050416,-5.100602911547725e-05,-5.1028866161861155e-05,1.1545942353964265e-07,566.0883642283577,566.0573024587062,566.0732098585584,566.0732029064405
0.512,-4.5343186271144614e-07,-3.9999995465701326,0.29595864483382306,0.00036446789578264624,0.0003647032295751064,-2.8068207246505604e-05,1.968275594888396e-22,-4.0,0.36287459452052845,0.0,-1.1190173818996714e-05,1.11864425765585e-05,1.198729385586024,0.0,0.0,0.0,1.108782895671159,-5.3038665404045695e-05,-5.3054315624490015e-05,5.437778161337683e-08,565.0963399767824,565.0639860964137,565.0803415523246,565.0803367796696
0.516,-4.693928471175376e-07,-3.9999995306016505,0.300785821698858,0.00040006684585785346,0.00040028062795190405,-2.717737354788365e-05,1.968275594888396e-22,-4.0,0.36716630427146685,0.0,-1.175668001315143e-05,1.1753441821888609e-05,1.2033781833332509,0.0,0.0,0.0,1.070834807389059,-5.447532844292487e-05,-5.4482842966326236e-05,-1.9543775243783345e-09,564.1140776749105,564.0807921457335,564.0974299707202,564.0974276751157
0.52,-4.840544025283865e-07,-3.9999995159318464,0.3056304741387391,0.00043237340015183214,0.00043255898900155756,-2.6271940833224624e-05,1.968275594888396e-22,-4.0,0.3714652955184402,0.0,-1.223752164237206e-05,1.2234902906597188e-05,1.2078665859563145,0.0,0.0,0.0,1.0333414131142837,-5.5309325189429795e-05,-5.530778973559608e-05,-5.369149652906173e-08,563.1417165290801,563.1078658438436,563.1246169248604,563.1246173947352
0.524,-4.973147460715392e-07,-3.99999950266259,0.3104919731371775,0.0004610618330331207,0.00046121255468721886,-2.53562694392241e-05,1.968275594888396e-22,-4.0,0.3757713261198112,0.0,-1.2626569273574734e-05,1.2624695676854424e-05,1.212196390052315,0.0,0.0,0.0,0.9963060331233355,-5.5540610261023274e-05,-5.552923470041497e-05,-1.0099774647961361e-07,562.1793945478091,562.1453471301576,562.162040956193,562.1620444432664
0.528,-5.090844960246545e-07,-3.999999490883371,0.31536969683595933,0.0004858493200120448,0.0004859585827802188,-2.4434419943318492e-05,1.968275594888396e-22,-4.0,0.3800841565862254,0.0,-1.2918741142754482e-05,1.2917735330044208e-05,1.2163693872324834,0.0,0.0,0.0,0.9597318165760496,-5.517578192971598e-05,-5.51538741989789e-05,-1.4404495893017098e-07,561.2272477424492,561.1933698481026,561.2098365265523,561.2098432535598
0.532,-5.192874766452514e-07,-3.9999994806704944,0.32026303053730465,0.0005064984236390584,0.0005065598356366312,-2.351015849631289e-05,1.968275594888396e-22,-4.0,0.38440355005740556,0.0,-1.3110055151895798e-05,1.3110034144694177e-05,1.2203873675027839,0.0,0.0,0.0,0.9236217186396796,-5.42278406805183e-05,-5.41948311798269e-05,-1.8301076168030357e-07,560.2854094189504,560.252061134147,560.2681333721606,560.2681435251238
0.536,-5.278613661022412e-07,-3.999999472086432,0.325171366714924,0.0005228190369555102,0.0005228265245304788,-2.2586963422611197e-05,1.968275594888396e-22,-4.0,0.3887292722791295,0.0,-1.3197667401473073e-05,1.3198740061056487e-05,1.2242521219253564,0.0,0.0,0.0,0.8879784823776957,-5.271595449685342e-05,-5.2671396399845895e-05,-2.1807689959510315e-07,559.354009578211,559.3215409364258,559.3370559647683,559.3370696926277
0.54,-5.347581837955206e-07,-3.999999465179333,0.33009410503164016,0.0005346697729812146,0.0005346176981421015,-2.166803289859803e-05,1.968275594888396e-22,-4.0,0.3930610915803907,0.0,-1.3179896957229594e-05,1.3182161574845924e-05,1.2279654446715156,0.0,0.0,0.0,0.8528046246907446,-5.066508544163351e-05,-5.060870594161662e-05,-2.494277242208162e-07,558.4331743860887,558.4019216678743,558.4167230859156,558.4167404844468
0.544,-5.399445489766485e-07,-3.999999459982765,0.33503065736565396,0.0005419570493080709,0.0005418403140614266,-2.0756166873702183e-05,1.968275594888396e-22,-4.0,0.3973987788507399,0.0,-1.3056229757217592e-05,1.3059771643959499e-05,1.2315296349486273,0.0,0.0,0.0,0.8180922702504485,-4.8104426616513084e-05,-4.803608098410599e-05,-2.773968024777286e-07,557.5227592314848,557.4930422174746,557.5069808654395,557.5070019910969
0.548,-5.434016481414807e-07,-3.9999994565157433,0.33998046225750245,0.0005446297115517764,0.0005444438271896304,-1.9853880463002952e-05,1.968275594888396e-22,-4.0,0.4017421075178062,0.0,-1.2827259571514694e-05,1.2832149256488643e-05,1.2349489402375862,0.0,0.0,0.0,0.7838038714247044,-4.5063001677050506e-05,-4.498267450168806e-05,-3.022013977980835e-07,556.6218382401298,556.5939601329864,556.6068945038263,556.6069193731337
0.552,-5.451253014128411e-07,-3.999999454782663,0.34494297929363527,0.0005426777070752409,0.0005424188663668921,-1.8963528122743875e-05,1.968275594888396e-22,-4.0,0.40609085352499713,0.0,-1.2494599668625834e-05,1.250089136415294e-05,1.2382289926292516,0.0,0.0,0.0,0.7499124662416943,-4.156979155012338e-05,-4.1477597511791655e-05,-3.23925237605085e-07,555.7297573103249,555.7040046453354,555.7158013635847,555.7158299526441
0.556,-5.451264481684702e-07,-3.9999994547728126,0.3499176487022654,0.0005361503648501023,0.0005358155918141074,-1.808743575865555e-05,1.968275594888396e-22,-4.0,0.41044479530937483,0.0,-1.2060923915683548e-05,1.2068653902758774e-05,1.2413711515946528,0.0,0.0,0.0,0.7164724592661353,-3.767275662778348e-05,-3.75690220946198e-05,-3.425041587073294e-07,554.8480076687614,554.8246384629504,554.8351787120038,554.8352109307874
0.56,-5.434308826464388e-07,-3.999999456460635,0.3549038929201827,0.0005251576295031434,0.000524744918474357,-1.7227614118999397e-05,1.968275594888396e-22,-4.0,0.41480371377970887,0.0,-1.153012878435296e-05,1.1539313000495313e-05,1.2443727130251798,0.0,0.0,0.0,0.6835357286037906,-3.343344049827662e-05,-3.33187378515291e-05,-3.582098101564934e-07,553.9780276083909,553.9572626613806,553.9664454317825,553.9664811130071
0.5640000000000001,-5.400783218006744e-07,-3.9999994598066566,0.35990114703151577,0.000509851646477991,0.0005093600262341013,-1.6385753975090932e-05,1.968275594888396e-22,-4.0,0.41916739229470285,0.0,-1.0907333694330844e-05,1.0917965380985012e-05,1.247231584892627,0.0,0.0,0.0,0.6510929795965295,-2.8903867763311732e-05,-2.877892357547371e-05,-3.7133227191832306e-07,553.1196436624101,553.1016721748808,553.1094113704485,553.109450297793
