Time_s,X,Y,Z,Roll_deg,Pitch_deg,Yaw_deg,Ref_X,Ref_Y,Ref_Z,Ref_Yaw,vx,vy,vz,p,q,r,T_pert,tau_x,tau_y,tau_z,RPM_0,RPM_1,RPM_2,RPM_3
0.0040000000000000036,3.907672823421635e-23,-2.0,0.010006999594037988,3.1588276933026285e-18,-1.2404722931936249e-18,-1.2671305083394822e-20,-1.7036304823775595e-23,-2.0,0.010074639714689831,2.7486720655859e-22,-7.173352330779748e-20,-400.0,2.0013999188075973,0.0,0.0,0.0,0.13727673356390743,-3.688665432071574e-18,7.946578054346201e-19,3.319909604055624e-20,539.3555031529193,539.3555031529194,539.3555031529193,539.3555031529194
0.008,-5.603047159137108e-23,-2.0,0.010010999367146601,4.383865438171068e-18,-2.1731327457433164e-18,5.809656533117026e-21,-1.703508554769708e-23,-2.0,0.01021705724096241,2.748475345103852e-22,-5.040646060046766e-20,-222.22222222222223,1.1123332630162888,0.0,0.0,0.0,0.2830776322140905,-1.646524392292225e-18,2.8890311124129757e-18,-2.0422984089783303e-20,543.2938901806401,543.2938901806402,543.2938901806401,543.2938901806401
0.012000000000000004,-2.655608500146424e-22,-2.0,0.0100149991519472,4.8615064057534586e-18,-3.916615674681725e-18,3.8587265221755047e-20,-1.703326763985179e-23,-2.0,0.010429397942859043,2.7481820401551646e-22,-2.6027334028380424e-20,7.053444588642634e-23,0.0009999443586481901,0.0,0.0,0.0,0.42940120836575063,-8.575359494417218e-19,3.597114927855855e-18,-3.788330908000443e-20,547.2178989583703,547.2178989583704,547.2178989583703,547.2178989583703
0.016,-1.273598359327155e-23,-2.0,0.010018998956195298,6.021820325879363e-18,-3.456045094136689e-18,3.0630340628506874e-20,-1.7030858349265608e-23,-2.0,0.010710815098006973,2.747793320312416e-22,-7.101080410677719e-21,8.836852392026479e-23,0.0009999476344739813,0.0,0.0,0.0,0.5762362078851276,-1.6873774946525053e-18,-5.481643450156607e-18,8.354405424605478e-21,551.1275380135145,551.1275380135146,551.1275380135145,551.1275380135146
0.020000000000000004,-2.223527266980242e-22,-2.0,0.010022998783281,7.057631151319862e-18,-4.952252790727098e-18,-2.399971751236324e-20,-1.7027864859265888e-23,-2.0,0.0110604696579496,2.747310344548249e-22,-9.088657379195533e-21,1.0586169650312779e-22,0.000999952580483382,0.0,0.0,0.0,0.7235714978250053,-1.6213362158099888e-18,7.162731743517398e-18,6.320202043664045e-20,555.0228177093646,555.0228177093646,555.0228177093646,555.0228177093646
0.024000000000000007,-3.0987530589412265e-22,-2.0,0.010026998633946753,8.839466224095086e-18,-5.839224778791654e-18,7.564226562739823e-20,-1.702429428801123e-23,-2.0,0.011477530186265229,2.7467342613208483e-22,-1.9230557091150587e-20,1.2507731598862622e-22,0.0009999582602232202,0.0,0.0,0.0,0.8713960575785423,-2.563324099232478e-18,1.2744174274535848e-19,-1.1476956961383658e-19,558.9037499521128,558.9037499521129,558.9037499521128,558.9037499521128
0.027999999999999997,-4.436316068197684e-22,-2.0,0.010030998507437883,8.723442776360169e-18,-6.569693896253371e-18,3.7622942359541327e-19,-1.7020153689017258e-23,-2.0,0.011961172797154362,2.746066208658769e-22,-3.8094304894168245e-20,1.4073154873725955e-22,0.00099996406520593,0.0,0.0,0.0,1.019698978984335,-4.689793300932847e-19,1.8665409349097586e-18,-3.535976808089964e-19,562.7703481432217,562.7703481432218,562.7703481432217,562.7703481432218
0.032,-5.050114974233951e-22,-2.0,0.010034998402215707,9.335689907680305e-18,-6.675788273148022e-18,4.78246846841469e-19,-1.701545005167841e-23,-2.0,0.012510581094492131,2.745307314245123e-22,-2.9439504213088454e-20,1.54225345294213e-22,0.0009999696533584401,0.0,0.0,0.0,1.1684694661940023,-1.3114705200122106e-18,-1.551000041874516e-19,-1.3398067202123104e-19,566.6226271281912,566.6226271281913,566.6226271281912,566.6226271281912
0.036000000000000004,-3.7403591618479625e-22,-2.0,0.010038998316335014,9.847408138228985e-18,-6.307446152696757e-18,2.740956276325558e-19,-1.701019030178577e-23,-2.0,0.013124946111342446,2.7444586955011277e-22,9.71793476383121e-21,1.6170898900666911e-22,0.0009999748418971013,0.0,0.0,0.0,1.3176968353547582,-1.2359465769768508e-18,-2.1593252283626013e-18,2.194827740012945e-19,570.4606031432115,570.4606031432116,570.4606031432115,570.4606031432115
0.04000000000000001,-3.712337350139925e-22,-2.0,0.010042998247844288,1.0240013730451873e-17,-6.224767744341367e-18,3.0414574474001626e-19,-1.7004381302040974e-23,-2.0,0.013803466249930549,2.743521459669022e-22,1.369239548331917e-20,1.7106060573976713e-22,0.0009999795572708525,0.0,0.0,0.0,1.4673705135830302,-1.1318473968511218e-18,1.7234566828816361e-18,-4.571910780339681e-20,574.2842937464322,574.2842937464324,574.2842937464322,574.2842937464322
0.044,-3.3778608328082716e-22,-2.0,0.010046998194913717,1.0893320568320549e-17,-6.549123057306881e-18,2.5651779286213492e-20,-1.6998029852566243e-23,-2.0,0.014545347222070593,2.742496703894354e-22,-1.562671579521586e-21,1.7928087600366496e-22,0.0009999837917952156,0.0,0.0,0.0,1.6174800385435748,-1.4631239888770978e-18,4.486289543929348e-19,3.1347440986424225e-19,578.0937177677749,578.093717767775,578.0937177677749,578.093717767775
0.048,-2.756486425571841e-22,-2.0,0.01005099815572426,1.0986825527802728e-17,-6.589124234190245e-18,-1.4049239822199093e-19,-1.699114269141052e-23,-2.0,0.015349801990044966,2.7413855153076414e-22,4.061260700231408e-21,1.860004853686229e-22,0.0009999875704089223,0.0,0.0,0.0,1.7680150579772955,-8.54099871228558e-19,1.3583358636268692e-19,1.9366713049508796e-19,581.8888952599023,581.8888952599023,581.8888952599023,581.8888952599023
0.052000000000000005,-3.4550362646947428e-22,-2.0,0.010054998128727139,1.0983794305860544e-17,-6.7617337272309075e-18,2.0911027681422146e-20,-1.698372649505177e-23,-2.0,0.016216050707932004,2.7401889711054185e-22,7.047565195165401e-21,1.9086798800875635e-22,0.0009999909188927389,0.0,0.0,0.0,1.9189653280073768,-7.477655356910848e-19,2.141458596409939e-18,-1.8213868349208099e-19,585.669847421042,585.6698474210422,585.669847421042,585.6698474210422
0.05600000000000001,-2.0834605223298017e-22,-2.0,0.010058998112548788,1.0940038284967382e-17,-6.755885843538254e-18,3.041660019556107e-19,-1.6975787878895505e-23,-2.0,0.01714332066337891,2.7389081386306625e-22,5.220860677589369e-21,1.9166016656704235e-22,0.0009999938828124735,0.0,0.0,0.0,2.0703207129124497,-7.000025864728527e-19,-1.8954231498748663e-18,-3.3110915007627506e-19,589.4365965576015,589.4365965576017,589.4365965576015,589.4365965576017
0.06,-2.7130553214677605e-22,-2.0,0.010062998106017674,1.0959916208379728e-17,-6.745461027147876e-18,3.9597756182672294e-19,-1.6967333397769475e-23,-2.0,0.01813084621981657,2.7375440754526127e-22,6.668462519299308e-21,1.9149800154155307e-22,0.0009999965244731485,0.0,0.0,0.0,2.222071183951484,-7.713178642446543e-19,2.6701589650784846e-18,-1.1910518829867853e-19,593.1891660252268,593.1891660252269,593.1891660252268,593.1891660252268
0.064,-1.337803164411824e-22,-2.0,0.010067626631376534,8.241406012253447e-18,-1.2000241995303077e-17,-1.5786731891357634e-18,-1.6958369546414636e-23,-2.0,0.019177868759113068,2.7360978294459834e-22,9.924523276750714e-21,1.875639434830867e-22,0.0010628511994533948,0.0,0.0,0.0,2.372931220332443,2.4250273572639356e-18,4.316112212330527e-18,2.2910786110442932e-18,596.8963323660512,596.8963323660513,596.8963323660512,596.8963323660512
0.068,7.262602598941169e-23,-2.0,0.010077097813149319,6.6313053698915446e-18,-2.6855185259559487e-17,-4.311267174441905e-18,-1.6948902759972386e-23,-2.0,0.02028363662466268,2.7345704388695737e-22,3.1547550672874086e-20,2.291289841682351e-22,0.0016099705024436722,0.0,0.0,0.0,2.51559392756186,1.3165997887359818e-18,1.7251908235393486e-17,3.2575607930215577e-18,600.3810029415101,600.3810029415104,600.3810029415101,600.3810029415102
0.07200000000000001,4.2075932410185866e-22,-2.0,0.010096528409890516,6.4991393957420115e-18,-6.164736606163435e-17,-7.350029802203016e-18,-1.6938939414468084e-23,-2.0,0.02144740506490721,2.7329629324442815e-22,6.382959895783501e-20,3.595498776028923e-22,0.003148220653678528,0.0,0.0,0.0,2.6480833231497787,-2.9912990178758546e-19,4.064107373753898e-17,3.727422388655252e-18,603.5991642883514,603.5991642883515,603.5991642883514,603.5991642883515
0.076,5.020052749278071e-22,-2.0,0.010130499449960122,1.5234992219157898e-17,-8.608845456562113e-17,-9.142738899187603e-18,-1.6928485827290913e-23,-2.0,0.022668436177286463,2.731276329430525e-22,6.401054609871958e-20,9.795821823679947e-22,0.005907817834458623,0.0,0.0,0.0,2.771313916718747,-1.06455649206401e-17,3.557355809053801e-17,2.39661529097202e-18,606.5771042422299,606.57710424223,606.5771042422299,606.5771042422299
0.08,5.677432322820196e-22,-2.0,0.010183205248736404,2.5448750776938067e-17,-1.334274421975778e-16,-9.799368813234967e-18,-1.6917548257670085e-23,-2.0,0.023945998852614787,2.7295116397050736e-22,4.55061371483673e-20,2.8439036674617095e-21,0.009793371914706799,0.0,0.0,0.0,2.8859149474392494,-1.2968741664093302e-17,6.127458644130506e-17,1.1431086422140415e-18,609.3334451179437,609.3334451179438,609.3334451179437,609.3334451179438
0.084,6.603319667889428e-23,-2.0,0.01025847679574538,3.3445285396256307e-17,-1.6230105541097457e-16,-1.1627709511813968e-17,-1.690613290714743e-23,-2.0,0.025279368719880478,2.7276698638372987e-22,-1.1613680499966172e-20,6.5450498444446225e-21,0.014704981738821593,0.0,0.0,0.0,2.9924806025630057,-1.10780584796374e-17,4.939302118750495e-17,2.538814527145815e-18,611.8853812251551,611.8853812251551,611.8853812251551,611.8853812251551
0.08800000000000001,-1.131694819094554e-21,-2.0,0.01035974893928801,4.2180531811821016e-17,-1.7198505520776386e-16,-1.1478183286442028e-17,-1.6894245920046392e-23,-2.0,0.026667828091465066,2.7257519931648386e-22,-1.140507636010557e-19,1.2130988446511401e-20,0.020548996742539988,0.0,0.0,0.0,3.091683336349613,-1.2487498181784109e-17,3.09326473566684e-17,3.03429810163972e-19,614.2514683055348,614.2514683055348,614.2514683055348,614.2514683055348
0.09200000000000001,-3.0105928632735352e-21,-2.0,0.010490155847464995,5.793600024206063e-17,-1.6908065789170867e-16,-1.0175949797388807e-17,-1.6881893383937445e-23,-2.0,0.028110665908779347,2.723759009868694e-22,-2.6367710986054675e-19,2.0872018282867142e-20,0.027235763337057906,0.0,0.0,0.0,3.1840145778292843,-2.1282575729167723e-17,1.7310774990445188e-17,-1.0492555331814603e-18,616.4455034075755,616.4455034075756,616.4455034075755,616.4455034075755
0.09600000000000002,-5.62588315960155e-21,-2.0,0.010652561408292675,7.960313506202047e-17,-1.483983899872125e-16,-5.1379311561123034e-18,-1.6869081330099983e-23,-2.0,0.02960717768831314,2.721691887047748e-22,-4.210875759651639e-19,3.582200432413667e-20,0.034690116206494495,0.0,0.0,0.0,3.2699137301694243,-2.926321639432806e-17,-2.4207800913526666e-18,-5.466718192828408e-18,618.4797062190539,618.479706219054,618.4797062190539,618.4797062190539
0.10000000000000002,-8.750204578307036e-21,-2.0,0.010849586243702075,1.0311727435216944e-16,-1.2770535632247253e-16,-8.565987419803569e-20,-1.6855815733980685e-23,-2.0,0.03115666546809575,2.71955158879272e-22,-5.646534345957021e-19,5.946499175664375e-20,0.04284606783040608,0.0,0.0,0.0,3.349774073966564,-3.290167342665602e-17,-5.860535965999936e-18,-5.690245764537311e-18,620.364918945681,620.3649189456811,620.364918945681,620.3649189456811
0.104,-1.2319627267124706e-20,-2.0,0.011083631562635926,1.2663071515792258e-16,-1.0701057013222718e-16,5.817900909155133e-18,-1.6842102515648395e-23,-2.0,0.0327584377545641,2.7173390702595555e-22,-6.911321249836434e-19,9.222341399565357e-20,0.05164419507629314,0.0,0.0,0.0,3.4239483213039605,-3.450881040702022e-17,-7.56929824170226e-18,-6.892150020284656e-18,622.1107864073514,622.1107864073515,622.1107864073514,622.1107864073515
0.108,-1.6267672823573438e-20,-2.0,0.011356920274799778,1.5014326425782888e-16,-8.631420547330443e-17,9.767349169620301e-18,-1.6827947540245532e-23,-2.0,0.03441180946983568,2.7150552777422596e-22,-7.989906417591733e-19,1.3380591124948155e-19,0.061032880534592215,0.0,0.0,0.0,3.4927128246025,-3.611567399241618e-17,-9.35607708362238e-18,-4.851857790832027e-18,623.7249574490907,623.7249574490908,623.7249574490907,623.7249574490908
0.112,-2.057832559992933e-20,-2.0,0.011671493661450252,1.8252287123635984e-16,-6.044334717543083e-17,1.4469989784216538e-17,-1.6813356618436053e-23,-2.0,0.036116101899383087,2.712701148745173e-22,-9.030414608794903e-19,1.8728110661924764e-19,0.07096544052371967,0.0,0.0,0.0,3.5563564635724827,-4.807786862015877e-17,-1.6646659008420344e-17,-5.893883625485128e-18,625.2152083708584,625.2152083708585,625.2152083708584,625.2152083708584
0.116,-2.5100974387992578e-20,-2.0,0.01202916857820318,2.1637938408593789e-16,-3.604919707146285e-17,2.1440037884474627e-17,-1.6798335506850022e-23,-2.0,0.037870642640107546,2.710277612054696e-22,-9.964804325739786e-19,2.5697899124256505e-19,0.08139325985305064,0.0,0.0,0.0,3.6152608521498126,-5.2016693785975443e-17,-1.810216414290854e-17,-8.735680688509778e-18,626.5913288740355,626.5913288740356,626.5913288740355,626.5913288740355
0.12000000000000001,-2.979520892686403e-20,-2.0,0.012431644686549583,2.517125836372759e-16,-8.697918852631108e-18,3.1806446333012904e-17,-1.6782889908524778e-23,-2.0,0.03967476554880827,2.707785587810471e-22,-1.0811215273992588e-18,3.455129086475128e-19,0.09227140274807345,0.0,0.0,0.0,3.669597217153846,-5.605625734758809e-17,-2.3472567163920817e-17,-1.29893802741807e-17,627.8580571549637,627.8580571549637,627.8580571549636,627.8580571549637
0.12400000000000001,-3.4737140943333444e-20,-2.0,0.012880459639934606,2.907392619679792e-16,3.823820792861538e-17,4.205812955349929e-17,-1.676702547334273e-23,-2.0,0.04152781069104483,2.7052259875760155e-22,-1.1814054568327969e-18,4.5211606451517e-19,0.10356260800530954,0.0,0.0,0.0,3.7196315582673902,-6.278542017382988e-17,-4.713565110892822e-17,-1.3281042194546664e-17,629.0222375890279,629.022237589028,629.0222375890278,629.0222375890279
0.128,-3.9627119209258554e-20,-2.0,0.013377039553393092,3.3198125023145183e-16,8.997924047770523e-17,5.29269009391082e-17,-1.6750747798465828e-23,-2.0,0.04342912429038967,2.702599714408821e-22,-1.292410029076626e-18,5.801061603275713e-19,0.11523314634978576,0.0,0.0,0.0,3.7655326969298297,-6.804104619091208e-17,-5.919193528610732e-17,-1.4422866902489165e-17,630.0883564078919,630.088356407892,630.0883564078919,630.0883564078919
0.132,-4.4230092663841136e-20,-2.0,0.013922727456093568,3.732212521986527e-16,1.417212925226532e-16,6.418331003373584e-17,-1.6734062428766703e-23,-2.0,0.04537805867806792,2.699907662929914e-22,-1.389856347781724e-18,7.30416081588039e-19,0.12725582980610012,0.0,0.0,0.0,3.807415351130338,-7.085895171716064e-17,-6.54629924549593e-17,-1.532199683026242e-17,631.059568754514,631.0595687545141,631.059568754514,631.059568754514
0.136,-4.839064352201088e-20,-2.0,0.014518760023729347,4.1778452827176237e-16,1.9678954095858497e-16,7.501407437764406e-17,-1.6716974857256532e-23,-2.0,0.04737397224298161,2.697150719392888e-22,-1.4555835058202956e-18,9.032312592433868e-19,0.1396067466101297,0.0,0.0,0.0,3.845444194814155,-7.755973571380531e-17,-7.488651097226534e-17,-1.528700190211144e-17,631.9401225721244,631.9401225721244,631.9401225721243,631.9401225721243
0.14,-5.188678207839574e-20,-2.0,0.015166267612746516,4.634538805441328e-16,2.5296670535214524e-16,8.286699680367265e-17,-1.669949052550962e-23,-2.0,0.049416229382115595,2.6943297617524084e-22,-1.5026249571828514e-18,1.1011329052260127e-18,0.1522602343846593,0.0,0.0,0.0,3.879787307789285,-8.189867925225206e-17,-8.285704557084026e-17,-1.2253158770389133e-17,632.7342806510065,632.7342806510067,632.7342806510064,632.7342806510065
0.14400000000000002,-5.451378413802521e-20,-2.0,0.01586627297295785,5.105985043292671e-16,3.1062189939333373e-16,8.65095723187331e-17,-1.6681614824084755e-23,-2.0,0.051504200451322216,2.6914456597321917e-22,-1.5301314489164842e-18,1.3257844599973376e-18,0.16518955646595296,0.0,0.0,0.0,3.9106188565099886,-8.674438023313108e-17,-9.132364698403562e-17,-7.657275148421731e-18,633.4463883647671,633.4463883647672,633.4463883647671,633.4463883647671
0.14800000000000002,-5.608402859343827e-20,-2.0,0.016619741346604582,5.566315965645355e-16,3.723414023209463e-16,9.063005226685148e-17,-1.666335309294332e-23,-2.0,0.053637261716482115,2.688499274892467e-22,-1.5394980575672617e-18,1.5754363914178982e-18,0.1783727136805838,0.0,0.0,0.0,3.938014845126996,-8.867027004028249e-17,-1.02890265502401e-16,-8.365120064927556e-18,634.0784748700072,634.0784748700072,634.0784748700071,634.0784748700072
0.15200000000000002,-5.629315681135103e-20,-2.0,0.017427560183111295,6.074649283300617e-16,4.3073472051486677e-16,8.901479707488922e-17,-1.6644710621864237e-23,-2.0,0.0558147953050383,2.6854914606969233e-22,-1.5227892773249178e-18,1.8530954326881465e-18,0.19179137885926914,0.0,0.0,0.0,3.9620943639654858,-9.742351729363845e-17,-1.0763092813023576e-16,-1.8340757009779424e-18,634.6335231816394,634.6335231816395,634.6335231816394,634.6335231816394
0.15600000000000003,-5.49896622186855e-20,-2.0,0.018290520407262045,6.619898945788375e-16,4.928219858426894e-16,8.825558226457844e-17,-1.6625692650855717e-23,-2.0,0.05803618915790083,2.6824230625791405e-22,-1.4817685550746246e-18,2.164099853359363e-18,0.20542544452914552,0.0,0.0,0.0,3.9830170830353966,-1.0521046228466955e-16,-1.188263382687225e-16,-2.7677397694225457e-18,635.1154113852253,635.1154113852255,635.1154113852253,635.1154113852253
0.16000000000000003,-5.191917737614428e-20,-2.0,0.01920933161635829,7.179893040088959e-16,5.563859496357008e-16,8.857235653159773e-17,-1.6606304370563867e-23,-2.0,0.06030083698171933,2.679294918008518e-22,-1.420464060099102e-18,2.5150411020457156e-18,0.2192526042646803,0.0,0.0,0.0,4.00091498937097,-1.1066076388640422e-16,-1.2902445308704143e-16,-3.99349047629851e-18,635.5273426877819,635.527342687782,635.5273426877819,635.5273426877819
0.16400000000000003,-4.686352392578295e-20,-2.0,0.02018464854505613,7.784188579624037e-16,6.2364323675831e-16,9.068980694880267e-17,-1.658655092267818e-23,-2.0,0.06260813820152066,2.676107856555695e-22,-1.3448897064930288e-18,2.9041384951960974e-18,0.2332546403469856,0.0,0.0,0.0,4.015869034197042,-1.1966335962173434e-16,-1.4171875225346306e-16,-6.1099738614376e-18,635.8713145820522,635.8713145820523,635.8713145820522,635.8713145820522
0.16800000000000004,-3.97057584440584e-20,-2.0,0.02121706158978485,8.403225376594602e-16,7.078962885884954e-16,9.256997648663516e-17,-1.6566437400333906e-23,-2.0,0.06495749791370911,2.67286269995747e-22,-1.2843113189331115e-18,3.336440529992908e-18,0.24741593632905884,0.0,0.0,0.0,4.027981230407752,-1.2551706025483398e-16,-1.6922036991454538e-16,-5.919742739817997e-18,636.1497821434855,636.1497821434855,636.1497821434854,636.1497821434854
0.172,-2.996662891426991e-20,-2.0,0.02230709900089372,9.03699900394086e-16,7.921480647357024e-16,9.127303026891633e-17,-1.654596884851135e-23,-2.0,0.0673483268394264,2.669560262181225e-22,-1.2299582962032188e-18,3.811598520303221e-18,0.2617210516452275,0.0,0.0,0.0,4.037351274299793,-1.3147104814097932e-16,-1.823762718882611e-16,-2.285576098936548e-18,636.3651221768077,636.3651221768079,636.3651221768077,636.3651221768077
0.176,-1.736296280237508e-20,-2.0,0.02345522994064139,9.692897133564176e-16,8.800930352725542e-16,9.246581567264427e-17,-1.6525150264432117e-23,-2.0,0.06978004127826888,2.6662013494888564e-22,-1.1580587663455654e-18,4.3278205174689875e-18,0.2761546309593847,0.0,0.0,0.0,4.044074717957642,-1.3838849235030836e-16,-1.9798461833803896e-16,-5.140720703411367e-18,636.5195938058005,636.5195938058004,636.5195938058004,636.5195938058004
0.18,-1.6398638435978636e-21,-2.0,0.024661867279078042,1.0348746342972543e-15,9.791213597062495e-16,9.743001783018988e-17,-1.6503986597952316e-23,-2.0,0.07225206306235923,2.662786760500215e-22,-1.0787708196821846e-18,4.885402561530688e-18,0.29070206897525497,0.0,0.0,0.0,4.048243403223305,-1.428679667761563e-16,-2.2240945022854227e-16,-9.595312615350487e-18,636.6153508422882,636.6153508422881,636.6153508422881,636.6153508422881
0.184,1.764031535298486e-20,-2.0,0.025927371317403095,1.1004541865181429e-15,1.0825820799386915e-15,9.861259737054287e-17,-1.6482482751952746e-23,-2.0,0.07476381951077025,2.659317286256059e-22,-1.0048872291178665e-18,5.4814772371510386e-18,0.30534956166912186,0.0,0.0,0.0,4.0499434897385616,-1.473465500177438e-16,-2.4219818911088133e-16,-5.381626696989404e-18,636.6543986476477,636.6543986476476,636.6543986476476,636.6543986476476
0.188,4.0935923155067735e-20,-2.0,0.02725205144527746,1.177113288607451e-15,1.1838233825803569e-15,9.722564756004185e-17,-1.64606435827261e-23,-2.0,0.07731474338429796,2.6557937102805276e-22,-9.000329535770134e-19,6.125281135660355e-18,0.3200839798549227,0.0,0.0,0.0,4.049259528811674,-1.6476898468046632e-16,-2.551626518376326e-16,-2.428571795720241e-18,636.6386896332072,636.6386896332072,636.638689633207,636.638689633207
0.192,6.857289195916432e-20,-2.0,0.02863616581216459,1.2596794897035935e-15,1.2887568510932039e-15,8.940202993766759e-17,-1.6438473900361196e-23,-2.0,0.07990427284058149,2.6522168086431326e-22,-7.570637682422186e-19,6.8424930192880805e-18,0.33489254855891787,0.0,0.0,0.0,4.046278440633327,-1.769090268055193e-16,-2.737562919192048e-16,5.147425474291187e-18,636.5702163451667,636.5702163451667,636.5702163451667,636.5702163451667
0.196,1.0094110098675707e-19,-2.0,0.030079925549168437,1.34667453224576e-15,1.3981209851224525e-15,7.686165568999173e-17,-1.641597846912426e-23,-2.0,0.08253185138956737,2.648587350020275e-22,-5.890051573589186e-19,7.642030671247629e-18,0.34976284240881184,0.0,0.0,0.0,4.041080288940405,-1.8772680112909625e-16,-2.9452447526954577e-16,1.0978604795006402e-17,636.4508012020578,636.4508012020578,636.4508012020578,636.4508012020578
0.2,1.3845037721388802e-19,-2.0,0.03158349667433562,1.4380985253968395e-15,1.511915739486295e-15,5.742571271823509e-17,-1.6393162007837275e-23,-2.0,0.08519692784931536,2.6449060957562913e-22,-4.0501345115440337e-19,8.519158319349746e-18,0.36468315857713474,0.0,0.0,0.0,4.033742847360811,-1.988475576095767e-16,-3.1619965995325225e-16,1.954866638043041e-17,636.2822028293328,636.2822028293328,636.2822028293328,636.2822028293328
0.20400000000000001,1.815535968892811e-19,-2.0,0.03314700188863854,1.531734073111411e-15,1.6279235642796944e-15,3.6592655283105825e-17,-1.6370029190253454e-23,-2.0,0.08789895630214382,2.641173799924028e-22,-2.0250734969294652e-19,9.468494354059346e-18,0.3796423276379465,0.0,0.0,0.0,4.02434176002176,-2.0768185104087595e-16,-3.364824397913982e-16,2.1978818153974213e-17,636.0661210766863,636.0661210766863,636.0661210766863,636.0661210766863
0.20800000000000002,2.306497507591848e-19,-2.0,0.03477052227171704,1.6349710558223155e-15,1.7498390689877414e-15,1.250646800902381e-17,-1.6346584645429788e-23,-2.0,0.09063739605111147,2.6373912093849547e-22,2.7399985618946225e-20,1.0493988888080757e-17,0.3946296232248441,0.0,0.0,0.0,4.012950687217732,-2.252967786061689e-16,-3.61035863216446e-16,2.663445938634024e-17,635.8042015832154,635.8042015832154,635.8042015832154,635.8042015832154
0.21200000000000002,2.8632823261759e-19,-2.0,0.03645409572653006,1.7441150582288916e-15,1.86435978428902e-15,-1.587083113964036e-17,-1.6322832958096772e-23,-2.0,0.09341171157683367,2.6335590638488124e-22,2.9879601722728237e-19,1.1618593727995394e-17,0.4096344214765423,0.0,0.0,0.0,3.9996478489720153,-2.3925418664006167e-16,-3.7307080363566577e-16,3.263621174501693e-17,635.498187456449,635.4981874564489,635.498187456449,635.498187456449
0.21600000000000003,3.4902435066219867e-19,-2.0,0.03819772235161611,1.8562096074676255e-15,1.9722227297849757e-15,-5.0170557962575655e-17,-1.629877866902526e-23,-2.0,0.09622137249463043,2.629678095932805e-22,6.501703345088931e-19,1.284350570379512e-17,0.42464656383434585,0.0,0.0,0.0,3.9845020144131507,-2.501631615511926e-16,-3.842216469996362e-16,4.071980577289983e-17,635.1495981557978,635.1495981557978,635.1495981557979,635.1495981557978
0.22000000000000003,4.1910913979196283e-19,-2.0,0.040001375772289426,1.9742105590781305e-15,2.0771215843769595e-15,-8.618782053197629e-17,-1.6274426275390523e-23,-2.0,0.09906585351200382,2.6257490312203366e-22,1.106821999776199e-18,1.4158264082417638e-17,0.4396573796082867,0.0,0.0,0.0,3.9675602362323685,-2.6472555012642667e-16,-3.9891490331157183e-16,4.413461504201777e-17,634.7594474446272,634.7594474446272,634.7594474446273,634.7594474446273
0.22400000000000003,4.970425148738574e-19,-2.0,0.041864986059450195,2.1069863233462594e-15,2.172404118884237e-15,-1.164574707607648e-16,-1.624978023113349e-23,-2.0,0.1019446343864423,2.6217725883192933e-22,1.6495112601190788e-18,1.558723407032395e-17,0.4546583145450027,0.0,0.0,0.0,3.9489051522994885,-2.9004776250182435e-16,-4.0705735808950405e-16,3.889947842091887e-17,634.3295635724371,634.329563572437,634.3295635724371,634.3295635724371
0.22800000000000004,5.832477294426597e-19,-2.0,0.04378844842032068,2.2552771723815754e-15,2.2521559340422695e-15,-1.426108244486302e-16,-1.6224844947319216e-23,-2.0,0.1048571998835496,2.6177494789198833e-22,2.3152381604930576e-18,1.7177346474504076e-17,0.46963991792565307,0.0,0.0,0.0,3.9286032251469205,-3.172447513389829e-16,-4.0767139172216044e-16,3.533396114888228e-17,633.861398899279,633.8613988992789,633.861398899279,633.8613988992792
0.23200000000000004,6.780289279082992e-19,-2.0,0.045771627995406676,2.4227793600291066e-15,2.3163742913069558e-15,-1.6720482964294521e-16,-1.6199624792492613e-23,-2.0,0.10780303973549582,2.613680407852025e-22,3.1493028932031254e-18,1.8972023742252223e-17,0.48459359089905585,0.0,0.0,0.0,3.9067123668804777,-3.4981893383640406e-16,-4.0626925822231874e-16,3.4586335137657786e-17,633.3562055554302,633.3562055554302,633.3562055554302,633.3562055554303
0.23600000000000004,7.8159858209695e-19,-2.0,0.04781436557905601,2.6250143538419222e-15,2.3680129904976224e-15,-1.8673077620748408e-16,-1.6174124093031397e-23,-2.0,0.1107816485997882,2.6095660731422985e-22,4.13905417330378e-18,2.1030666652738757e-17,0.4995121981496743,0.0,0.0,0.0,3.883279911268855,-4.0183175374107004e-16,-4.0652764697837904e-16,2.9675948982314746e-17,632.814988589309,632.8149885893089,632.814988589309,632.814988589309
0.24000000000000005,8.942161314498853e-19,-2.0,0.049916453148705596,2.8605076208444725e-15,2.4004183944266645e-15,-2.0347507514875898e-16,-1.6148347133496368e-23,-2.0,0.11379252601835949,2.6054071660704558e-22,5.290226050389393e-18,2.3429713114577368e-17,0.5143870791926637,0.0,0.0,0.0,3.8584037045895863,-4.544978253969096e-16,-3.9897175421804186e-16,2.722834163021413e-17,632.2399184607077,632.2399184607076,632.2399184607077,632.2399184607077
0.24400000000000005,1.0162282923293946e-18,-2.0,0.052077650255128526,3.110787195565062e-15,2.3914164723485533e-15,-2.1533017757117957e-16,-1.6122298156978953e-23,-2.0,0.11683517637697124,2.6012043712254963e-22,6.687838729898329e-18,2.621247860679481e-17,0.5292086362713431,0.0,0.0,0.0,3.832149957199679,-4.878678641601359e-16,-3.6553459161727244e-16,2.2204560493126635e-17,631.6324354783029,631.6324354783028,631.6324354783028,631.6324354783029
0.24800000000000005,1.1478533764031163e-18,-2.0,0.05429770038227538,3.3352051815935867e-15,2.3180897309471697e-15,-2.2713706708852445e-16,-1.6095981365446094e-23,-2.0,0.1199091088649301,2.596958366561312e-22,8.522025894102114e-18,2.92166247536043e-17,0.5439694627384729,0.0,0.0,0.0,3.804552782238529,-4.747831602371125e-16,-3.0139459546953747e-16,2.2635047572823264e-17,630.9932365472245,630.9932365472242,630.9932365472243,630.9932365472245
0.25200000000000006,1.2888063461781175e-18,-2.0,0.056576323615096215,3.5344953545154207e-15,2.1841241471670164e-15,-2.3446615219709673e-16,-1.6069400920082475e-23,-2.0,0.1230138374351143,2.5926698234519023e-22,1.0921275064792824e-17,3.222530631408691e-17,0.5586645210376544,0.0,0.0,0.0,3.775661756872286,-4.607868330550316e-16,-2.3157735256335834e-16,1.7889091542875683e-17,630.323375277331,630.3233752773308,630.3233752773309,630.323375277331
0.256,1.4386227310089318e-18,-2.0,0.058913223852725786,3.71012992141807e-15,1.9880328912901082e-15,-2.362146098754473e-16,-1.6042560941630098e-23,-2.0,0.1261488807643086,2.588339406746161e-22,1.389739034710857e-17,3.509860437500764e-17,0.5732888032667847,0.0,0.0,0.0,3.745512635443345,-4.467913503165855e-16,-1.536494775554008e-16,1.1670990770650496e-17,629.6235841584365,629.6235841584365,629.6235841584365,629.6235841584366
0.26,1.5967906055990266e-18,-2.0,0.06130806379794415,3.859881768764215e-15,1.7098186870861485e-15,-2.3370758728081006e-16,-1.6015465510725248e-23,-2.0,0.1293137622138451,2.5839677748222453e-22,1.7512669169894858e-17,3.781676532805701e-17,0.587835611124142,0.0,0.0,0.0,3.714192517542412,-4.285775684964451e-16,-4.7279102322653976e-17,6.771712897409659e-18,628.8957884145585,628.8957884145586,628.8957884145584,628.8957884145586
0.264,1.762136199625527e-18,-2.0,0.06376048119456144,3.9778690267092015e-15,1.3658039336019575e-15,-2.29972810573297e-16,-1.5988118668232872e-23,-2.0,0.13250800979054744,2.579555579641523e-22,2.1788504777201777e-17,4.033638807440378e-17,0.6022971637206525,0.0,0.0,0.0,3.6817569315123833,-4.0172541494696598e-16,5.369301799798143e-17,5.23455423373307e-18,628.1411833319205,628.1411833319205,628.1411833319204,628.1411833319205
0.268,1.9330416854677217e-18,-2.0,0.06627009569247463,4.098781449022752e-15,9.89919022626092e-16,-2.2185357572410644e-16,-1.5960524415578347e-23,-2.0,0.1357311561079769,2.5751034668021026e-22,2.6585549284744083e-17,4.267207818903666e-17,0.6166672215241823,0.0,0.0,0.0,3.6482483376049224,-4.1320947272411317e-16,1.2561126912786275e-16,-4.0549444670891164e-20,627.3606618196109,627.360661819611,627.3606618196108,627.360661819611
0.272,2.108019731839614e-18,-2.0,0.06883651693193074,4.24847666717543e-15,5.880688750029646e-16,-2.1461176021752406e-16,-1.5932686715076717e-23,-2.0,0.1389827383479773,2.57061207559195e-22,3.163344403373405e-17,4.505220394719723e-17,0.6309418062310306,0.0,0.0,0.0,3.6136934341953335,-4.550883541416436e-16,1.9257022849680575e-16,6.510118730158716e-19,626.5547500999705,626.5547500999706,626.5547500999704,626.5547500999706
0.276,2.2854138256416073e-18,-2.0,0.07145931966985852,4.419583352047771e-15,1.7433995623875091e-16,-2.0905589563307536e-16,-1.590460949025936e-23,-2.0,0.1422622982225172,2.5660820390415986e-22,3.673639094161078e-17,4.76959775264697e-17,0.6451157650297856,0.0,0.0,0.0,3.578169788166649,-4.90327731597921e-16,2.480107514036295e-16,2.3230955852687736e-18,625.7251626985864,625.7251626985865,625.7251626985864,625.7251626985866
0.28,2.46294562251161e-18,-2.0,0.07413807525327894,4.620218622611645e-15,-1.810588682232686e-16,-2.0417888065651285e-16,-1.5876296626198167e-23,-2.0,0.1455693819358266,2.561513983976446e-22,4.161123215389612e-17,5.0690984450433615e-17,0.6591843446534658,0.0,0.0,0.0,3.541692270063102,-5.365098987280136e-16,2.308648412701163e-16,2.8879562749976614e-18,624.8721532971437,624.8721532971438,624.8721532971435,624.8721532971439
0.28400000000000003,2.6383477035993774e-18,-2.0,0.07687232916330991,4.84741904847587e-15,-3.946403388804275e-16,-2.0120538985765645e-16,-1.5847751969827163e-23,-2.0,0.1489035401468266,2.5569085310686515e-22,4.548740970635392e-17,5.408865975152634e-17,0.6731432619715552,0.0,0.0,0.0,3.504321500798001,-5.812508069210762e-16,1.1399032812212216e-16,4.911306264499687e-18,623.9970463910122,623.9970463910122,623.9970463910121,623.9970463910122
0.28800000000000003,2.8107383284190847e-18,-2.0,0.07966158725806147,5.087933888439773e-15,-4.707878817207289e-16,-1.9532532034410925e-16,-1.5818979330261696e-23,-2.0,0.15226432793184932,2.5522662948886325e-22,4.772648175770154e-17,5.78520872510938e-17,0.6869856763387667,0.0,0.0,0.0,3.466146912488492,-6.123349836733839e-16,-2.1718800950068543e-17,1.3938602783718328e-18,623.101847580493,623.1018475804929,623.1018475804927,623.101847580493
0.29200000000000004,2.9800241313209417e-18,-2.0,0.08250533776004491,5.346917991672226e-15,-4.4051870020063257e-16,-1.8536221045112699e-16,-1.5789982479115126e-23,-2.0,0.1556513047476462,2.5475878839561575e-22,4.8289395391044516e-17,6.193667839355053e-17,0.7007042429983568,0.0,0.0,0.0,3.4272146425066845,-6.503491160183054e-16,-1.3904096205038733e-16,-3.6172324457480586e-18,622.1875544374196,622.1875544374195,622.1875544374194,622.1875544374196
0.29600000000000004,3.1462800412772413e-18,-2.0,0.08540305356946706,5.62622068475067e-15,-3.0787701112661883e-16,-1.753366350124313e-16,-1.5760765150813067e-23,-2.0,0.15906403439468264,2.54287390079105e-22,4.740414898719792e-17,6.633809373314806e-17,0.7142939244872888,0.0,0.0,0.0,3.387566760983553,-6.917857389529744e-16,-2.6077896154855334e-16,-4.099320772729922e-18,621.2550728530189,621.2550728530188,621.2550728530186,621.2550728530189
0.30000000000000004,3.3099932435847084e-18,-2.0,0.0883541928561435,5.919932032697291e-15,-7.986358116621082e-17,-1.6439255364637075e-16,-1.5731331042905204e-23,-2.0,0.16250208498071642,2.538124941963495e-22,4.526770499883876e-17,7.108609460045598e-17,0.7277509289807387,0.0,0.0,0.0,3.34724469012036,-7.277105727254865e-16,-3.861867414585615e-16,-5.5839646717099305e-18,620.305297237792,620.3052972377919,620.3052972377919,620.3052972377919
0.30400000000000005,3.472284126951141e-18,-2.0,0.09135820539366271,6.237290804411704e-15,2.0991215236519412e-16,-1.5131716898365686e-16,-1.570168381637469e-23,-2.0,0.16596502888465847,2.53334159814396e-22,4.208006984201283e-17,7.619027513929786e-17,0.7410721849394647,0.0,0.0,0.0,3.3062775308148846,-7.754091142438754e-16,-4.866348476180412e-16,-8.523064490851408e-18,619.3388350883313,619.338835088331,619.3388350883309,619.3388350883312
0.30800000000000005,3.634292763325174e-18,-2.0,0.09441454211727256,6.58532113079421e-15,5.51114127094876e-16,-1.3600763299676928e-16,-1.5671827095945153e-23,-2.0,0.1694524427207134,2.5285244541527264e-22,3.812149493638611e-17,8.171105749590673e-17,0.7542562399194583,0.0,0.0,0.0,3.264675317607197,-8.329270279029732e-16,-5.803886044800194e-16,-1.16698252454703e-17,618.3558454513621,618.3558454513618,618.3558454513618,618.3558454513619
0.31200000000000006,3.797692551408157e-18,-2.0,0.09752262346380204,6.944072457532178e-15,8.997767670780164e-16,-1.2316407423026547e-16,-1.5641764470385317e-23,-2.0,0.17296390730279768,2.523674089009038e-22,3.3770184441379023e-17,8.7678587536857e-17,0.7673000344037673,0.0,0.0,0.0,3.2225123659568835,-8.692454266304219e-16,-6.33483987281482e-16,-9.41783407630463e-18,617.3580095655708,617.3580095655705,617.3580095655705,617.3580095655706
0.31600000000000006,3.963838035293084e-18,-2.0,0.10068187752374705,7.306523070843184e-15,1.2496159000082502e-15,-1.1198983830515133e-16,-1.5611499492811263e-23,-2.0,0.17649900760923407,2.5187910759798695e-22,2.9359986016167287e-17,9.399692353576814e-17,0.7802008082128025,0.0,0.0,0.0,3.1797865961510356,-8.980974701318794e-16,-6.774445953987532e-16,-7.995200240526132e-18,616.3452059851157,616.3452059851154,616.3452059851154,616.3452059851155
0.32,4.133963847288697e-18,-2.0,0.10389171853715877,7.67414937077864e-15,1.605433519921298e-15,-1.0041371203038065e-16,-1.5581035680986357e-23,-2.0,0.18005733274771923,2.513875982628316e-22,2.5077599438115645e-17,1.0055035338525537e-16,0.7929568853423482,0.0,0.0,0.0,3.1365393897204368,-9.289265197944528e-16,-7.268539195814393e-16,-8.923523168709836e-18,615.3183441840112,615.3183441840108,615.3183441840108,615.3183441840109
0.324,4.3094259151779176e-18,-2.0,0.10715153996540568,8.041776181714176e-15,1.961315499320963e-15,-8.685021707123388e-17,-1.5550376517618836e-23,-2.0,0.1836384759205637,2.5089293708616065e-22,2.091899323778683e-17,1.0729310942117993e-16,0.8055650327447512,0.0,0.0,0.0,3.0928266924906223,-9.540662749522207e-16,-7.722505827305765e-16,-1.1720438418102912e-17,614.2786853984923,614.2786853984919,614.2786853984919,614.278685398492
0.328,4.4915144209839194e-18,-2.0,0.11046069979649603,8.409400757850922e-15,2.3172590858250237e-15,-7.244968525128592e-17,-1.551952545065709e-23,-2.0,0.1872420343902009,2.5039517969787463e-22,1.6913315217958886e-17,1.1419827485531256e-16,0.8180188467051097,0.0,0.0,0.0,3.0487349970974043,-9.792028586950997e-16,-8.180677189310356e-16,-1.3255191952917134e-17,613.2282269449182,613.228226944918,613.228226944918,613.2282269449181
0.332,4.681510445570192e-18,-2.0,0.11381855286550627,8.785888939959164e-15,2.6732615151529945e-15,-5.711877030344161e-17,-1.5488485893582662e-23,-2.0,0.19086760944496442,2.498943811717789e-22,1.3080804649427152e-17,1.2126701640849758e-16,0.8303131329512533,0.0,0.0,0.0,3.0042863931053922,-1.0146922191057989e-15,-8.649238185458716e-16,-1.4933360119185773e-17,612.1674408621138,612.1674408621134,612.1674408621136,612.1674408621136
0.336,4.880685777013616e-18,-2.0,0.11722445053523249,9.165327934163031e-15,3.029320011249494e-15,-3.992708909980456e-17,-1.545726122570096e-23,-2.0,0.19451480636513074,2.4939059603027417e-22,9.421773370598328e-18,1.285394848322157e-16,0.8424457392922566,0.0,0.0,0.0,2.959503779121256,-1.0438831329564343e-15,-9.12821985160219e-16,-1.7736567428853918e-17,611.0968212853061,611.0968212853056,611.0968212853057,611.0968212853057
0.34,5.090369489516315e-18,-2.0,0.12067770692929031,9.53810781538729e-15,3.378780590621116e-15,-2.4053428733082613e-17,-1.542585479242971e-23,-2.0,0.19818323438922594,2.488838782490104e-22,5.957232658448127e-18,1.3599612416994017e-16,0.8544128593286308,0.0,0.0,0.0,2.9144787548115585,-1.0620540095006797e-15,-9.547763902105337e-16,-1.690285780687815e-17,610.0185121123278,610.0185121123274,610.0185121123275,610.0185121123276
0.34400000000000003,5.312109773000871e-18,-2.0,0.12417765094418544,9.873552512417869e-15,3.690967272241208e-15,-1.0287317261951038e-17,-1.539426990558519e-23,-2.0,0.20187250668059398,2.4837428126150484e-22,2.8767182724048267e-18,1.4342344331241722e-16,0.8662110753651003,0.0,0.0,0.0,2.8691986071338285,-1.0439480779525832e-15,-9.64227713248122e-16,-1.5092732390836892e-17,608.9321672138312,608.9321672138308,608.9321672138309,608.932167213831
0.34800000000000003,5.547051849710499e-18,-2.0,0.12772360520454842,1.0166106756534944e-14,3.963281087443269e-15,5.934565566189395e-18,-1.53625098436662e-23,-2.0,0.2055822402942251,2.4786185796372393e-22,4.303077338921878e-19,1.5053705034699217e-16,0.8778404506115376,0.0,0.0,0.0,2.823692921736667,-1.0168020106906958e-15,-9.648131417980095e-16,-1.852674389052888e-17,607.8384552248505,607.83845522485,607.83845522485,607.8384552248501
0.35200000000000004,5.7960629593232956e-18,-2.0,0.1313148864934584,1.0427951652505699e-14,4.204947830841384e-15,1.9178606476450204e-17,-1.5330577852135868e-23,-2.0,0.20931205614384205,2.4734666071862966e-22,-1.2706150564331337e-18,1.5715163141885945e-16,0.8893001299074417,0.0,0.0,0.0,2.7779906692955985,-1.0009472631773356e-15,-9.712975558926189e-16,-1.5714277746363227e-17,606.7380344954665,606.7380344954661,606.7380344954662,606.7380344954662
0.35600000000000004,6.059723831040386e-18,-2.0,0.13495080615249155,1.0684206924581493e-14,4.440717697157824e-15,2.9126759625844945e-17,-1.5298477143701222e-23,-2.0,0.2130615789692424,2.468287413606907e-22,-2.4442895072467034e-18,1.6340759781949366e-16,0.9005886774337529,0.0,0.0,0.0,2.7321202527485213,-1.0123256533878044e-15,-1.0021196901041685e-15,-1.2408003996373848e-17,605.6315542149491,605.6315542149487,605.6315542149488,605.6315542149489
0.36000000000000004,6.3393205485029154e-18,-2.0,0.13863067049222771,1.0888677935272167e-14,4.621439693347182e-15,3.287244629968283e-17,-1.526621089859062e-23,-2.0,0.2168304373038951,2.46308151200358e-22,-3.0862958349549327e-18,1.6936159584448424e-16,0.9117047587817921,0.0,0.0,0.0,2.6861094728297443,-9.693788371204563e-16,-9.840023592865625e-16,-5.571046936245222e-18,604.5196535633128,604.5196535633123,604.5196535633125,604.5196535633125
0.36400000000000005,6.635627096444745e-18,-2.0,0.14235378120962966,1.1023989038711668e-14,4.733082646520802e-15,3.3912499433658155e-17,-1.5233782264828995e-23,-2.0,0.22061826344278898,2.457849410285061e-22,-2.867903194457866e-18,1.747066518126885e-16,0.9226471424904513,0.0,0.0,0.0,2.639985500549505,-9.026007856347415e-16,-9.410063034298638e-16,-2.5642504687544377e-18,603.4029610134953,603.4029610134949,603.4029610134951,603.4029610134951
0.36800000000000005,6.948378247334713e-18,-2.0,0.14611943580933648,1.1154399962976946e-14,4.838774674841412e-15,3.182910470032014e-17,-1.5201194358510977e-23,-2.0,0.22442469341053223,2.4525916112083936e-22,-1.766574491982374e-18,1.793023073146548e-16,0.9334147015975987,0.0,0.0,0.0,2.593774855461997,-9.061315818934272e-16,-9.557150637984136e-16,1.0417212190895952e-18,602.2820937582484,602.2820937582479,602.2820937582482,602.2820937582482
0.37200000000000005,7.277733248922677e-18,-2.0,0.149926934602301,1.1292106436292238e-14,4.952159235742894e-15,2.5902325907025828e-17,-1.5168450264071867e-23,-2.0,0.22824936692969977,2.447308612422643e-22,-3.063211466429679e-19,1.835458116622453e-16,0.9440070720694195,0.0,0.0,0.0,2.5474900429262792,-9.235686392212894e-16,-9.90853752677398e-16,5.61695104119562e-18,601.1573326216003,601.1573326216,601.1573326216001,601.1573326216001
0.37600000000000006,7.624112669276775e-18,-2.0,0.15377559797808688,1.1425282801488004e-14,5.063652723092597e-15,1.7390093785083232e-17,-1.5135553034556522e-23,-2.0,0.23209192738942783,2.442000906512274e-22,1.1381492788664697e-18,1.8782994785028298e-16,0.9544263380625168,0.0,0.0,0.0,2.501108479935507,-9.355787579856996e-16,-1.0251448428168452e-15,8.878733222916488e-18,600.0281053725934,600.0281053725929,600.0281053725931,600.0281053725931
0.38000000000000006,7.988385859147752e-18,-2.0,0.1576647332476063,1.1502606708567275e-14,5.118981095036343e-15,1.675420193655092e-18,-1.5102505691886116e-23,-2.0,0.23595202181425312,2.4366689810401948e-22,2.896160623851391e-18,1.9191357395043081e-16,0.9646736739690992,0.0,0.0,0.0,2.4546742915500226,-8.874413011031038e-16,-1.0019238584058525e-15,1.7640648931563368e-17,598.8954640832552,598.8954640832548,598.895464083255,598.895464083255
0.38400000000000006,8.370788002273098e-18,-2.0,0.16159361675342476,1.1519933250546839e-14,5.111055825167348e-15,-1.3945907130677817e-17,-1.5069311227122847e-23,-2.0,0.2398293008331952,2.4313133185904635e-22,5.453194373558157e-18,1.9532279835433895e-16,0.9747453916260641,0.0,0.0,0.0,2.408268381688979,-8.306983607517479e-16,-9.603099937453369e-16,1.8176783392594423e-17,597.7613684044494,597.7613684044491,597.7613684044493,597.7613684044492
0.388,8.771821017359555e-18,-2.0,0.16556150909340847,1.1427403955473346e-14,4.984106738209465e-15,-2.962494912051158e-17,-1.5035972600732562e-23,-2.0,0.24372341864907993,2.4259343968106596e-22,9.346865458978772e-18,1.9755638862490807e-16,0.9846357379119736,0.0,0.0,0.0,2.361941798996761,-7.116434015273892e-16,-8.529064656446313e-16,1.888663838187958e-17,596.6270611589579,596.6270611589574,596.6270611589576,596.6270611589576
0.392,9.191673639966036e-18,-2.0,0.16956766567105916,1.1190602309322576e-14,4.677853732968987e-15,-4.014021077336766e-17,-1.5002492742845333e-23,-2.0,0.24763403300810272,2.420532688453928e-22,1.5336179039579576e-17,1.9798861976355136e-16,0.9943413794740147,0.0,0.0,0.0,2.3157247356870374,-5.448223635422734e-16,-6.640246992173198e-16,1.3500426083121402e-17,595.4932825067391,595.4932825067389,595.493282506739,595.493282506739
0.396,9.629208032590263e-18,-2.0,0.1736113653753463,1.082759689620582e-14,4.205172809034329e-15,-4.9337451589308674e-17,-1.4968874553514006e-23,-2.0,0.251560805169629,2.415108661420693e-22,2.4043937689184275e-17,1.9609031420271223e-16,1.0038630491695706,0.0,0.0,0.0,2.269589396648207,-3.8906959224553083e-16,-4.627816677481282e-16,1.2395361671666626e-17,594.3593516633066,594.3593516633065,594.3593516633065,594.3593516633066
0.4,1.7163848079572416e-11,-2.0000000000171636,0.17769188794088542,-1.672159812125989e-06,-1.6721687996999815e-06,-6.983303653932528e-07,-1.493512090297073e-23,-2.0,0.2555033998762308,2.4096627788000456e-22,5.713693164255816e-09,-5.7136534438138705e-09,1.0132038529577638,0.0,0.0,0.0,2.2235532386902666,1.7526287286776969e-06,1.7526364875834988e-06,8.157602935970939e-07,593.2239321352506,593.2249503787166,593.2269548306125,593.2269548328665
0.404,1.0830143778709717e-10,-2.000000000108298,0.18180851691790728,-1.0968174665465423e-05,-1.0968462663545973e-05,-1.9201230025089498e-06,-1.4901234631881468e-23,-2.0,0.2594614853239578,2.404195498910809e-22,6.447984128531769e-08,-6.447842465261482e-08,1.0223649165502795,0.0,0.0,0.0,2.1776277163078612,1.0094279722503415e-05,1.0094569319494638e-05,1.4559714466938018e-06,592.087420761807,592.0932966477354,592.0948534907184,592.0948535750039
0.40800000000000003,2.382709212058398e-10,-2.0000000002382583,0.18596052907251998,-2.694937070996006e-05,-2.6950613434290283e-05,-3.3971109518404613e-06,-1.486721855159853e-23,-2.0,0.26343473313284044,2.3987072753422827e-22,2.260392480352304e-07,-2.2603098484154718e-07,1.0313460735337538,0.0,0.0,0.0,2.131845726467232,1.8890802883531693e-05,1.88918693197987e-05,1.8043847125942434e-06,590.952593751496,590.9636113201004,590.9636835028288,590.9636838138026
0.41200000000000003,3.4359818945290454e-10,-2.00000000034357,0.1901472076489751,-4.825939698677271e-05,-4.826252632274387e-05,-5.058241871565734e-06,-1.4833075444411126e-23,-2.0,0.2674228183176237,2.3931985569946664e-22,5.032112873027599e-07,-5.031847061057174e-07,1.0401473331904767,0.0,0.0,0.0,2.086213517749985,2.6930371485899698e-05,2.6932577040110585e-05,2.0803798616901245e-06,589.8196298753608,589.8353666198097,589.8339450779833,589.833945722357
0.41600000000000004,3.4305185492911585e-10,-2.0000000003430065,0.19436786211203202,-7.367210131487123e-05,-7.367816690420736e-05,-6.844635914925252e-06,-1.4798808063793974e-23,-2.0,0.27142541925873015,2.3876697881191698e-22,8.690298364281832e-07,-8.689690042779531e-07,1.048771677981724,0.0,0.0,0.0,2.0406971156267906,3.417726543600231e-05,3.418087823535255e-05,2.2952715108547728e-06,588.6876889077009,588.7076989363569,588.7048201747848,588.704821232323
0.42000000000000004,1.5885293501687724e-10,-2.0000000001249267,0.1986218198998945,-0.0001004176654585106,-0.00010372735072440153,-9.400018273333342e-06,-1.4764419134653932e-23,-2.0,0.27544221767345,2.382121408357807e-22,1.304431384778766e-06,-1.292711378196969e-06,1.0572242097087978,0.0,0.0,0.0,1.9952784975474551,3.8911562684742584e-05,4.237510260846692e-05,3.267404396536621e-06,587.5550526046849,587.5788929046759,587.5766295936538,587.5776453863681
0.42400000000000004,-2.57481934883471e-10,-1.9999999995285742,0.2029083708394123,-0.00012155153561313093,-0.00014320955332331863,-1.2502365411799975e-05,-1.4729911353574722e-23,-2.0,0.27947289858735697,2.376553852782879e-22,1.8350123221885748e-06,-1.7032145987597505e-06,1.0655040977127492,0.0,0.0,0.0,1.9500519280346047,3.631485098459169e-05,5.6237855688690894e-05,4.011934218937466e-06,586.4256163567887,586.452813037656,586.4487924743594,586.4546467390986
0.42800000000000005,-1.051024806337762e-09,-1.9999999984775962,0.2072267671531794,-0.00013698392400747454,-0.00019015411969978415,-1.5844192365540465e-05,-1.4695287389059733e-23,-2.0,0.28351715030594793,2.3709675519361503e-22,2.4904719899422387e-06,-2.02806732405504e-06,1.0736045881089538,0.0,0.0,0.0,1.9051129056831908,3.240042694749504e-05,6.964170926481865e-05,4.419949698589453e-06,585.3019713545868,585.332014001518,585.32531369113,585.3362777923696
0.43200000000000005,-2.3966028682450192e-09,-1.9999999969211661,0.21157625944826616,-0.00014713105354704196,-0.00024224689434912394,-1.932660064743901e-05,-1.4660549881772918e-23,-2.0,0.28757466438650475,2.365362931867713e-22,3.2638282472674973e-06,-2.2340507987020437e-06,1.0815192255378765,0.0,0.0,0.0,1.8604851373281468,2.836654316670689e-05,8.135973657680204e-05,4.722503221873374e-06,584.1843871578053,584.2167538607976,584.2075308989054,584.2231622642831
0.43600000000000005,-4.484764767192135e-09,-1.9999999948269016,0.21595612602632996,-0.0001523869195117359,-0.00029740316618184125,-2.2865814775421413e-05,-1.4625701444777803e-23,-2.0,0.291645135610177,2.359740414174549e-22,4.108677556985242e-06,-2.3309258136618643e-06,1.089248926084037,0.0,0.0,0.0,1.8161329447221686,2.4274306765054583e-05,9.136935556875423e-05,4.933209574371839e-06,583.0719768429416,583.1061540621782,583.0946158557233,583.1144445374649
0.44000000000000006,-7.514865249022814e-09,-1.999999992179539,0.22036564892079993,-0.00015314243661778952,-0.0003537113873990541,-2.6391780238124186e-05,-1.4590744663774617e-23,-2.0,0.29572826195428326,2.3541004160387933e-22,4.982579741689997e-06,-2.32863264106895e-06,1.0967977414380945,0.0,0.0,0.0,1.7720684479061561,2.0144428537801506e-05,9.966810628476427e-05,5.064660894485791e-06,581.9650521270983,582.0005287195213,581.986924205666,582.0104705900137
0.44400000000000006,-1.1688387487552935e-08,-1.999999988979429,0.2248041140380673,-0.0001497872725073772,-0.00040943079751405595,-2.9846488791799847e-05,-1.455568209733557e-23,-2.0,0.29982374456482985,2.348443350265689e-22,5.847311790951675e-06,-2.2368953650932542e-06,1.1041673111097865,0.0,0.0,0.0,1.7283034091892553,1.6002721980834035e-05,0.00010625847560243943,5.128051539064467e-06,580.8639186570548,580.9001889005254,580.8848029897075,580.911577692451
0.44800000000000006,-1.7202961125230436e-08,-1.999999985241156,0.2292707990008461,-0.00014271780130907375,-0.0004629782927850936,-3.318209185425204e-05,-1.452051627713829e-23,-2.0,0.30393128772924555,2.3427696253212526e-22,6.6685131682107334e-06,-2.0653528001641275e-06,1.1113573831616423,0.0,0.0,0.0,1.6848741868532455,1.1884013869154392e-05,0.00011114071820251648,5.132862619517956e-06,579.7695062599938,579.8060718973735,579.789221015956,579.8187214529981
0.452,-2.4246957275276564e-08,-1.9999999809919853,0.2337649809264379,-0.0001323330339019668,-0.0005129340466403502,-3.636062627122676e-05,-1.4485249708197402e-23,-2.0,0.30805059884932995,2.337079645369638e-22,7.4155479949796154e-06,-1.8236330397579453e-06,1.1183672735896237,0.0,0.0,0.0,1.6418016640839521,7.822025361458733e-06,0.00011433305689736222,5.088668746972321e-06,578.6823578955913,578.7187332667442,578.7007605187888,578.7324765196921
0.456,-3.299471730453413e-08,-1.999999976270103,0.2382859695674581,-0.00011901548454275851,-0.0005580677560106471,-3.9351792416344784e-05,-1.4449884869094307e-23,-2.0,0.3121813884144148,2.331373810310209e-22,8.061663732849487e-06,-1.521225236582175e-06,1.125199380660153,0.0,0.0,0.0,1.5990395270646696,3.8320785354070864e-06,0.00011589731490635551,5.002852279079891e-06,577.6013189313455,577.6370387267079,577.6182940759909,577.6517264478192
0.46,-4.360265885171053e-08,-1.9999999711232535,0.242833102062813,-0.00010313361771709738,-0.0005973221331625363,-4.213194232737242e-05,-1.4414424212205164e-23,-2.0,0.3163233699747357,2.325652515814322e-22,8.584164553012971e-06,-1.1672824602429406e-06,1.1318605606021916,0.0,0.0,0.0,1.5565511205792877,-7.185925436083424e-08,0.00011589419744493536,4.881926130454198e-06,576.5254725708153,576.5600912563209,576.5409291349115,576.5755898466366
0.464,-5.620589383871486e-08,-1.9999999656074983,0.2474057305194372,-8.50481766595334e-05,-0.000629798883980901,-4.468393823997151e-05,-1.437887016392705e-23,-2.0,0.3204762601150137,2.3199161533618164e-22,8.964279574520545e-06,-7.705778710310991e-07,1.1383565009690426,0.0,0.0,0.0,1.5143241649123855,-3.869609723932525e-06,0.00011438159029122039,4.7325094485539845e-06,575.4545137087587,575.4876066721279,575.4683871942274,575.5037967524928
0.468,-7.091492330552069e-08,-1.9999999597863138,0.2520031688930081,-6.514105100466805e-05,-0.0006547467599060268,-4.699561887944149e-05,-1.434322512490237e-23,-2.0,0.3246397784282442,2.31416511027722e-22,9.186854943686609e-06,-3.397560093364586e-07,1.144686085068367,0.0,0.0,0.0,1.4724537546486562,-7.510603322708586e-06,0.0001114114270702018,4.55969590030114e-06,574.3908670376804,574.4220379465552,574.403123954473,574.4388004198131
0.47200000000000003,-8.781378953209115e-08,-1.9999999537288595,0.2566247446102135,-4.378501214840988e-05,-0.0006715668881704795,-4.905975944474963e-05,-1.4307491470241493e-23,-2.0,0.32881364748969255,2.308399769765669e-22,9.240167397477901e-06,1.1658655490270835e-07,1.1508472431028773,0.0,0.0,0.0,1.4309314770825035,-1.0967632175374713e-05,0.00010706524253847133,4.368735909298785e-06,573.3343339848268,573.3632170635246,573.344965638319,573.3804407139643
0.47600000000000003,-1.0695785660363944e-07,-1.9999999475088723,0.26126976697294635,-2.1359129306623223e-05,-0.0006798194694384457,-5.087303375482622e-05,-1.4271671549743617e-23,-2.0,0.33299759283109387,2.302620510948545e-22,9.115917359905573e-06,5.898844900730095e-07,1.1568377220015793,0.0,0.0,0.0,1.38981265856739,-1.4201816444996212e-05,0.00010143610195439856,4.16386972501504e-06,572.2863409400114,572.3126081318434,572.2953638759271,572.3301829013344
0.48000000000000004,-1.2837292492274212e-07,-1.999999941203198,0.26593755049539564,1.7658347358435883e-06,-0.0006792147262408835,-5.24352092748039e-05,-1.4235767688115925e-23,-2.0,0.3371913429150564,2.296827708898832e-22,8.809243724843243e-06,1.0717674046296946e-06,1.1626567689170513,0.0,0.0,0.0,1.3491058842023467,-1.718556762049385e-05,9.463030415662299e-05,3.948557117945286e-06,571.2471289293678,571.2704908627128,571.25457924653,571.2883088101968
0.48400000000000004,-1.5205458744387587e-07,-1.9999999348905062,0.27062741681336294,2.523053567082528e-05,-0.0006696074822695136,-5.374878238804931e-05,-1.419978218519099e-23,-2.0,0.3413946291096665,2.291021734676195e-22,8.318607321467815e-06,1.5541082463143955e-06,1.1683048830132723,0.0,0.0,0.0,1.3088157414850194,-1.9896238596154946e-05,8.675946617014085e-05,3.7259588174777228e-06,570.2168382479433,570.2370446685497,570.2227692900861,570.2550005324347
0.48800000000000004,-1.77968049257684e-07,-1.999999928650077,0.2753386945572576,4.8689161731508835e-05,-0.0006509913278257359,-5.4818531601141046e-05,-1.416371731614249e-23,-2.0,0.34560718566329335,2.2852029553617816e-22,7.645611598835103e-06,2.0291615272476494e-06,1.1737838394645324,0.0,0.0,0.0,1.268946891772625,-2.231397063708329e-05,7.794253808120284e-05,3.4988258582079655e-06,569.195611658731,569.2124531169648,569.2000919767066,569.2304438723926
0.49200000000000005,-2.0604841079838835e-07,-1.9999999225606424,0.2800707192649382,7.181157102580595e-05,-0.0006234919521812687,-5.5651122539483544e-05,-1.412757533169919e-23,-2.0,0.34982874967959277,2.279371734092748e-22,6.794837004148268e-06,2.4896110183191034e-06,1.1790953826413981,0.0,0.0,0.0,1.2295039930457596,-2.4421769786810662e-05,6.830490798094995e-05,3.269541892072125e-06,568.1835924840178,568.1969017372162,568.1867038899159,568.214826308652
0.49600000000000005,-2.362010990553084e-07,-1.9999999166993208,0.28482282227318734,9.428179912159256e-05,-0.0005873759308877534,-5.6255991649890115e-05,-1.409135845835727e-23,-2.0,0.3540590610927081,2.273528430096516e-22,5.773730105347052e-06,2.9285981001265413e-06,1.1842401316157325,0.0,0.0,0.0,1.1905140703182784,-2.620183395971082e-05,5.799279230947256e-05,3.0416008318832148e-06,567.1814961863819,567.1911550860054,567.1833376639175,567.2089176851665
0.5,-2.683032103045957e-07,-1.999999911140573,0.2895943375797572,0.00011580233055631125,-0.00054303232937102,-5.664174232613114e-05,-1.405506889859095e-23,-2.0,0.3582978626426668,2.267673398724755e-22,4.59255903461887e-06,3.339729745530311e-06,1.1892182768555155,0.0,0.0,0.0,1.1519903978267436,-2.7641479652945317e-05,4.715121465895421e-05,2.8144011328461232e-06,566.189695242437,566.1956331976413,566.1903682862148,566.2131317190147
0.504,-3.022058887647448e-07,-1.9999999059552036,0.29438463338227155,0.00013610555374939627,-0.0004909155879777648,-5.681723760125906e-05,-1.4018708831061477e-23,-2.0,0.36254489985097077,2.261806991487101e-22,3.263866399262074e-06,3.7171876656068803e-06,1.1940329316447544,0.0,0.0,0.0,1.1138821978049214,-2.8742054785802705e-05,3.5879844019363385e-05,2.588584080380129e-06,565.2069141681466,565.209090400199,565.2065225336174,565.2262247355137
0.508,-3.3773621835039254e-07,-1.9999999012095615,0.29919311662589915,0.00015495454213342472,-0.0004315233515400636,-5.6793446985472564e-05,-1.398228041082444e-23,-2.0,0.3667999209963805,2.255929556084605e-22,1.8015681723162188e-06,4.055873654697831e-06,1.19869231425346,0.0,0.0,0.0,1.0761284137000557,-2.950914707180785e-05,2.425308998825315e-05,2.3669596389508943e-06,564.2316027293651,564.2299974409624,564.2302581586845,564.2466778286844
0.512,-3.746971688597493e-07,-1.999999896964801,0.30401915817080843,0.0001721275698787433,-0.00036551332655250995,-5.658284619441986e-05,-1.3945785769535455e-23,-2.0,0.3710626770908894,2.25004143644292e-22,2.2117889467872722e-07,4.351367741486118e-06,1.2031983282205398,0.0,0.0,0.0,1.038818668128054,-2.9932149409828765e-05,1.2463590850864416e-05,2.1517238253079685e-06,563.2660916699172,563.2607473148094,563.2639169048127,563.276887355778
0.516,-4.1287087938407203e-07,-1.9999998932762015,0.3088621289262515,0.0001874276066863877,-0.00029363195587793847,-5.619758265249268e-05,-1.3909227015654237e-23,-2.0,0.37533292185588896,2.2441429727452233e-22,-1.4597491843289517e-06,4.5998450403801716e-06,1.2075488324299575,0.0,0.0,0.0,1.00197043960105,-3.001243649272358e-05,6.705125424515538e-07,1.942992394571467e-06,562.3108616171196,562.3018694292502,562.3079800329888,562.3173830886142
0.52,-4.520212305064596e-07,-1.9999998901925489,0.3137213971891175,0.00020068497320712133,-0.0002167107446235733,-5.565112064964527e-05,-1.387260623464703e-23,-2.0,0.3796104116985217,2.2382345014648802e-22,-3.2216126233738176e-06,4.798070879907359e-06,1.211741506905922,0.0,0.0,0.0,0.9656066464270967,-2.9756085017046894e-05,-1.0970626402731861e-05,1.742790272529335e-06,561.3665357894902,561.354033560644,561.3630761627641,561.3688428382505
0.524,-4.918968657731367e-07,-1.9999998877556628,0.31859633498272416,0.00021175830159781689,-0.00013564255864488973,-5.495505615405067e-05,-1.3835925489187462e-23,-2.0,0.3838949056882217,2.2323163553978484e-22,-5.043424458169493e-06,4.943494654669907e-06,1.2157768561274742,0.0,0.0,0.0,0.9297374650695889,-2.9173148274479703e-05,-2.2318559318286075e-05,1.5494765972012161e-06,560.4334173253259,560.4175841073608,560.4295006765801,560.4316083794973
0.528,-5.322345510379849e-07,-1.9999998860000339,0.32348633056361475,0.0002205364529800937,-5.134538874721649e-05,-5.4122674381667806e-05,-1.37991868193558e-23,-2.0,0.38818616553344054,2.2263888636948266e-22,-6.903398166611056e-06,5.034272219577312e-06,1.219656405490603,0.0,0.0,0.0,0.8943476096323926,-2.8278514342592347e-05,-3.3263363384083176e-05,1.3654904006658075e-06,559.5111441956044,559.492189398371,559.5068955586777,559.5053602456042
0.532,-5.727619166405248e-07,-1.9999998849524965,0.3283907751975714,0.00022693795792974554,3.5224081419947336e-05,-5.316533801274557e-05,-1.376239224283662e-23,-2.0,0.39248395555855753,2.2204523518931485e-22,-8.779307604677083e-06,5.069280270493283e-06,1.2233830031539488,0.0,0.0,0.0,0.8594481537875984,-2.7088422969264033e-05,-4.3681557017198266e-05,1.1891218741809088e-06,558.6000462467553,558.5782136005442,558.5955806920737,558.5904617207019
0.536,-6.132010821378141e-07,-1.9999998846321465,0.3333090852750588,0.0002309089497170185,0.00012312471290203494,-5.209483105815052e-05,-1.3725543755114927e-23,-2.0,0.396788042680973,2.214507141948422e-22,-1.064897378423259e-05,5.048093893633915e-06,1.226959533745863,0.0,0.0,0.0,0.825005230016419,-2.5621116091517612e-05,-5.34973144598879e-05,1.021321063272084e-06,557.6992798236231,557.6748321868919,557.6947104689991,557.6860967607194
0.54,-6.532713341217269e-07,-1.9999998850501495,0.33824068345012515,0.00023242475003635402,0.00021140661922785527,-5.092266899717393e-05,-1.3688643329670712e-23,-2.0,0.401098196388383,2.208553552265922e-22,-1.2490590110155437e-05,4.970960444850609e-06,1.2303900073665468,0.0,0.0,0.0,0.7910224867155098,-2.3897074000772854e-05,-6.261501107536775e-05,8.62250269205907e-07,556.8089789827653,556.782203902838,556.8044136962898,556.7924307393607
