Time_s,X,Y,Z,Roll_deg,Pitch_deg,Yaw_deg,Ref_X,Ref_Y,Ref_Z,Ref_Yaw,vx,vy,vz,p,q,r,T_pert,tau_x,tau_y,tau_z,RPM_0,RPM_1,RPM_2,RPM_3
0.0040000000000000036,3.3827230054016896e-22,2.0,0.010006999594037988,-2.096004393768565e-18,1.4202641527917514e-18,1.8284134537641468e-20,1.5141846656799343e-06,6.919418449401868e-05,7.200000000000012e-05,0.0,6.963764715863389e-20,400.0,2.0013999188075973,0.0,0.0,0.0,-10.19,1.0,0.017644704966012767,-2.1358760407350176e-20,0.0,405.2817188962589,397.7084398612272,0.0
0.008,1.887463211823781e-16,1.99999999999999,0.010010999365430017,5.72799516980194e-11,1.080360779719694e-12,-1.2568597406052154e-11,6.12419270424156e-06,0.0002083495958722561,0.000215133408,0.0,2.096762461454604e-14,222.22222222222112,1.1123332628255573,0.0,0.0,0.0,-0.03433847600847206,1.0,0.0373561013617626,1.4682109261252173e-11,327.29578380409197,681.6513354893054,672.1411447765289,346.4063435852968
0.012000000000000004,2.2037815556909725e-14,1.9999999999988316,0.0100149991385222,2.7121982280564465e-09,5.11548208703902e-11,-2.1598396884794708e-11,1.3792708274920928e-05,0.00041662168981729264,0.0004285414703013123,0.0,2.2035503184448493e-12,-1.1682761232874134e-10,0.0009999430161482942,0.0,0.0,0.0,0.11268126572374448,1.0,0.039565460128433566,1.1065218180372727e-11,333.2286571907323,685.0757689306973,675.0500176768267,353.0971833143741
0.016,1.5814195911452718e-13,1.9999999999926465,0.010018998920576096,1.688732178774628e-08,3.630829193384282e-10,7.916942718774053e-12,2.448275322077205e-05,0.0006931735683429438,0.0007113732083620774,0.0,1.5812171638140905e-11,-7.352469975475232e-10,0.0009999440860837538,0.0,0.0,0.0,0.2602150030476365,1.0,0.04180024231726539,-3.358929892797695e-11,339.0734381020869,688.4972679439664,677.9542644275264,359.69056074856576
0.020000000000000004,5.558433476914477e-13,1.9999999999783191,0.01002299872054165,4.972318852907904e-08,1.2745480123072275e-09,2.867727002259229e-11,3.815768434767486e-05,0.0010371759181666165,0.001062785356130613,0.0,5.4992503109824944e-11,-2.1368029844862694e-09,0.000999946898581906,0.0,0.0,0.0,0.40825153474089515,1.0,0.044060510215874316,-2.457460766337184e-11,344.83411515283706,691.9156469761508,680.8536959107253,366.1913080463445
0.024000000000000007,1.3040332537753926e-12,1.9999999999549913,0.010026998542497443,1.031870182727181e-07,2.9892737622903615e-09,4.3352910622275655e-11,5.4781190723936145e-05,0.0014478069495481403,0.0014819422978531054,0.0,1.2383421087906163e-10,-4.164931953170831e-09,0.00099995147719596,0.0,0.0,0.0,0.556779789109402,1.0,0.046346327456453215,-1.832121931855211e-11,350.5143577143756,695.3307271719174,683.7481285157835,372.60385361742533
0.027999999999999997,2.4498402790759314e-12,1.999999999922731,0.010030998387689049,1.7712223199274501e-07,5.615270899906389e-09,5.4065392056137016e-11,7.431729100033398e-05,0.0019242523355916892,0.0019680160063522034,0.0,2.1321105162121036e-10,-6.3833132201646e-09,0.0009999569714348867,0.0,0.0,0.0,0.7057888057500619,1.0,0.04865775612587815,-1.4297278351932019e-11,356.1175496453747,698.742335191335,686.6373842611919,378.9322664863457
0.032,4.461083709127187e-12,1.999999962215726,0.010035111255996789,8.659585125415055e-05,1.0248026622820873e-08,6.789403074473951e-11,9.712199763973504e-05,0.0024664932489034375,0.0025201859817730854,0.0,3.577690655602386e-10,-3.7748850144531365e-06,0.0010112627412354723,0.0,0.0,0.0,0.8550384003031912,1.0,0.05555892300721273,-1.8381106219388652e-11,360.5484844339852,702.7053769664243,688.9458599282965,386.19121999138446
0.036000000000000004,8.367223091969576e-12,1.9999982587368237,0.010044221046685639,0.0039904090600064645,1.929682107785339e-08,1.0133783309046305e-10,0.0001231552663963442,0.0030737206224832857,0.003137639190793573,0.0,6.538499240561567e-10,-0.00017408269818338629,0.0015222664249072795,0.0068134361197321955,1.5793109978472482e-08,5.7957781654100157e-11,0.9948316131178132,1.0,0.05819807126167844,-4.186730741583453e-11,365.55248145500764,705.9304777879568,691.5777648947006,392.0288904723503
0.04000000000000001,1.3184439765212652e-11,1.9999914276117607,0.010068702652249925,0.019638269818644877,3.04022211298293e-08,1.317576000033696e-10,0.00015237741732707972,0.003745132758622568,0.0038195700062949463,0.0,9.993821113138532e-10,-0.0008566062174455222,0.003570607232083164,0.03412410218404021,3.5175696498881335e-08,1.0738907325081288e-10,1.1138580461587468,1.0,0.06086623553163868,-3.971514070064721e-11,369.6616113042674,708.7161036906431,693.7585279322851,397.0230813609749
0.044,1.8905433613078498e-11,1.9999762590980097,0.010118122093002708,0.054342927788685526,4.3510437967626306e-08,1.6051756993625985e-10,0.00018474913184841847,0.004479935269333667,0.004565180147490074,0.0,1.2556008651620204e-09,-0.002323489731069817,0.0079744484683307,0.09298953185549852,5.0605987502000524e-08,1.1541413647561756e-10,1.2134180069694926,1.0,0.0635634497354525,-3.903456729940464e-11,372.9564335933347,711.0941626800368,695.519726224822,401.252688094457
0.048,2.5515184145971298e-11,1.999949902186074,0.010200840918391296,0.11450677934596791,5.853791138664374e-08,1.939844372425973e-10,0.0002202315785621707,0.005277340729822036,0.005373678620505554,0.0,1.4736377052339597e-09,-0.004561855541295967,0.014698155442441033,0.18262986632537676,5.9247155657399946e-08,7.9424430669998e-11,1.2956405348492877,1.0,0.0662912943448421,-4.5725150886915265e-11,375.5409308778229,713.1125805157347,696.9090176983754,404.81892738699366
0.052000000000000005,3.30078026410106e-11,1.9999098127579573,0.010324077523553086,0.20567612111225364,7.539715310392414e-08,2.401367937611213e-10,0.0002587861513139457,0.006136569198093768,0.006244281659414509,0.0,1.6828734218818164e-09,-0.007473251653978284,0.023450201809255933,0.2993040890274066,6.752497160698626e-08,3.5976846394151546e-11,1.3625686988272423,1.0,0.06904692884723451,-6.19316081764483e-11,377.5094877886667,714.8158558689105,697.9717770053077,407.81186743804017
0.05600000000000001,4.1388845772632004e-11,1.9998536903990065,0.0104939970738362,0.33261771601994117,9.400300502021553e-08,3.0930042361047175e-10,0.00030037459662666805,0.007056847865830602,0.007176212667716818,0.0,1.8836076648028528e-09,-0.010965392240391596,0.03395789149427806,0.4393711507561725,7.542674462863891e-08,-2.3400945867187595e-11,1.4160995862813637,1.0,0.07183183298293885,-9.07243431820075e-11,378.9445787844304,716.2451457015729,698.749012028164,410.3119789349399
0.06,5.0666253284177983e-11,1.999779413695265,0.010715809346209195,0.4994015472223372,1.1423938404137052e-07,4.0970443880860677e-10,0.000344959010845575,0.008037411000606919,0.008168702160263459,0.0,2.0756977547398023e-09,-0.0149543083294072,0.04597344748124499,0.599522300415792,8.290098032477528e-08,-1.1403848011404953e-10,1.457965372104788,1.0,0.07464607605890013,-1.300797277573984e-10,379.918908292718,717.4374007882012,699.2778880778959,412.3896643010039
0.064,6.083254296012162e-11,1.9996849841704125,0.01099384999787501,0.7094706423988181,1.3597325385161006e-07,5.650419081636799e-10,0.00039250183730488077,0.009077499888545396,0.009220987705621773,0.0,2.2564829034097143e-09,-0.019364522214578805,0.059274289078604006,0.7767850170517436,8.986737005926508e-08,-2.271146540113474e-10,1.4897638373265203,1.0,0.07748972736488169,-1.984022035574477e-10,380.49740765520403,718.4263303955353,699.5923562038901,414.1077192330372
0.068,7.198115598513435e-11,1.9995684516722478,0.011331726679668622,0.965760277754235,1.5923338954910712e-07,7.869331945740754e-10,0.0004429658635159479,0.01017636277740812,0.010332313868878385,0.0,2.4320632090869494e-09,-0.02413068811475419,0.07366784900822068,0.9685873855620668,9.652048790902726e-08,-3.791542636020576e-10,1.5128241774176017,1.0,0.08036285432135859,-2.8256568975166846e-10,380.7329182384907,719.2398046712217,699.7204744391112,415.5173970348387
0.07200000000000001,8.416582626785282e-11,1.9994278695218355,0.01173238821684002,1.2707583654456083,1.8396534110711307e-07,1.0985636650716575e-09,0.0004962132149702961,0.011336695074862645,0.011501932154876639,0.0,2.608266553292876e-09,-0.029197013950950024,0.08898978940923455,1.1727345812590337,1.0308412235665137e-07,-5.73346854995543e-10,1.528358482422165,1.0,0.08208854064239512,-3.9656175576774307e-10,380.9389323931847,719.7621632506304,699.8325922068885,416.4209190777932
0.076,9.745504886061241e-11,1.999261249837044,0.01219820396012931,1.626573390813988,2.1010946141599003e-07,1.5187826694842592e-09,0.0005522085748603537,0.012557717376043153,0.012729100951885333,0.0,2.7828037650384706e-09,-0.03451612266741435,0.10510058485580402,1.3873631773954533,1.094162913200352e-07,-8.262646294094854e-10,1.537438892535074,1.0,0.08494956843669282,-5.362835786145267e-10,380.64024396383144,720.2889374330452,699.6700520361063,417.33075980090564
0.08,1.1189366439061798e-10,1.9990665284942395,0.012731024876088709,2.034988630124684,2.3756015609366072e-07,2.0757278961214564e-09,0.0006109169512519362,0.0138386574441021,0.01401308547569566,0.0,2.9542514735088604e-09,-0.040047157120318026,0.1218798430512373,1.610865431083313,1.1546238224984633e-07,-1.1368619951947645e-09,1.5410321304284162,1.0,0.08783945591172931,-7.133630022724498e-10,380.1237653187833,720.7074567230342,699.3892068827843,418.05268473769894
0.084,1.275734660893961e-10,1.9988415320041943,0.013332246773768427,2.497518351449744,2.662927240703365e-07,2.7979722623287e-09,0.0006723036744454752,0.015178750151994491,0.015353157714143138,0.0,3.121389324552528e-09,-0.045755679972458205,0.1392260601691891,1.8418859029070571,1.211805657555426e-07,-1.5025646513862117e-09,1.5399932191819887,1.0,0.09075826863171227,-9.294734123971494e-10,379.42154479032456,721.0352572098328,699.0077922348407,418.6175466817092
0.08800000000000001,1.4457772591683198e-10,1.9985839528199063,0.014002856039359968,3.0154510904428338,2.9624581062810936e-07,3.7140674917286747e-09,0.0007363343943573123,0.016577237424704842,0.016748596372051536,0.0,3.2882258770096323e-09,-0.05161287417759867,0.15705427490948903,2.0792901945745914,1.267017942242045e-07,-1.9331291303262384e-09,1.5350989680367269,1.0,0.09370607358643618,-1.1857748873588034e-09,378.56253954823484,721.2882186189219,698.541895927638,419.05310120752114
0.09200000000000001,1.6301719420825667e-10,1.9982913289985178,0.01474346829636041,3.5898881414217243,3.2742200536630016e-07,4.862632634594017e-09,0.000802975077920911,0.018033368181913517,0.01819868681659564,0.0,3.4564508496986517e-09,-0.05759473309214881,0.1752936906520986,2.3221331494895088,1.32094596354208e-07,-2.428245106326459e-09,1.5270608729754218,1.0,0.096682936513836,-1.4952136156229854e-09,377.57321962992177,721.480847629681,698.0062457223702,419.38457253264426
0.09600000000000002,1.8299745551403973e-10,1.997961027563884,0.015554360553067314,4.221777836825624,3.597935894990275e-07,6.281648635568259e-09,0.0008721920065078418,0.019546398281099275,0.01970272102307982,0.0,3.6263288059439965e-09,-0.06368140110788714,0.19388575012174486,2.5696331133889116,1.3737399190726876e-07,-2.9863301269631775e-09,1.5165371024773364,1.0,0.099688923909091,-1.8586462408518196e-09,376.4781063759367,721.6265370834794,697.4144722742113,419.63515567265466
0.10000000000000002,2.0462014026627142e-10,1.9975902305622812,0.016435498287496873,4.91194688154976,3.9331800260196936e-07,8.012104456189596e-09,0.0009439542234086757,0.021115548552174897,0.021259997521129354,0.0,3.7998920360530215e-09,-0.06985673039600508,0.21278286192375698,2.821154882807808,1.4260060770084835e-07,-3.614274473938452e-09,1.5041417477782608,1.0,0.10275265194044461,-2.281165103275602e-09,375.29363053903404,721.7411731865137,696.7757811058317,419.83225743305064
0.104,2.279822194127001e-10,1.997175925750493,0.01738655209515177,5.661124627233022,4.2793332460307124e-07,1.0095132824773639e-08,0.0010182286017238367,0.022740089063667934,0.022869821341291525,0.0,3.972341704537351e-09,-0.07610779214115823,0.23194698156250468,3.0761907239842143,1.4759140073146095e-07,-4.308497618424148e-09,1.4904651422012523,1.0,0.10581881470055202,-2.764643026487004e-09,374.0547613816369,721.8301275928436,696.109289377222,419.98516002580567
0.108,2.531894489804986e-10,1.9967148989654304,0.018406910847080838,6.469965783899681,4.636128901860296e-07,1.2584488709407996e-08,0.0010949823216387345,0.024419296649234985,0.024531503962043472,0.0,4.144647701710304e-09,-0.08242434805714216,0.25134806331735515,3.3343396832134657,1.524170075181249e-07,-5.058425321787207e-09,1.476080413200265,1.0,0.10891431935419454,-3.3255384388879758e-09,372.7772188332052,721.908230197491,695.4236342514546,420.11937865036447
0.112,2.8036453145851915e-10,1.9962037311613494,0.019495684395023406,7.339066107259001,5.003484485418606e-07,1.5534114767562416e-08,0.001174182867920255,0.026152454852514072,0.026244363257203765,0.0,4.317535547154129e-09,-0.08879838246253191,0.2709626844303174,3.5952892065732307,1.5712565624138911e-07,-5.857695627226931e-09,1.4615642775471998,1.0,0.11203923144912874,-3.966306310339354e-09,371.48329007232445,721.9871726116935,694.7308893772745,420.255011349086
0.116,3.0961063094864665e-10,1.9956387945339773,0.020651708340203086,8.268981030718418,5.380959361453064e-07,1.9001618473363123e-08,0.0012557980274323325,0.027938853872397328,0.028007723443744872,0.0,4.493438250720619e-09,-0.09522382630662182,0.2907732506196567,3.8588045033059215,1.6180201299851338e-07,-6.710691525482682e-09,1.4474927671645348,1.0,0.11519361698558891,-4.693474918233846e-09,370.19554123861576,722.0786273595704,694.043161443558,420.4121056526696
0.12000000000000001,3.410254822255808e-10,1.9950162513354028,0.02187354224516153,9.260240521967523,5.768072164033251e-07,2.3050088108472332e-08,0.001339795886670458,0.02977779050872079,0.029820915030003513,0.0,4.667627464671846e-09,-0.10169641840339091,0.31076761644211104,4.124723435621352,1.6632001206535562e-07,-7.595882908557134e-09,1.4344543848276141,1.0,0.11837754124652958,-5.515848415399376e-09,368.9373470374285,722.1945130335048,693.3728681064919,420.61111033723415
0.12400000000000001,3.747184931674192e-10,1.9943320550589938,0.023159462469806325,10.313361100217216,6.164719615621598e-07,2.775609236376153e-08,0.0014261480106358628,0.03166845718532398,0.03168327476428597,0.0,4.8405584897438e-09,-0.10821344688832076,0.3309383327465137,4.392946455224616,1.7074765572487135e-07,-8.496884245746128e-09,1.4230610716940832,1.0,0.12162814104057676,-6.451805218381423e-09,367.72464298798036,722.3516351190725,692.7283578908829,420.8808297142699
0.128,5.2169048264971994e-08,1.9935820023376907,0.02450746448295335,11.428867359211008,7.633542491149494e-07,-4.3100211617178056e-05,0.001514823039475357,0.03361016507772319,0.033594145583865524,0.0,5.200895467317461e-06,-0.11476840316939185,0.3512821724875091,4.663444972649177,-1.4234828216306322e-05,-7.389939569175808e-05,1.4139292053235097,1.0,0.12427032271327236,5.037913647414407e-05,366.6155212491515,722.4181913356579,692.2732866669053,421.2137574684715
0.132,5.664724579031377e-07,1.9927620373764023,0.025915317335061753,12.60735993788614,1.9266242231845924e-06,-0.0004772753795237969,0.0016057899060294132,0.03560223178984474,0.035552876564369104,0.0,5.701011303622084e-05,-0.12131988023763492,0.37179959888159464,4.936356165233348,-0.000171776248746364,-0.000815124429649686,1.4075736643059735,0.9179497093209725,0.12271412945097895,0.0005089580846387594,384.43514654046146,711.6575093422274,682.6591206538255,438.1148107402374
0.136,2.1143050652202136e-06,1.9918681140881702,0.02738044449963783,13.849441708819414,5.579477183884546e-06,-0.0018059600024756025,0.00169901783343826,0.03764398130145031,0.03755882286955031,0.0,0.0002133978025952934,-0.12780802900580504,0.39248493079913993,5.21183455591614,-0.0006986778192773123,-0.0030690599618602944,1.4047584794885521,0.7857048337593937,0.11897005199069055,0.0015717485264352166,411.33899643858666,693.539504597239,667.6374986656415,464.70301782147976
0.14,5.328746141718841e-06,1.990896617609461,0.028899135318472127,15.155059666952285,1.3648568279617811e-05,-0.0046184196165607715,0.0017944763327662546,0.0397347439159637,0.03961134570144605,0.0,0.0005192262241992321,-0.13415579727419702,0.413237963427763,5.488814996661754,-0.001857327169129132,-0.007517991617019959,1.4078591836444434,0.6483063374542548,0.1140394176085372,0.0033597184912591083,436.5194099316703,673.27005403813,652.8944104649141,492.07253773645556
0.14400000000000002,1.0895897294134809e-05,1.9898447605314196,0.030466165733076995,16.523144798885188,2.856563788130932e-05,-0.00959513530334205,0.0018921352006443907,0.041873856208695874,0.041709812250913796,0.0,0.0009931201131473666,-0.1402667803781777,0.4338156952725255,5.764326061389287,-0.0039010186769677323,-0.014491514415858858,1.4200573000749634,0.5068999142455384,0.10796457272303436,0.006003722886307071,459.87800826586886,650.6931370436288,638.8581103189986,520.2366246133219
0.14800000000000002,1.9466939163763156e-05,1.9887104582860828,0.03207518882127606,17.95189097854764,5.310134528276709e-05,-0.017445164831943877,0.001991964516930823,0.04406066097546568,0.04385359564854689,0.0,0.0016453475145190115,-0.14603028642687438,0.45390699511345806,6.034519652466587,-0.007103357874154769,-0.024214417304750557,1.4437901062008924,0.3623758058366646,0.10171401579700479,0.00956523763802737,481.30461193089394,625.7821010495674,625.7121654188537,549.2525086497561
0.15200000000000002,3.128860783219615e-05,1.9874937811805573,0.03371901221916335,19.43894078398386,8.929332917537125e-05,-0.028581224554659286,0.0020939384970354467,0.04629428987386227,0.04604207491596504,0.0,0.002438831711875213,-0.1512273374676554,0.4732137523353245,6.296370878585985,-0.011557161178778039,-0.03622362727443449,1.4809677555661827,0.21545893607755318,0.09965701198277051,0.01372740590000786,500.80476937240337,599.5085512265612,612.5747855467263,579.0825477726946
0.15600000000000003,4.594135192214112e-05,1.986197851961406,0.035390166644865675,20.98171260275128,0.0002482296612327772,-0.042764639270211936,0.00219802773392916,0.04857410060366578,0.0482746349174772,0.0,0.0032687648799470054,-0.15542804793371973,0.4914243961558634,6.547830870589605,-0.016740089226969745,-0.048959184284059244,1.5323736407808002,0.06653160195859642,0.10496087505101627,0.01774647620294905,519.3383862919392,573.4260592884564,597.9294558749239,608.9042033371788
0.16000000000000003,6.298342026407852e-05,1.9848253780884242,0.03708155510421545,22.576364267414124,0.002035594298707717,-0.058527343221527986,0.002304203097317965,0.05089945690971305,0.05055066631211418,0.0,0.004034646040012161,-0.15833719237203847,0.5083828250263511,6.785996216955735,-0.0189863802552781,-0.05990092370267249,1.5974825249403206,-0.08279657013841635,0.1090850681382953,0.020176737948039876,540.5520920574014,548.8687696556237,580.8805307086121,635.2593372877692
0.16400000000000003,8.204509879164601e-05,1.9833782526137962,0.03878636105421161,24.218063625121104,0.007923346964395011,-0.07329277994001668,0.0024124357313708394,0.053269728532262146,0.05286956550602828,0.0,0.004701012986064216,-0.16004613886513627,0.5241124624949578,7.006632402789535,-0.01245235078761156,-0.06668950862178703,1.6759438010151635,-0.23114302461350622,0.1097245326613343,0.019663125449784415,566.4659342757143,528.2391760894369,559.5568328349268,656.1891936458838
0.16800000000000004,0.00010247263878359197,1.9818585358688108,0.040497554786135835,25.900970639915116,0.020594603380195777,-0.08422788547741103,0.002522697052464988,0.05568429115773663,0.0552307346052572,0.0,0.005218461632054637,-0.16078520586847772,0.5386662919317007,7.204975143145228,0.007941147246474434,-0.06808606954829563,1.7683998373762748,-0.37703323512375797,0.11055634064122034,0.015800126088182563,596.3605414386436,513.6188441181491,532.4120666774377,671.9456343032044
0.172,0.00012279460720856128,1.9802645309210074,0.04221102094890552,27.61653798871716,0.0413488924221222,-0.08994737280816911,0.0026349587469483553,0.05814252636984687,0.057633581368849565,0.0,0.005448337181523041,-0.16091375879889333,0.5524271438165457,7.373780228612996,0.04060909990196972,-0.06580445070818383,1.869152550178689,-0.5169352276502845,0.11947277691701838,0.010162370115747388,625.6754037265227,504.46387864531124,500.4584729657208,685.4177253426988
0.176,0.00014296394187533377,1.9785913855124053,0.04392463898937352,29.353616660332474,0.07002607804175622,-0.08995929493958572,0.0027504538374911844,0.06064585915157564,0.06007751916234956,0.0,0.0053914375002249455,-0.1609621640054111,0.5661518821236072,7.5029072443673215,0.07977587855731191,-0.06235395159052863,1.9742773117309083,-0.6472492416820212,0.1273549482279349,0.003736171492642494,653.7496041216443,498.2031300914195,466.87462712158293,696.3764585371473
0.18,0.00016304059668195532,1.9768340707653942,0.04563628725285592,31.10027655626701,0.10664644484231994,-0.08369379467352539,0.002869139365517501,0.06319365821210736,0.0625619669116377,0.0,0.005185402558309994,-0.1613724184993756,0.5804834689362307,7.583337462616662,0.12064762544918725,-0.05915146257294146,2.0838367051335696,-0.7663157981792177,0.11966831417379192,-0.0035900806108108887,682.5151590145814,492.9088338399581,434.2703926659843,702.8130982911675
0.184,0.00018311124974322227,1.9749874863698833,0.047343825370905174,32.84472838997898,0.15141264412041325,-0.07054519116956542,0.0029909727730984947,0.06578529823533022,0.06508634905712558,0.0,0.004891509171608301,-0.16228773322727813,0.5955723922760832,7.612347950884134,0.16320863698527366,-0.056530860427084426,2.19792918336033,-0.8734902083420113,0.11085472096536717,-0.011882072290683518,710.1465009671116,491.39070588702253,399.7755142738236,706.4531912638294
0.188,0.00020329275526433818,1.9730464977709121,0.04904507205478422,34.5748306406667,0.20460588236656813,-0.04988793990950091,0.0031159118996768364,0.0684201598306511,0.06765009550830155,0.0,0.004504541606092224,-0.163792567471502,0.6114774597013168,7.5891462530829275,0.20818536198402732,-0.05478973420157042,2.3166989542628693,-0.9675534359162912,0.1007391425341545,-0.021188359199288437,736.7122493753438,493.95987902371064,363.06566453436227,707.1103049979067
0.192,0.00022373688732380649,1.9710059604576304,0.05073783256324476,36.278693343888065,0.2664348875127838,-0.02117479938535692,0.003243914978816001,0.07109762948418738,0.0702526415986251,0.0,0.004018267598349243,-0.1659717238305292,0.6282518314991884,7.513559573845396,0.2557287214286088,-0.054255073141671106,2.4402358731103013,-1.0,0.08929891289583995,-0.03144368211203337,756.7470583844565,508.7159310162382,336.24986954197857,698.922126969074
0.196,0.00024463350969082423,1.9688607501123814,0.05241991109356302,37.944929572274,0.33703480920136686,0.016029262271199215,0.0033749406349744097,0.07381709951033294,0.07289342804076722,0.0,0.0034266402565393816,-0.16890997497679763,0.6459436023349612,7.386673820944731,0.3054611447510525,-0.055174255650946524,2.5686051647945116,-1.0,0.07653126241527913,-0.04253999633061065,773.888373649406,529.7439164873211,314.22202227567794,685.392776568594
0.2,0.0002662142396202535,1.9666057602317462,0.05408917565715146,39.56335614052788,0.4163741288638011,0.0620480417391287,0.0035089526840709974,0.07657755746758642,0.07557190088219415,0.0,0.0027246044772572297,-0.17268790900655515,0.6646002405268352,7.211735951389798,0.3567155096752707,-0.05768136082679924,2.7017405098118337,-1.0,0.0625939905744707,-0.054365818150782536,791.716308658893,551.1230518493567,288.81562289264565,670.5510760664982
0.20400000000000001,0.0002887551635805878,1.9642359539908507,0.05574354222510543,41.12547226928945,0.504254266228955,0.11699151054594475,0.0036459104649567407,0.07937841212428809,0.07828751146109221,0.0,0.001908765551313733,-0.17737719733312515,0.6842638975467986,6.994286404669022,0.40855124200149795,-0.0618438758106268,2.8396058181611417,-1.0,0.047499507600809475,-0.06668527750051595,809.917445335119,572.4385046858929,259.86319211761037,654.6379371150103
0.20800000000000002,0.00031257782893961744,1.9617463971904465,0.057380972557353804,42.62430443052588,0.6004450672734569,0.18067431143804977,0.0037857736983700568,0.0822190778892769,0.0810397163626309,0.0,0.0009780490730830875,-0.1830374171374074,0.7049659040946332,6.741144812614751,0.4599057358975373,-0.06790636127810225,2.9821679627715905,-1.0,0.03129182085499585,-0.07915852250883841,828.0870223083772,593.1793079727497,227.35738656966785,638.0653045128308
0.21200000000000002,0.000338050256362205,1.9591322630576835,0.05899949684103199,44.054064450414096,0.7046825766169531,0.2526561694980611,0.003928502483804212,0.08509897476528588,0.08382797737556207,0.0,-6.579563510387036e-05,-0.18971799973628017,0.7267256376493845,6.4585360435169195,0.5097746826863718,-0.07636003709194958,3.129346497108264,-1.0,0.01396535809394528,-0.09148076778952949,845.897010734074,612.9467690426198,190.93897580216094,621.22625354625
0.21600000000000003,0.00036558614323945555,1.956388887466311,0.06059718350468802,45.40996202034407,0.8166597837330832,0.33228305982006473,0.004074057296398681,0.08801752830269526,0.08665176144915254,0.0,-0.0012181374724151823,-0.19746202308047117,0.7495472032751245,6.151530594198924,0.5572360342352758,-0.08759460408002555,3.2811201400484435,-1.0,-0.004452743728117187,-0.10338481983432525,863.0837033177734,631.4488476222812,149.36838005508034,604.505961835655
0.22000000000000003,0.00039564352891442245,1.9535117901753987,0.06217214559782006,46.687975518165494,0.9360577799129639,0.4186981783686781,0.004222403332193469,0.09097381932810689,0.08951054065044776,0.0,-0.0024712624111494384,-0.20630968802637786,0.7734189778509093,5.824199907193818,0.6014314511482617,-0.10166974041815177,3.4374535273853937,-1.0,-0.02391179573258971,-0.11460747791124676,879.4045853922095,648.4288763172765,98.6021016905983,588.3301233107411
0.22400000000000003,0.00042872247471351647,1.950496685388467,0.06372256046805831,47.88473352027964,1.062523656234372,0.5109241012930231,0.004373501756052885,0.09396728856518785,0.09240379212186403,0.0,-0.003814388630257836,-0.21630078589945487,0.7983134106340473,5.479860389993088,0.641638579939616,-0.11866878072753688,3.598270019817869,-1.0,-0.04447143237199834,-0.12497312977907794,894.7321534706576,663.7524433760128,0.0,573.0141078220184
0.22800000000000004,0.00046536050917073325,1.9473395299146752,0.06524665174675748,48.99734284386605,1.1958833849173254,0.607801296919562,0.004527314099776894,0.09699738211050557,0.09533099803910691,0.0,-0.005233901005865562,-0.22747673649660077,0.8241878492509713,5.121145915065738,0.6774051766595094,-0.13873971756030784,3.763527570443487,-1.0,-0.06626420543363898,-0.13422931420631368,908.8747030693131,677.1735378612642,0.0,559.0199977617103
0.23200000000000004,0.000506123867966059,1.9440366705538321,0.06674257579440324,50.02300150392567,1.3361489663316324,0.7082820092618185,0.004683802259082747,0.10006355138899357,0.09829164556941347,0.0,-0.006714502362947893,-0.23988476842431167,0.8509644111738226,4.74962472930283,0.7088748848018639,-0.16202652393584616,3.933413198554571,-1.0,-0.08943868969394336,-0.14245931348876165,921.9861854666619,688.8992576217648,0.0,546.2916253324107
0.23600000000000004,0.000551628008076,1.940584289098235,0.06820895324518528,50.95969582066434,1.482876640783374,0.8110137188193142,0.004842928490609728,0.1031652531097598,0.10128522683011584,0.0,-0.008237985944821977,-0.253576116196697,0.8786061534034737,4.367197732293764,0.735433337952303,-0.18825130232815507,4.1070373698610565,-1.0,-0.11374118679864767,-0.14926434299034,933.6824201138729,698.5060043285932,0.0,535.6167952614214
0.24000000000000005,0.0006025417361238997,1.9369782896780052,0.0696449622093057,51.80624871333476,1.6352523141014284,0.9140991108194849,0.005004663732393495,0.10630140578090481,0.10431123884752391,0.0,-0.009778856571136127,-0.26859934899014276,0.9071518480138803,3.976868993263982,0.7551176192669099,-0.21672399799966624,4.2833066719693695,-1.0,-0.13871626053337882,-0.15395261403106486,943.2874755030454,705.2172353625905,0.0,528.3623852600025
0.24400000000000005,0.0006595745698396808,1.9332145053994048,0.07105015307379654,52.56197830516985,1.7922872162604906,1.0153364684782562,0.0051689708538422635,0.10947148308952792,0.10736918351612457,0.0,-0.011300914730249193,-0.28499670992215015,0.9366643278417778,3.5819210332811715,0.765527022840379,-0.24710672005311657,4.461485860747,-1.0,-0.16420519581402862,-0.1560906517680915,950.4222905208932,708.5603898724706,0.0,525.4304023501622
0.24800000000000005,0.0007234613776847558,1.929288879078181,0.07242430764631337,53.22643076121393,1.952992451469782,1.1124157188348056,0.005335813077343681,0.11267496381719626,0.11045856755809544,0.0,-0.012759527686200872,-0.30280947732038105,0.9671391301143553,3.184368551329143,0.7654295069686885,-0.279173280773405,4.641113767258139,-1.0,-0.1899197635837384,-0.15546134045930043,954.9013820457483,708.3285882063075,0.0,527.3037923648787
0.25200000000000006,0.0007949528367569083,1.925197488687545,0.07376743383558727,53.799167687840104,2.1163754404578503,1.2029863218727213,0.00550515397535307,0.1159113317975751,0.11357890248313057,0.0,-0.014104187704597176,-0.3220824836542896,0.9985225843662423,2.7851068370683487,0.7544318824048869,-0.31267588210889,4.821732712608667,-0.9766506998073078,-0.21571367145844736,-0.15192225886456162,954.5003993506338,707.1924878385789,138.10857081231904,530.407228847057
0.256,0.0008747990421970067,1.9209366687013292,0.07507969892016746,54.27968772494229,2.281300652464207,1.2849556701027682,0.005676957467504003,0.11918007587438456,0.11672970454857584,0.0,-0.015280977237215563,-0.34286659040470596,1.0307262461302549,2.384283266270884,0.732700448913855,-0.346901359489173,5.00301331205868,-0.9077956937937367,-0.24118971630490477,-0.14567773783612356,947.3557493837127,708.1551587758797,228.13458426852304,530.8407772989688
0.26,0.0009637403761932146,1.9165029797835749,0.07636150459463648,54.66784521302505,2.446594089828099,1.3563028170919462,0.005851205538651927,0.12247985825961413,0.11991049471987206,0.0,-0.016234312872292583,-0.3652155704482713,1.0636411000297044,1.9824520821193825,0.7006371874218773,-0.38101281010841664,5.184468861342426,-0.8325290680359367,-0.2659267477409822,-0.1367249591411104,936.8656850118151,706.4936018769697,301.5789088253582,535.0046740551805
0.264,0.0010624859633248213,1.9118934121141438,0.07761335500651793,54.96415683804951,2.611298371901981,1.415149354742914,0.006027862580918313,0.12581018770139685,0.1231207986313028,0.0,-0.01690805969131105,-0.38918118721834755,1.0971283588647769,1.5814296348274275,0.6589577466588139,-0.41459851865067937,5.365873071532493,-0.7516139435245133,-0.29025275800089995,-0.12514670196173064,923.0963762659027,702.1583319239614,368.17715026224073,542.736671716014
0.268,0.0011717046566108536,1.9071053807483012,0.07883587085724042,55.16977641880367,2.774519230028575,1.4598625197984734,0.006206893326996217,0.12917057774319418,0.12636014654704567,0.0,-0.017246072547840042,-0.414809221262037,1.1310205177197206,1.183959138498317,0.6086958290132601,-0.44770879214431664,5.546967835396278,-0.6729446174402897,-0.3138637327039425,-0.11115191212676032,906.8264008103283,694.4274264844624,429.0184837004359,554.8103396616294
0.272,0.0012920202548433026,1.9021366657427998,0.08002984537170355,55.286548237947386,2.935287727853149,1.4890704719932457,0.006388262847333044,0.13256054668376444,0.1296280733225239,0.0,-0.017193361755267124,-0.4421365680025029,1.16514370228403,0.7929538516480905,0.5509382392167462,-0.47996480345838305,5.727377803785487,-0.5903707323933014,-0.33653386204867464,-0.09497735574130037,887.5370096544659,684.2975767479634,486.861753609513,569.6661707873579
0.276,0.0014240076050297805,1.896985353690557,0.08119629715406734,55.317171665711804,3.0926268490463733,1.5015622647985303,0.006571936547334953,0.13597961753744048,0.1329241183660568,0.0,-0.01669674327919316,-0.47118540935670383,1.1993417673794322,0.4116848181622301,0.4865339323401866,-0.5109400644796203,5.906614919575612,-0.5049548908265363,-0.3581149989035444,-0.07675356748800329,865.2469591579504,671.7099353187134,542.2411073985493,587.0553311243565
0.28,0.0015681916315968775,1.8916497705888968,0.08233650826865573,55.26496248084408,3.2453569447197443,1.4962823264248597,0.006757880164592764,0.1394273179947143,0.13624782560080612,0.0,-0.015704088828779574,-0.5019607049831352,1.2334786126687498,0.043380093560269166,0.41600211149761784,-0.5400386873209007,6.084106717073273,-0.41754133935021814,-0.378260717395008,-0.05661115726234948,839.9005759161308,656.6268749252694,595.4572601920493,606.7186017846218
0.28400000000000003,0.0017250407372706095,1.8861284788595647,0.08345202739200115,55.134049299800175,3.3922092785993048,1.4722815058056735,0.006945935930464247,0.14290212605479424,0.1395987434270168,0.0,-0.014164008709959302,-0.5344473575940056,1.267435274806794,-0.30878754735963443,0.33960486596240325,-0.5668733358658696,6.259265995095449,-0.3292481676333514,-0.39811840377709784,-0.03462985542162871,811.5312315693985,638.6667257721285,646.9221712596808,628.3089104400176
0.28800000000000003,0.0018949659615837586,1.8804202127471596,0.08454469632648427,54.929057470759524,3.5317061799906746,1.428677167156172,0.007136071729158465,0.14640359133335645,0.1429764246845496,0.0,-0.012025250393562597,-0.5686099867289749,1.3011081922225334,-0.6419545869136567,0.25739029977454636,-0.5909077039357687,6.43144330208726,-0.2408828042339156,-0.4145074844821478,-0.010847080171726788,779.5784996589852,617.9495086900489,696.4679715416713,652.0948420349602
0.29200000000000004,0.002078310232041016,1.8745239250386028,0.0856166085466423,54.65527759786822,3.66211492858137,1.3647715467878245,0.007328255755392794,0.14993126789102912,0.14638042661570336,0.0,-0.00923698938379124,-0.6043917549109896,1.3344054378704064,-0.95347551524103,0.16929124683753102,-0.6115756160300085,6.600064029959951,-0.1534866657239733,-0.4282165950874901,0.014558821094468176,744.00042254649,594.1817134871399,744.2183848087777,677.6245329505258
0.29600000000000004,0.0022753390452908027,1.8684388077615288,0.08667007848222502,54.31876816099271,3.7815614261964288,1.2800305051748961,0.007522456511811807,0.15348471419610682,0.1498103108283251,0.0,-0.005750402207910642,-0.6417121895374398,1.3672393585576033,-1.240464701575123,0.07534903275025698,-0.6281394049055755,6.76460794357488,-0.06827018640605231,-0.4387984371678446,0.041426779200210345,704.5392995160165,567.1100606335749,790.1222072508193,704.6914931002833
0.30000000000000004,0.002486237170241106,1.8621642335611468,0.08770765308838885,53.9260787555438,3.888022467005069,1.1740511183528024,0.0077186428064260565,0.15706349308755374,0.15326564325920558,0.0,-0.0015197014321792046,-0.6804658199866364,1.399536813990898,-1.5001741739513224,-0.024358658489643747,-0.6400299947469272,6.924524336049704,0.01382264246079673,-0.44584690484207745,0.06962690169555338,660.7371938926506,536.3543268834286,834.1928671272049,733.1112356517216
0.30400000000000005,0.0027111073988923574,1.855699656316147,0.08873215609286594,53.484106323772544,3.9793551151188775,1.0465451948411997,0.007916783750070594,0.16066717173829334,0.15674599413775817,0.0,0.003497807608118071,-0.7205246518941271,1.4312590819427207,-1.730610793105607,-0.12984308674732584,-0.6469080379484684,7.079165339957299,0.09197755686473436,-0.44899839674600384,0.09904319096706081,611.8835001465584,501.3519332964948,876.4593329883031,762.7142040768362
0.30800000000000005,0.002949971830953655,1.8490444667703185,0.08974676445362563,52.99995098545333,4.053219040945672,0.8973920328805686,0.008116890527131347,0.16429402741466886,0.16025093794997916,0.0,0.009341867810983132,-0.7617428151625415,1.4624148401123631,-1.930533012152819,-0.24118805823240272,-0.648268042435485,7.227719143395426,0.16552007660099188,-0.44732929341257344,0.1294933294410255,556.889164211625,461.51886175290224,916.8262542317382,793.3165300135346
0.31200000000000006,0.003202707922902799,1.8421987127576096,0.090754432704695,52.48110705650934,4.107314127738816,0.7268636298852196,0.008318932343763347,0.16794365142556833,0.1637800534026873,0.0,0.016045861198250154,-0.8039584688971146,1.4929687022462814,-2.098818134103813,-0.35800612397715953,-0.6435776535241959,7.370531022326033,0.23353381224782943,-0.4408487110860937,0.16052505004995307,494.7143502188873,416.2823105355738,955.0251578334285,824.4066436073765
0.31600000000000006,0.003469069208434363,1.8351626940571215,0.09175814577736478,51.93521666620751,4.139364398412416,0.5355256175357148,0.00852287870598634,0.17161563916451306,0.16733292338804046,0.0,0.023633318080651066,-0.8469949107992993,1.5228513538984632,-2.2345048242309096,-0.4794614579436386,-0.632286986691369,7.507440287498191,0.29535789547956115,-0.4290776277830315,0.19178566472274922,422.99287250730265,364.4671529061177,990.8799988292816,855.6667622989331
0.32,0.0037486773643391467,1.8279369504259664,0.09276087694679136,51.369984805721884,4.147164640949115,0.32427525962886145,0.008728699417184191,0.17530959007520786,0.17090913494832735,0.0,0.03211579047048819,-0.8906626295142257,1.5520327888995393,-2.3371547267260153,-0.6046255142114239,-0.6140092744114637,7.638370677061902,0.35041521547546817,-0.4117303353658372,0.2,394.03038191046727,366.23436886009824,1003.5862968589561,862.8505580044024
0.324,0.0040410166287002305,1.8205222242878722,0.09376556472413174,50.79310475372403,4.128792161312301,0.09425550400286041,0.008936364575623607,0.17902510761735904,0.1745082792410327,0.0,0.04149243498679352,-0.9347640605241934,1.5805268904175098,-2.406810740395895,-0.7324548428198383,-0.5886609580323178,7.763293246391249,0.3982060666238599,-0.38879027178720077,0.2,383.04635282983304,387.25918103509116,1007.5322304678112,862.4859257805207
0.328,0.004345465686946009,1.8129188407548458,0.0947755883250643,50.21221182831758,4.082895529968588,-0.1533750027590003,0.009145882185006874,0.18276079977534554,0.17812995150417293,0.0,0.05175149129107572,-0.979095289625983,1.6084455195887233,-2.4437502844911423,-0.8617275391462629,-0.5570956407367214,7.881215235372006,0.4382801786844187,-0.36058733976586654,0.2,372.03119539530303,406.4285172167053,1010.2551597028755,863.2988174071962
0.332,0.004661298791405697,1.8051265279333657,0.09579491008503453,49.634629544932594,4.008522748256622,-0.41744851712025116,0.00935722247328873,0.1865162899688596,0.18177375102190133,0.0,0.06287366488661865,-1.0234482970893888,1.6360276326949208,-2.4487986003833297,-0.9913266023204349,-0.5207741259200905,7.990840845973741,0.4704823340905721,-0.32824333281922147,0.2,361.2342927109666,423.68980994183715,1011.828544130694,865.1677597148549
0.336,0.004987655643522354,1.7971447380024832,0.09682779131818668,49.067014546715946,3.9049845769271667,-0.6968211507448672,0.009570355960072014,0.19029120542382796,0.1854392810903802,0.0,0.07483614194548906,-1.0676194019455447,1.6635549342468738,-2.4238128636477883,-1.1204472786820276,-0.4808598898887836,8.091432402431606,0.4950881505901086,-0.2911200293620866,0.2,350.42041765556894,439.42271729741583,1012.2162226985323,868.1094965392219
0.34,0.005323518592950301,1.7889728445998838,0.09787859901542724,48.51546776349223,3.771946712323498,-0.9902363610999686,0.009785253454169184,0.19408517714015677,0.18912614898391802,0.0,0.08761265792387987,-1.1114173959703184,1.6912447559538943,-2.3714749524370906,-1.2483214178992632,-0.4381193765539293,8.182635047988875,0.5122843971059844,-0.24917432916142612,0.2,339.5143369503029,453.8184467154718,1011.4266677203414,872.0930278857248
0.34400000000000003,0.0056676986089690025,1.7806102742399037,0.09895165455630316,47.985487040261795,3.6094537882563116,-1.296291567130317,0.010001942641611783,0.1978964371519182,0.19283396592137,0.0,0.10117098836857123,-1.154666056840559,1.7192533565640893,-2.294452874423513,-1.3737174039026552,-0.393142134697179,8.264397638386956,0.5223469015414134,-0.20183629761094024,0.2,328.28268255200976,467.15509222052225,1009.4312720319697,877.1321980087985
0.34800000000000003,0.006018829015347625,1.772056575884245,0.10005112963411592,47.48192917873629,3.4179279249511163,-1.613439632124996,0.010220394221268917,0.20172464079420663,0.19656234703279937,0.0,0.11547039217410285,-1.1972044930136085,1.7476968523882792,-2.195511217529657,-1.4951822128019974,-0.34640741494017296,8.336881744318212,0.5256332192791997,-0.15057445801397618,0.2,317.00038863878564,479.32629196507656,1006.3815643200684,883.0334497919891
0.35200000000000004,0.006375365114218976,1.763311454469627,0.10118097206803497,47.008978969511205,3.1981474515432273,-1.9400096848799042,0.010440579180177146,0.2055694469281246,0.20031091132639842,0.0,0.13046124368277687,-1.2388885820906854,1.7766646559539894,-2.077534755171834,-1.6112252563565241,-0.29830766228169237,8.400404313096143,0.5225775132110511,-0.09501991004632332,0.2,305.4505620464178,490.5693446130563,1002.2781548716891,889.778519567806
0.35600000000000004,0.0067355862771308365,1.754374730334105,0.10234490338298716,46.57023347204627,2.9514466549107263,-2.2739968700506634,0.010662468791126934,0.2094305179107517,0.20407928165566652,0.0,0.14608187473547027,-1.2795910928619092,1.8062351110310437,-1.9433335813822918,-1.719890659613077,-0.24917162992426128,8.455294380151493,0.5135585619444317,-0.03570712257198527,0.2,293.6637021639839,500.92957229937406,997.191772717492,897.2660478843246
0.36000000000000004,0.007097605511817515,1.7452463472445137,0.10354637186889093,46.16864577924918,2.679606672691381,-2.613182922048971,0.01088603461026779,0.2133075195653481,0.2078670846868438,0.0,0.16225556177479306,-1.3192015902973764,1.8364810424090685,-1.795621619229386,-1.8188775375801178,-0.1992772792495316,8.501983501973868,0.49905849123217433,0.026832241298482717,0.2,281.6476096138142,510.4647313097297,991.2017811756629,905.3881116931024
0.36400000000000005,0.007459382291357354,1.735926354266112,0.10478853460777228,45.80652470527632,2.3848384820298065,-2.9551481069882266,0.011111248474731932,0.2172001211517906,0.21167395086659824,0.0,0.17888925998204025,-1.357626587479591,1.867468247701984,-1.637105186607466,-1.9060084465020595,-0.1488597864660783,8.540948462304911,0.4796017657049978,0.09201169562830791,0.2,269.41732529899065,519.2234142425833,984.3960110654224,914.0307042743096
0.36800000000000005,0.007818738917434712,1.7264148829745602,0.10607424884345244,45.485542821330256,2.0697652289377424,-3.297277376415107,0.011338145642565273,0.22110642118333512,0.21549951438996442,0.0,0.19587460874463142,-1.394790024148935,1.899255904592712,-1.4704570554426435,-1.9792719369368836,-0.0981167688259565,8.572692884844209,0.45574591178548823,0.15992129543492897,0.2,256.7536969699908,527.3641014570165,976.8061854510867,923.143552415625
0.37200000000000005,0.008173380838199148,1.716712125215435,0.10740606839011002,45.20676540385783,1.7373564081891493,-3.6368120378421134,0.011566697745829342,0.2250261146518393,0.21934341316853218,0.0,0.21308783860625327,-1.4306329827828788,1.9318985612102426,-1.2982216446061767,-2.03681373421566,-0.0472207434405157,8.597737282591162,0.4280569922749801,0.22847807415968646,0.2,244.15629575832946,534.684848859425,968.6573908109601,932.4762889608915
0.37600000000000006,0.00852092072143953,1.706818313852424,0.10878624295346684,44.97071689743581,1.3907861056796162,-3.9709562526532416,0.011796876697423252,0.2289588997270948,0.22320528879888304,0.0,0.23039211361156992,-1.4651125108371101,1.965446057063715,-1.1227101898438785,-2.077230724017208,0.0036889880333764737,8.616613261834832,0.3970642436627886,0.29779933030364847,0.2,231.4288979847896,541.3362091458788,959.9804639664493,941.9929515905965
0.38000000000000006,0.008858898695842747,1.6967336994071678,0.11021672285151958,44.77727968376677,1.033675757039294,-4.296598685457871,0.012028654688724789,0.23290447772955783,0.22708478653127295,0.0,0.24763682130245393,-1.4982013896569764,1.9999435709141,-0.9462169081453679,-2.098898375243997,0.05450802382011362,8.629852586051108,0.36345173039606926,0.36703751926508915,0.2,218.64880090462032,547.33105714095,950.9079145064178,951.5575170560272
0.38400000000000006,0.009184808850927937,1.6864585300557002,0.11169916762443736,44.6256717394247,0.6701262214387432,-4.610282807733928,0.012262037753478089,0.2368608066479717,0.23098155523855904,0.0,0.26465100652938967,-1.5298900866516416,2.0354309894870695,-0.7711856652189892,-2.0995300907241994,0.10511952867679886,8.637979132996582,0.3279735945917025,0.43557753141104766,0.2,205.78519979406548,552.7262897660629,941.5617507751231,961.0537733232435
0.388,0.009496135166960564,1.675993033318045,0.1132349637653987,44.514663314454445,0.30429046471618815,-4.908561548030306,0.012496998229011397,0.2408276150435039,0.23489524738536907,0.0,0.2812438382276529,-1.5601858868189622,2.0719431689789465,-0.5998067113425922,-2.077326260571999,0.15542107211441414,8.641490109821675,0.2911769353004844,0.5019871304593531,0.2,193.25412856974606,557.4155505826866,932.1245238301509,970.3154704547301
0.392,0.009790381726260603,1.6653374064791127,0.11482523194058852,44.44254090395987,-0.05953381889472137,-5.187874186043972,0.01273350872781824,0.24480463435732683,0.23882551899751156,0.0,0.29721003658175066,-1.5891103921386538,2.1095099883534756,-0.43381701672593803,-2.0314857588907924,0.20533473216664544,8.64087682037264,0.25368239824644134,0.5658831991442053,0.2,181.05127219945052,561.4657783320864,922.6949637496635,979.2682845690553
0.396,0.010065105846858557,1.6544918046779624,0.11647084277193623,44.40715312646561,-0.41696679683987387,-5.444569548443309,0.012971542135241376,0.2487915988857257,0.24277202963162442,0.0,0.3123325962864655,-1.6166980999520582,2.1481553687288737,-0.27484186512153896,-1.9612879697648808,0.2548023643683403,8.636607057393308,0.21609133206681716,0.6265160057476387,0.2,169.3635555444904,564.8801945885955,913.4082555354987,987.8096946241399
0.4,0.010317951965720254,1.6434563310815873,0.11817243451868219,44.40596200102306,-0.7636090937146196,-5.674931188402393,0.013211071607174742,0.25278824575540254,0.2467344423450612,0.0,0.3263819230578987,-1.642996179612232,2.187897301985298,-0.1243568959572953,-1.8661762800362571,0.303770157392113,8.629120746220234,0.17897665244772903,0.6831635047028383,0.2,158.42687556125657,567.6589685611715,904.3992944478753,995.844707561846
0.404,0.010546685808537936,1.6322310290451136,0.11993043236088931,44.43609967981769,-1.095101909814844,-5.875204830188412,0.013452070567783225,0.25679431489897475,0.2507124236660123,0.0,0.3391172301357993,-1.6680633568927323,2.228747699753135,0.016362355025026927,-1.7458846153405687,0.35219423187746,8.618826130408962,0.142873235005873,0.7351369053086387,0.2,148.5368925978382,569.7986018823065,895.8008325713001,1003.286354648032
0.40800000000000003,0.010749228412337133,1.6208158759980347,0.12174506919192327,44.494429799119125,-1.4071853832977703,-6.041630074243876,0.013694512707240142,0.2608095490306664,0.25470564356386005,0.0,0.3502881114246588,-1.691968724835712,2.270711892928352,0.14624559182351177,-1.600438113628965,0.4000392593238059,8.606096094916158,0.10826887308015828,0.781786987586476,0.2,140.05405190795798,571.2914733602804,887.7413058818391,1010.0561591861723
0.41200000000000003,0.010923689575330098,1.6092107790151196,0.12361640757254169,44.57761260981442,-1.6957541054897338,-6.170476511129078,0.013938431941380542,0.26483096058054856,0.2587137754197653,0.0,0.35963632516646976,-1.7147904604195,2.3137880143196434,0.26442974364438443,-1.4301576657036523,0.4472774054099055,8.59126514607227,0.07559585632609218,0.8232080596196597,0.2,132.94321390378425,572.23049189038,880.2741577399016,1016.1437039494949
0.41600000000000004,0.01106840034299525,1.597415572154321,0.12554436234858052,44.682172919207176,-1.9569085007476388,-6.258083243736706,0.014183801763975795,0.26885833064878717,0.26273649599748455,0.0,0.36689780960979723,-1.7366144658778389,2.3579661723986827,0.37025817821956103,-1.2356598822127398,0.49388811289370305,8.574627365161069,0.045223376118926836,0.8574888508444397,0.2,128.5061495533851,572.3938086979501,873.6444435455816,1021.3730341356344
0.42000000000000004,0.011181944428005991,1.585430020745686,0.12752871680588324,44.804518665419394,-2.1869560264584966,-6.300856223101628,0.01443059593465083,0.2728914427478395,0.26677348541441526,0.0,0.37180436532790695,-1.7575334075893416,2.4032263854968465,0.46319120042758766,-1.0177401191194877,0.5398587771763437,8.556448803812732,0.01751062199875239,0.8847249602511904,0.2,126.74519076341413,571.8574201472424,867.9020065690967,1025.7389264531048
0.42400000000000004,0.011263187644816635,1.5732538156533669,0.12956915414899495,44.94107391812776,-2.382501082990341,-6.29537133196192,0.014678788476638545,0.27693008278130016,0.2708244271128679,0.0,0.37408505556391675,-1.7776460366914406,2.4495379274910927,0.5429071539467578,-0.7774941480741893,0.5851728351580269,8.536935869253849,-0.007328026238607427,0.9044647106363803,0.2,127.95454492608864,570.588809878894,863.134546614948,1029.1995413207205
0.42800000000000005,0.01131130473015551,1.5608865546624677,0.1316653072947954,45.08859481053836,-2.540673517982372,-6.238595401321756,0.014928353674551675,0.2809740390229151,0.27488900783156306,0.0,0.3734731553497281,-1.797051535665954,2.4968636173746224,0.6097264979517064,-0.516780540407706,0.6298326346521913,8.516197150300929,-0.029445719442946883,0.9165427003372724,0.19023830421441212,187.98733135714494,584.0190625308281,848.9161848117334,1023.0809947798324
0.43200000000000005,0.011325805667069413,1.548327788134803,0.1338167323939256,45.24384650819966,-2.658790622948718,-6.127729903073116,0.015179266072171991,0.2850231020957618,0.2789669175773519,0.0,0.36971075186364377,-1.8158467536305891,2.5451540386571714,0.6640708712626779,-0.23766091862655175,0.6736688110626824,8.49439662546873,-0.0486388371275555,0.9204112627335721,0.12515726977959624,395.3520311643589,675.8406846316005,772.7135925747153,964.9199783605799
0.43600000000000005,0.01130657848650903,1.5355772754170367,0.1360227503033473,45.403759651923494,-2.733660436564132,-5.960726537104176,0.015431500470256692,0.2890770649515948,0.2830578495971585,0.0,0.3625523560694652,-1.8341224071587547,2.5943092752543273,0.7060563363650066,0.058512922488241914,0.7148568099175195,8.472022502274944,-0.06488480158525631,0.9145007513037682,0.0554546653406868,535.607565883731,761.3781001218141,683.5513727968109,897.1002585610393
0.44000000000000006,0.011253979842550717,1.522635606472035,0.13828194223254706,45.56591585432525,-2.761821976151312,-5.735505356356183,0.015685046538715827,0.29313265426073454,0.28716150035014193,0.0,0.3517604958802729,-1.8519528633952742,2.6441023375556028,0.7365459171455835,0.37155655186343967,0.7512205833638621,8.450594131613498,-0.07873713792123047,0.8970568031393793,-0.018994506697107755,654.0080790091074,842.4733897746215,575.456448997614,816.9814355700258
0.44400000000000006,0.011168887466800314,1.5095043103171604,0.1405919679943209,45.72855508727148,-2.7394395599284014,-5.450357713365894,0.01593987940984644,0.29718970450452625,0.29127756948007694,0.0,0.337105561999662,-1.8693947247246705,2.6941720589416365,0.757449075135298,0.7017330695036879,0.7803810040472128,8.432023357019778,-0.09080082444584292,0.8660414984523882,-0.09784598338231165,760.7487190242713,919.7424819220586,435.5931009735998,720.7761048120688
0.44800000000000006,0.01105272377111053,1.4961859179851282,0.14294947152853568,45.89031843694357,-2.662666759535043,-5.103818165698185,0.016195974468033107,0.3012480520979453,0.29540575978795147,0.0,0.31836554980820003,-1.8864976173826284,2.7440894080282487,0.7705031031409075,1.0488368236005055,0.8010624312775025,8.418443189875905,-0.1014242376593039,0.8205878924817727,-0.1808900090036145,860.1162731811622,993.8111549208463,208.68949493301346,601.1022222745303
0.452,0.010907436386989355,1.482683830189034,0.1453501628661792,46.049778450278794,-2.5272486334048376,-4.695299816823298,0.016453307347609063,0.3053075353722828,0.2995457772047791,0.0,0.29534253685655576,-1.9033191654242956,2.7933925770487065,0.7759452805749942,1.4119368586969614,0.8107496767967234,8.411852736349205,-0.11043380483354273,0.7596739516116539,-0.2,886.8978337864841,1005.1612585490905,131.8033859986037,563.2546536103664
0.456,0.010735655073411917,1.4690037022897644,0.1477873750581687,46.204475140411475,-2.3284102403627323,-4.223939128215901,0.016711853930733975,0.30936799455796987,0.30369733076462546,0.0,0.2678645524375283,-1.91995694260407,2.8414163228241893,0.7711603513109393,1.7910427079455427,0.8074147433544825,8.417209671839416,-0.11652458213783447,0.6800683941179383,-0.2,895.2720820774094,997.8667974406798,173.77362370868588,552.0362200038795
0.46,0.010540180839860913,1.4551496160598105,0.1502559257974524,46.35199818460162,-2.0630615718886234,-3.6894139494945084,0.01697159034528826,0.31342927176753965,0.30786013257784617,0.0,0.2357834193044705,-1.9365576839581813,2.8877508182489438,0.7531440142161588,2.1842018975750848,0.7911222161904654,8.431710290965986,-0.11958301881647762,0.5887156141045176,-0.2,904.5471989351296,989.895318486768,214.0951018011012,538.4725416949934
0.464,0.010323889513554894,1.4411227706164123,0.15275349649216705,46.491255643223816,-1.7306999851202316,-3.0930955059263248,0.017232492962783844,0.31749121097872596,0.3120338978045354,0.0,0.1990003369474754,-1.953281986015925,2.9326445552740865,0.722170127986037,2.5837013783330307,0.7650857112017101,8.449704772429435,-0.12097880180702306,0.4893175543224769,-0.2,914.3857149881745,981.3509181454616,251.49802190454167,523.0589062512556
0.468,0.010089864486377635,1.4269219027178968,0.15528027115109863,46.622730615704775,-1.3332398658930031,-2.4383144709523314,0.0174945383962912,0.3215536580176978,0.3162183446281834,0.0,0.15752607518685835,-1.9702460429406965,2.976767787410182,0.6824581179989169,2.976986706010562,0.7319825113931475,8.466184943874648,-0.12247071534706865,0.3829614856906467,-0.2,924.7530263725278,972.0836452377764,286.0139668934299,505.9662024059292
0.47200000000000003,0.009841579733537786,1.412544520889315,0.15783772018938041,46.74776089117497,-0.8743473703704181,-1.729879263725557,0.017757658800606188,0.3256125489490112,0.320413194229541,0.0,0.11150548454935275,-1.9875091327240395,3.0206250391826193,0.638798564399839,3.3517381177815,0.6937641995583246,8.478531181641833,-0.12508441057707365,0.2689038406479518,-0.2,935.753535334464,961.8743246250875,318.3860788365347,486.98892613517756
0.47600000000000003,0.009582981275303288,1.3979877136924699,0.16042779982225075,46.86787839813481,-0.35864982554304764,-0.9733416392040346,0.018021831803744563,0.3296677803258845,0.32461817076069005,0.0,0.06119797356744907,-2.005097905646042,3.0643850853980092,0.5937777037918246,3.699302527843968,0.6516836581211718,8.485707732837604,-0.1291335722755716,0.14815594096129014,-0.2,947.2857447361478,950.7399035241547,348.8405797711299,466.1093330428608
0.48000000000000004,0.009318502012459701,1.3832485839978526,0.16305253103261017,46.98453440526378,0.2085448030926884,-0.1747530123163256,0.018287035264292328,0.3337192500746414,0.3288330013193179,0.0,0.006944917822612228,-2.0230322981408237,3.1079772618617074,0.5481403870932796,4.014343960085521,0.6066736545704132,8.48751788383758,-0.13462533850191863,0.02067099926561311,-0.2,959.3323248844796,938.6394468232269,377.8428690963207,443.0443556634215
0.48400000000000004,0.009053035720545175,1.3683244794841933,0.16571377995130643,47.09894027289406,0.8214679125802186,0.6595158706301479,0.018553247269435993,0.33776685748190843,0.33305741592319477,0.0,-0.05085302110625304,-2.0413388494190126,3.151206533545751,0.5017552683736244,4.29345851717291,0.5594731961694178,8.48420861106209,-0.14137638511897335,-0.1128599085389751,-0.2,971.8003407496487,925.620365781642,405.6055598739066,417.5453361510946
0.48800000000000004,0.008791886874041789,1.3532131079558953,0.16841315079093294,47.21197530643784,1.4740783568305866,1.5229432226349853,0.01882044613300822,0.34181050318191675,0.33729114748485184,0.0,-0.11174942972280373,-2.060055312911171,3.1938264703976587,0.45416768305044164,4.534411125643302,0.5106768802802654,8.476249153139902,-0.1490802256385661,-0.2516350452146883,-0.2,984.5837738423863,911.7555667081998,432.2846722279845,389.26134846030044
0.49200000000000005,0.008540714666783588,1.3379126318454149,0.17115190342262182,47.324165151667586,2.159682125956172,2.4084100155963557,0.01908861039354878,0.34585008914390825,0.3415339317864596,0.0,-0.17524897985411877,-2.0792310104519367,3.2355780317015688,0.40489318986967876,4.73470581867533,0.4607783354302697,8.46428441130945,-0.15738305220927762,-0.394284134369687,-0.2,997.5310430848865,897.1819383429629,457.8989331755283,357.8032888541584
0.49600000000000005,0.008305455536378334,1.32242163745018,0.17393098496619105,47.4356166523804,2.8713948153990336,3.308635983840872,0.019357718812380673,0.3498855186596445,0.3457855074549037,0.0,-0.24080770835571572,-2.0989255871399433,3.2762213240352906,0.3535151237149614,4.891869885410328,0.4101846876670761,8.448906185962537,-0.1658311710488741,-0.539637493521121,-0.2,1010.5060032449088,882.0327482610426,482.50800975927837,322.4611390979523
0.5,0.008092249244576917,1.306739188788779,0.17675098196992314,47.54598911252692,3.601730187896881,4.215709233085699,0.01962690734350654,0.3539129343214684,0.3500456159370582,0.0,-0.30782562831609267,-2.1192070939227463,3.3155530577589483,0.2996974486294092,5.00330007976308,0.35923319461208436,8.430813335110939,-0.17390876615053458,-0.6958336483776013,-0.2,1024.1590870364741,865.5310963981696,507.74942609168147,279.154883185753
0.504,0.007907357398359809,1.2908647229249364,0.1796122234732897,47.65449312924675,4.343190703555305,5.121650526604259,0.019896165334791743,0.35793228730866306,0.35431400147525305,0.0,-0.3756573889952174,-2.1401498136834505,3.353424850680908,0.2432177496463886,5.066985522951311,0.3081951607630329,8.410507080470532,-0.18106781711810438,-0.8426327598997017,-0.2,1036.7443844195423,849.7171872098091,530.357603263174,230.80304078895588
0.508,0.007757076786266992,1.2747981185275958,0.1825147127249185,47.75989556234311,5.087834878852123,6.017886444279515,0.020165482259426677,0.36194352967661647,0.35859041108293643,0.0,-0.4436130992473525,-2.161831534075806,3.3897454837324394,0.18403758434064552,5.080989376174619,0.2572587124370006,8.388635469627314,-0.18673487182862555,-0.987447378991352,-0.2,1048.8713626849885,833.9351457840463,551.9223197460228,169.2682188479972
0.512,0.007647647973879665,1.2585396992160618,0.18545811791551697,47.860526615783016,5.827136681783274,6.895099843841956,0.02043484771480186,0.36594661434803427,0.36287459452052867,0.0,-0.5109520261951284,-2.1843301526874646,3.4244759367140234,0.12237183726509296,5.042357883432406,0.20660512394559807,8.365875781870555,-0.19031354275044193,-1.0,-0.2,1049.8787413018042,831.8668129076726,552.7197208574187,162.60286018766126
0.516,0.007585179803629597,1.2420900706876254,0.18844192820073125,47.95434117425851,6.5527364273662565,7.743977275943761,0.02070425142139201,0.36994149510422675,0.36716630427146707,0.0,-0.5768859942167747,-2.2077191757804133,3.4576530587797754,0.058634066569976495,4.948965414157383,0.1563852769682807,8.342599365947516,-0.19124804174205318,-1.0,-0.2,1049.6312207251842,831.3607197316795,551.9577354474799,160.99695097978687
0.52,0.007575596354569035,1.2254499731883977,0.19146560268051688,48.03890704158356,7.256926564050016,8.555855870537389,0.02097368322164912,0.37392812657646934,0.37146529551844043,0.0,-0.64061560279984,-2.2320641082906616,3.489416715370711,-0.006926215495425103,4.802257636557089,0.10683597705367591,8.318880961518996,-0.18894175327488177,-1.0,-0.2,1049.1113530950552,831.1825569906806,551.6893495918696,157.57204668558748
0.524,0.007624613725857077,1.2086200931567839,0.19452877552222267,48.111483116032346,7.93351187815972,9.323574365279804,0.021243112251218468,0.3779029732575231,0.3757713261198114,0.0,-0.7013968987832182,-2.25742466453456,3.519995698099308,-0.0744345219768977,4.607823943924244,0.05813690996516222,8.294380005095098,-0.18286118219349587,-1.0,-0.2,1048.2701330919451,831.3818375658025,551.989542692454,151.8703086068885
