Time_s,X,Y,Z,Roll_deg,Pitch_deg,Yaw_deg,Ref_X,Ref_Y,Ref_Z,Ref_Yaw,vx,vy,vz,p,q,r,T_pert,tau_x,tau_y,tau_z,RPM_0,RPM_1,RPM_2,RPM_3
0.0040000000000000036,-2.798946647683418e-21,1.37744965036477e-21,0.01003499799351977,-6.01761170932068e-18,-1.7054220503979156e-17,1.108064124275906e-19,-2.47386950938701e-21,1.3931739854613302e-21,0.010102637106229231,2.0678293718503742e-21,-9.102185277715622e-20,4.0918147313630385e-20,0.0009999428386350817,0.0,0.0,0.0,0.13727468792832118,6.8437253886137715e-18,2.37028705751594e-17,8.961505622985407e-21,539.3554476942799,539.35544769428,539.3554476942799,539.3554476942799
0.00799999999999998,-3.459831812988452e-21,1.3845579627174353e-21,0.01003899776487431,-5.652902205509872e-18,-2.061396875136395e-17,1.233015104013424e-19,-2.473692456326187e-21,1.3930742770015876e-21,0.01024505262874864,2.0676813787900465e-21,-1.1987511989491296e-19,2.4921196140253246e-20,0.0009999428386350817,0.0,0.0,0.0,0.2830735369884268,2.396552177589114e-19,9.510931888839546e-18,-1.4291139743139383e-20,543.2937799609733,543.2937799609734,543.2937799609733,543.2937799609733
0.011999999999999983,-3.789001476615313e-21,1.5658424337073586e-21,0.010042997536228851,-5.845875328636698e-18,-2.2529224215816874e-17,1.5969053224878205e-19,-2.473428474973666e-21,1.3929256143693899e-21,0.010457390343103182,2.067460725116806e-21,-1.216284466907534e-19,3.514650864305478e-20,0.0009999428386350817,0.0,0.0,0.0,0.4293950764207388,2.6480236227787494e-18,3.3944402467009446e-19,-4.272132150559501e-20,547.2177351054995,547.2177351054995,547.2177351054995,547.2177351054995
0.015999999999999986,-4.062582772708426e-21,2.032601024407849e-21,0.010046997307583391,-7.977389981522994e-18,-2.3740824822423128e-17,1.5981578875868153e-19,-2.4730786179722763e-21,1.3927285903666613e-21,0.010738803538833117,2.0671682907015405e-21,-9.267199476444125e-20,6.086824687488e-20,0.0009999428386350817,0.0,0.0,0.0,0.5762280481375219,6.36807112818013e-18,2.5948731340138446e-18,-1.85908300915964e-21,551.1273215220733,551.1273215220734,551.1273215220733,551.1273215220733
0.01999999999999999,-4.5822919234966875e-21,1.9878001089057454e-21,0.010050997078937932,-7.163565386194157e-18,-2.6323277953186656e-17,1.7259956818751133e-19,-2.4726439284246564e-21,1.3924837924227122e-21,0.011088453179286896,2.066804947440793e-21,-9.199033069616807e-20,6.070043804033627e-20,0.0009999428386350817,0.0,0.0,0.0,0.7235613107359736,-5.97201938415086e-18,7.751172739459002e-18,-1.665681689557929e-20,555.0225493261183,555.0225493261185,555.0225493261183,555.0225493261185
0.023999999999999994,-4.795002168724305e-21,2.19367538610503e-21,0.010054996850292472,-7.922600872007231e-18,-2.7592197065890202e-17,1.8044022504645141e-19,-2.4721254399701843e-21,1.3921918026375632e-21,0.011505507839740775,2.066371559321066e-21,-8.795040964384681e-20,5.262078310828056e-20,0.0009999428386350817,0.0,0.0,0.0,0.8713838384990615,4.266912591258007e-18,1.576753755656335e-19,-1.141295419491261e-20,558.9034302705253,558.9034302705254,558.9034302705253,558.9034302705254
0.027999999999999997,-4.82245887645817e-21,2.4642261105307294e-21,0.010058996621647012,-9.135398351995157e-18,-2.7896981391965315e-17,1.9611117593943265e-19,-2.4715241768613273e-21,1.3918531978249411e-21,0.011989143645986976,2.0658689824826403e-21,-3.974291684806074e-20,4.581840973804904e-20,0.0009999428386350817,0.0,0.0,0.0,1.019684720404244,2.8911210767769416e-18,2.851167556770462e-19,-2.088758892259271e-20,562.7699776662242,562.7699776662243,562.7699776662242,562.7699776662242
0.032,-5.175433367360505e-21,2.6340529625012002e-21,0.010062996393001553,-9.672433243683311e-18,-2.9870438229351334e-17,2.2936720480306595e-19,-2.4708411540394092e-21,1.3914685495549488e-21,0.012538544213386968,2.0652980652829064e-21,-5.0369794720686505e-20,5.507109951394061e-20,0.0009999428386350817,0.0,0.0,0.0,1.168453159139926,3.1393142694530752e-19,8.053413958657814e-18,-4.2078996884035407e-20,566.6222063068153,566.6222063068154,566.6222063068153,566.6222063068153
0.036000000000000004,-5.557423188693168e-21,2.6767098114685227e-21,0.010066996164356093,-1.0404569664063186e-17,-3.162500019398116e-17,2.292533567053288e-19,-2.470077377209809e-21,1.3910384241964125e-21,0.013152900586386478,2.064659648359219e-21,-5.175567737331164e-20,2.154876600868068e-20,0.0009999428386350817,0.0,0.0,0.0,1.3176784701296234,1.8860085066178415e-19,4.751125733571318e-18,-4.4691643987002214e-21,570.4601323970237,570.4601323970238,570.4601323970237,570.4601323970237
0.03999999999999998,-5.380916593977154e-21,2.5224829444409223e-21,0.010070995935710633,-9.92098666292231e-18,-3.1092746800010157e-17,2.60417109683676e-19,-2.4692338429165842e-21,1.3905633829589075e-21,0.01383141117848888,2.0639545646912754e-21,-4.414359970304811e-20,-6.582208119407978e-21,0.0009999428386350817,0.0,0.0,0.0,1.4673500805637998,-2.0982216016053428e-18,-4.617472044034156e-18,-4.10076374839679e-20,574.2837734847578,574.283773484758,574.2837734847578,574.2837734847578
0.043999999999999984,-5.926010212530248e-21,2.549338911087132e-21,0.010074995707715596,-9.907496199562349e-18,-3.378362489869437e-17,3.246148099704121e-19,-2.4683115386165333e-21,1.390043981934466e-21,0.014573281712683631,2.063183639663018e-21,-6.290278407300336e-20,-2.1957918042409802e-21,0.0009999429036773241,0.0,0.0,0.0,1.617457527119225,2.657451124130251e-18,1.3562327035523006e-17,-8.088226125640068e-20,578.0931483631748,578.0931483631749,578.0931483631748,578.0931483631749
0.04799999999999999,-6.073585503799303e-21,2.2041851922383064e-21,0.010078995488712607,-8.330918950831188e-18,-3.505259746326539e-17,3.83973617175847e-19,-2.4673114427526928e-21,1.3894807721389681e-21,0.01537772516232639,2.0623476911240717e-21,-5.092381573175758e-20,-4.398026612875899e-20,0.000999943867924409,0.0,0.0,0.0,1.7679904420158794,-5.463443921373924e-18,-3.5136072202487938e-19,-7.787199897482804e-20,581.8882766840005,581.8882766840006,581.8882766840005,581.8882766840005
0.05199999999999999,-6.1240110848807646e-21,2.19233848871668e-21,0.010082995288445471,-8.593485616849142e-18,-3.60675954313653e-17,3.9903473093995418e-19,-2.466234524827279e-21,1.3888742995532192e-21,0.01624396169246759,2.061447529450712e-21,-3.090804235807489e-20,-5.760434375719854e-20,0.0009999467057568087,0.0,0.0,0.0,1.9189385788999394,4.483705088204975e-18,2.6112395182140214e-18,-2.8569016482501765e-20,585.6691795806075,585.6691795806076,585.6691795806075,585.6691795806075
0.055999999999999994,-6.324969421261361e-21,2.206733198701767e-21,0.010086995112843911,-8.741838301295706e-18,-3.7443486928460776e-17,4.1647128481035577e-19,-2.4650817454740766e-21,1.3882251051637154e-21,0.01717121860162617,2.060483957606373e-21,-4.3001914583968354e-20,-1.7994176173949714e-20,0.0009999516470965072,0.0,0.0,0.0,2.0702918099289667,1.066290183983763e-18,5.908525372991811e-18,-3.1968725882832397e-20,589.435879553112,589.4358795531122,589.435879553112,589.435879553112
0.06,-6.512133920853429e-21,2.248455106513945e-21,0.010090994963945301,-8.864710288434792e-18,-3.823855336853312e-17,5.905553200676833e-19,-2.4638540565302756e-21,1.3875337250030998e-21,0.018158730264005187,2.0594577712016917e-21,-3.162577037859891e-20,6.96337432421143e-21,0.0009999578155886132,0.0,0.0,0.0,2.2220401145797513,1.081301746833968e-18,3.53648982836697e-18,-2.1568021366554465e-19,593.1884001543172,593.1884001543173,593.1884001543172,593.1884001543173
0.064,-6.488571578325376e-21,2.255575493467647e-21,0.010094994841390302,-8.8411495615812e-18,-3.8353920557119906e-17,7.646393553250109e-19,-2.4625524011077652e-21,1.3868006901903115e-21,0.019205738072146154,2.0583697585541037e-21,-1.9051995613015107e-20,8.112027415927272e-21,0.0009999644042066325,0.0,0.0,0.0,2.374173575533177,2.2019978769099233e-19,4.929878090572842e-19,-2.2283521677151184e-19,596.9267658612946,596.9267658612947,596.9267658612946,596.9267658612946
0.068,-6.633394551954181e-21,2.1265177934587128e-21,0.010098994743740585,-8.232555263960318e-18,-3.936001230814105e-17,6.301793080210751e-19,-2.461177713663885e-21,1.3860265269704298e-21,0.02031149038001883,2.057220700746979e-21,-2.1767939540621203e-20,-1.0288093693637635e-20,0.0009999708704060833,0.0,0.0,0.0,2.52668237807137,-1.676769923048476e-18,5.7841453813467595e-18,1.3043796539913046e-19,600.6510020376103,600.6510020376105,600.6510020376103,600.6510020376104
0.07200000000000001,-6.563908850588643e-21,2.160717157217028e-21,0.010102994668789382,-8.509238577297734e-18,-3.9108674086204913e-17,7.995124630658139e-19,-2.4597309200716395e-21,1.3852117567542157e-21,0.021475242446543353,2.0560113716883126e-21,-6.316983753732247e-21,-9.837725205348274e-21,0.0009999769345077347,0.0,0.0,0.0,2.679556811170834,2.69060343462233e-18,6.636269427410797e-20,-2.1892590891836117e-19,604.3611349382902,604.3611349382903,604.3611349382902,604.3611349382902
0.07599999999999998,-6.6456092762794195e-21,2.0850133962374456e-21,0.010106994614190807,-8.262714923408053e-18,-3.93876972897837e-17,9.498420972601987e-19,-2.4582129376893782e-21,1.384356896157353e-21,0.022696256379541497,2.0547425381689696e-21,-8.893272827026642e-21,-1.270387353882812e-21,0.000999982462692936,0.0,0.0,0.0,2.832787265943773,-9.488333964587561e-19,4.749534354243767e-18,-2.0368698370819372e-19,608.057191651132,608.057191651132,608.057191651132,608.057191651132
0.07999999999999999,-6.6536666273705336e-21,2.0611797658453148e-21,0.010110994577892163,-8.20855658459845e-18,-3.942491906322481e-17,6.840287411603104e-19,-2.4566246754299474e-21,1.383462457039391e-21,0.02397380108011401,2.0534149599204845e-21,-2.774313302403247e-21,-9.612782976075016e-21,0.0009999874305490972,0.0,0.0,0.0,2.986364235123123,1.052301674421809e-18,1.9927244700796265e-18,2.7625389798465906e-19,611.7392000653817,611.7392000653819,611.7392000653817,611.7392000653817
0.08399999999999999,-6.675839754780776e-21,2.0373819304692477e-21,0.01011499455779014,-8.073209688376509e-18,-3.955108648764805e-17,5.068107719430774e-19,-2.454967033829314e-21,1.3825289465423912e-21,0.025307152187440767,2.052029389672424e-21,-1.0052388480686801e-20,-8.57756806284412e-21,0.0009999918694479984,0.0,0.0,0.0,3.1402783137362307,3.925949243806755e-19,3.061095618841318e-18,1.836686234159215e-19,615.4071888700464,615.4071888700465,615.4071888700464,615.4071888700465
0.088,-6.68859958598663e-21,2.0466038587425283e-21,0.0101189945520696,-8.120213525815784e-18,-3.9622049793383614e-17,3.9918466875814514e-19,-2.4532409051146705e-21,1.3815568671292799e-21,0.026695592024000857,2.0505865732093124e-21,-2.3115361088899776e-21,-4.500229955258363e-21,0.000999995820164662,0.0,0.0,0.0,3.294520196849789,9.804988382808817e-19,2.743268915526948e-18,1.0964436801730704e-19,619.0611874833486,619.0611874833487,619.0611874833486,619.0611874833486
0.092,-6.732709263975379e-21,2.0722052292866396e-21,0.010125317847634239,-8.177740133754446e-18,-3.947175396303608e-17,2.133321300515615e-18,-2.4514471732720185e-21,1.3805467166219091e-21,0.02813840954120936,2.0490872494271225e-21,-5.4294590864996425e-21,2.6826899817927872e-21,0.0012323281699722424,0.0,0.0,0.0,3.4443655274214446,8.296206497531159e-19,2.9573582815004826e-18,-2.037413446570095e-18,622.5904946766367,622.5904946766368,622.5904946766367,622.5904946766367
0.096,-6.914240575295966e-21,2.1442394188041085e-21,0.010141261301202003,-6.0181570427684725e-18,-3.710400588649973e-17,3.1570235000553138e-18,-2.4495867141132406e-21,1.3794989882388285e-21,0.02963490026546788,2.0475321503893394e-21,-2.1037975547117272e-20,9.931830696010657e-21,0.002426674797328769,0.0,0.0,0.0,3.579637186313044,-1.391326349284757e-18,1.6204351778258978e-18,-1.2787301799392166e-18,625.7594527770854,625.7594527770855,625.7594527770854,625.7594527770855
0.1,-7.233371690548183e-21,2.2597446614297444e-21,0.010173967595817455,-1.6414717583750674e-18,-3.251881568861576e-17,4.601619570101874e-18,-2.44766039534266e-21,1.3784141706327682e-21,0.031184366244625738,2.0459220013825957e-21,-5.039930790546233e-20,1.989149938365384e-20,0.005253198118939165,0.0,0.0,0.0,3.700406413042793,-4.123226010251525e-18,-1.0127949421631037e-18,-1.8124446264043712e-18,628.5751691370624,628.5751691370626,628.5751691370624,628.5751691370625
0.10400000000000001,-7.775201555220119e-21,2.5011927877762235e-21,0.010229733973026739,1.418986753036348e-17,-1.6478634098222113e-17,1.0256658124981566e-18,-2.4456690766230943e-21,1.3772927479278379e-21,0.032786115994848895,2.044257520971883e-21,-9.278604401376424e-20,4.103401265908125e-20,0.009811765868584545,0.0,0.0,0.0,3.8081523700302333,-1.6800190627103747e-17,-1.3593541019273569e-17,3.9930242830652616e-18,631.0766460237346,631.0766460237348,631.0766460237346,631.0766460237347
0.10799999999999998,-9.135910001284614e-21,3.4625735531337956e-21,0.010314134389381757,1.0355248811715369e-16,7.309316371159362e-17,-7.289127634313578e-18,-2.4436136096414046e-21,1.3761351997564412e-21,0.03443946444789355,2.0425394210553438e-21,-2.0935973269999683e-19,1.3651996298297128e-19,0.015902473857373062,0.0,0.0,0.0,3.904133323675161,-9.671903576292274e-17,-9.341812965910203e-17,9.675571055738499e-18,633.2966603173559,633.296660317356,633.2966603173559,633.296660317356
0.11199999999999999,-1.10195656406846e-20,4.9068991821785825e-21,0.01043200557874298,2.6570729800054465e-16,2.2954542248773024e-16,-2.0251789943344386e-17,-2.4414948381735482e-21,1.3749420012959103e-21,0.03614373289878156,2.0407684069186453e-21,-3.9675447822337934e-19,3.0954553550476765e-19,0.023340611037002756,0.0,0.0,0.0,3.9896589576622232,-1.899868879677797e-16,-1.8039761248500473e-16,1.5446441445385802e-17,635.2683093772694,635.2683093772694,635.2683093772694,635.2683093772694
0.11599999999999999,-1.2855347367135049e-20,6.249219904099398e-21,0.010587672065149689,4.921551143992111e-16,4.443789064753075e-16,-3.9400290647187995e-17,-2.4393135981491317e-21,1.3737136233048589e-21,0.03789824895387456,2.038945177288938e-21,-5.890891431189169e-19,4.956424240654431e-19,0.03196314135678128,0.0,0.0,0.0,4.065605865295701,-2.8255402334364946e-16,-2.654689888622714e-16,2.3204759822412206e-17,637.0140214996528,637.0140214996527,637.0140214996528,637.0140214996528
0.12,-1.3918049368993642e-20,6.663711792499228e-21,0.010784944848665625,7.751314510151537e-16,7.157431680952218e-16,-6.308193498519878e-17,-2.4370707177154748e-21,1.3724505321592612e-21,0.0397023464793441,2.037070424388405e-21,-7.189505951766624e-19,6.1930726296227945e-19,0.04163412832192161,0.0,0.0,0.0,4.132869712064581,-3.737434957038504e-16,-3.546443274423143e-16,2.9286479732405084e-17,638.5561599679929,638.5561599679929,638.5561599679929,638.556159967993
0.124,-1.3045570072630015e-20,4.9450232485460245e-21,0.01102717605716066,1.092119761187225e-15,1.0211036059959078e-15,-8.786640234465864e-17,-2.434767017301184e-21,1.371153189888253e-21,0.041555365550034744,2.0351448339874e-21,-7.638712186508762e-19,6.420626178615763e-19,0.0522311646857133,0.0,0.0,0.0,4.192251694985177,-4.476214886304725e-16,-4.270708025463631e-16,3.154718812045556e-17,639.9145045563029,639.9145045563029,639.9145045563029,639.9145045563029
0.128,-8.987148054880458e-21,-2.0203554446642661e-22,0.01131736006258468,1.4287088150819233e-15,1.3460565237846038e-15,-1.144546253973602e-16,-2.432403309679242e-21,1.369822054209661e-21,0.0434566523987173,2.0331690854571836e-21,-6.757230231024589e-19,5.261351599797756e-19,0.06364691078321223,0.0,0.0,0.0,4.244362500960077,-5.090639914128623e-16,-4.870179216681434e-16,3.4671982095502387e-17,641.1041522411606,641.1041522411605,641.1041522411606,641.1041522411607
0.132,-4.897939661316665e-22,-1.0060294305124002e-20,0.011658079639301431,1.7811668588919513e-15,1.6853942649362204e-15,-1.4018205718819771e-16,-2.4299804000296148e-21,1.3684575785652603e-21,0.04540555936572931,2.0311438518222534e-21,-4.341187785943193e-19,2.5315140575505114e-19,0.07578373053188994,0.0,0.0,0.0,4.289933573650306,-5.684528520219582e-16,-5.433180874921854e-16,3.475823182280451e-17,642.1426966533205,642.1426966533203,642.1426966533204,642.1426966533205
0.136,1.3724079892449876e-20,-2.591130160676114e-20,0.012051619624587393,2.1531954765661875e-15,2.0383912257113555e-15,-1.671222863483236e-16,-2.4274990860013823e-21,1.3670602121557641e-21,0.04740144484900002,2.0290697998122767e-21,-5.868568875962165e-20,-1.4978976971389076e-19,0.08855140537391559,0.0,0.0,0.0,4.3294788823208545,-6.343448331100881e-16,-6.011241868588461e-16,3.7231414036536536e-17,643.0425573101621,643.0425573101619,643.042557310162,643.0425573101621
0.14,3.497924489173757e-20,-4.919286230422536e-20,0.012500018577873813,2.5433233500183145e-15,2.408012264015757e-15,-1.9467247735325315e-16,-2.4249601577743924e-21,1.3656303999755443e-21,0.04944367325445691,2.0269475899136266e-21,4.351362090853719e-19,-6.698949695122266e-19,0.10187641099149244,0.0,0.0,0.0,4.363417131483542,-7.028001975822646e-16,-6.649925862923983e-16,3.9050190323450533e-17,643.8138254316019,643.8138254316018,643.8138254316019,643.8138254316019
0.14400000000000002,6.479447147819849e-20,-8.151802693681551e-20,0.01300506472502446,2.940104424314741e-15,2.784272007906998e-15,-2.234568446884277e-16,-2.4223643981204464e-21,1.364168582847088e-21,0.051531614946811154,2.0247778764205235e-21,1.0794473458053705e-18,-1.3481022136655336e-18,0.11569510379325076,0.0,0.0,0.0,4.39218318871033,-7.624359167955123e-16,-7.217670389997988e-16,4.1623194762971645e-17,644.4668294940182,644.4668294940179,644.4668294940182,644.4668294940182
0.14800000000000002,1.0464887624509451e-19,-1.2450685061444602e-19,0.013568313569576338,3.3361669373798747e-15,3.1657130280730555e-15,-2.4997855541815306e-16,-2.4197125824640153e-21,1.3626751974551908e-21,0.05366464620071907,2.0225613074857865e-21,1.8679042401336656e-18,-2.1911616314666018e-18,0.12994693499344417,0.0,0.0,0.0,4.416184240686553,-8.154281421886023e-16,-7.781765982409553e-16,4.0162024563217603e-17,645.0111596218521,645.0111596218519,645.0111596218521,645.0111596218521
0.15200000000000002,1.5609894247338544e-19,-1.797516941177986e-19,0.014191143330653197,3.728499517571258e-15,3.5463599065529464e-15,-2.738737262344732e-16,-2.417005478942493e-21,1.3611506763808879e-21,0.05584214915231686,2.020298525171197e-21,2.8176001111681634e-18,-3.216816796697238e-18,0.14457839346700657,0.0,0.0,0.0,4.435722462094361,-8.659825833234938e-16,-8.301917166293643e-16,3.8182869090329496e-17,645.4539363560515,645.4539363560511,645.4539363560514,645.4539363560515
0.15600000000000003,2.2084662678346354e-19,-2.4889510237864857e-19,0.014874757684789809,4.108225261175257e-15,3.907025092991739e-15,-2.96216674877562e-16,-2.4142438484659866e-21,1.3595954481351269e-21,0.05806351175112599,2.0179901654974762e-21,3.963916460719168e-18,-4.441265589019855e-18,0.15954342529352228,0.0,0.0,0.0,4.451100195854212,-9.079448846528888e-16,-8.628493078462954e-16,3.735083237255231e-17,645.8022142925871,645.8022142925868,645.802214292587,645.802214292587
0.15999999999999998,3.003698459193803e-19,-3.3354459750778677e-19,0.015620202588500016,4.466506009266588e-15,4.2447905215175664e-15,-3.144884603417471e-16,-2.4114284447766536e-21,1.3580099371921821e-21,0.060328127712326346,2.015636858493882e-21,5.3398346401662824e-18,-5.87833664454475e-18,0.174800086298468,0.0,0.0,0.0,4.462591288554133,-9.398189097926063e-16,-8.896678646844725e-16,3.351253493790622e-17,646.0623442517266,646.0623442517262,646.0623442517265,646.0623442517265
0.16399999999999998,3.9591374848411333e-19,-4.350411624894194e-19,0.01642838240227365,4.81367597191816e-15,4.571443595747526e-15,-3.3155457475696285e-16,-2.4085600145075808e-21,1.3563945640228138e-21,0.06263539646939469,2.0132392282474254e-21,6.922498314846389e-18,-7.527447184172381e-18,0.19030988180055664,0.0,0.0,0.0,4.470441971807338,-9.806782996679058e-16,-9.27347864173795e-16,3.285441030589661e-17,646.2400041259634,646.240004125963,646.2400041259633,646.2400041259633
0.16799999999999998,5.08866050488002e-19,-5.548538390153706e-19,0.017300073985379777,5.1416006656195284e-15,4.878852763906168e-15,-3.411365375642507e-16,-2.4056392972412145e-21,1.354749745127173e-21,0.0649847231271053,2.010797892951709e-21,8.69545824011405e-18,-9.378118514946771e-18,0.20603823146980554,0.0,0.0,0.0,4.474874466340987,-1.0140546644792995e-15,-9.576293100412693e-16,2.4812518769877103e-17,646.3402892940235,646.340289294023,646.3402892940233,646.3402892940234
0.172,6.410025465461913e-19,-6.948547445504954e-19,0.018235939028325814,5.3970786569219554e-15,5.115283104305178e-15,-3.4188474310236416e-16,-2.402667025567344e-21,1.3530758930674555e-21,0.06737551841489083,2.0083134649553953e-21,1.0753499480233266e-17,-1.1524201990765107e-17,0.22195397669793615,0.0,0.0,0.0,4.4760901091466,-9.900919711704754e-16,-9.320327842487573e-16,1.4886750998001323e-17,646.3677904879979,646.3677904879976,646.3677904879977,646.3677904879977
0.176,7.93467129846361e-19,-8.56685390517891e-19,0.019236534854723302,5.526148702062919e-15,5.268155820126625e-15,-3.3913541160183346e-16,-2.3996439251406395e-21,1.351373416500304e-21,0.06980719864055998,2.005786550810299e-21,1.3248268696494064e-17,-1.419941473762766e-17,0.23802895345092154,0.0,0.0,0.0,4.474272066425823,-8.972343026403614e-16,-8.811988391038178e-16,1.0831789710106806e-17,646.3266609124347,646.3266609124344,646.3266609124346,646.3266609124346
0.18,9.671775475709769e-19,-1.0415506516975887e-18,0.020302323895582355,5.473370877939364e-15,5.31456002550177e-15,-3.371654022966032e-16,-2.3965707147377505e-21,1.3496427202089644e-21,0.07227918564437004,2.0032177513191144e-21,1.6265542867014416e-17,-1.7640014437824527e-17,0.2542376214235833,0.0,0.0,0.0,4.469587683255378,-7.274903027905984e-16,-7.9641902463112865e-16,1.1629256121055262e-17,646.2206740626754,646.220674062675,646.2206740626751,646.2206740626752
0.184,1.1620583791463699e-18,-1.249118636242589e-18,0.02143368267215414,5.268984288002616e-15,5.2906375025378365e-15,-3.351400537659783e-16,-2.3934481063139654e-21,1.3478842051351934e-21,0.07479090675345118,2.0006076615827767e-21,1.9737365638278203e-17,-2.1897905817582003e-17,0.27055680831785284,0.0,0.0,0.0,4.462189178622826,-5.639504551969529e-16,-7.359689980235317e-16,1.1483707426203126e-17,646.0532432444381,646.0532432444379,646.0532432444381,646.0532432444381
0.188,1.3784585522539999e-18,-1.4792532547999141e-18,0.022630910155445973,4.860536723278063e-15,5.158757756973034e-15,-3.356590719792449e-16,-2.3902768050594385e-21,1.3460982684109227e-21,0.07734179473658023,1.997956871047458e-21,2.3686988488788398e-17,-2.7037374113370018e-17,0.2869655343562784,0.0,0.0,0.0,4.452214623742397,-3.3103487422975827e-16,-6.318692905267817e-16,1.4372753930214966e-17,645.8274467756479,645.8274467756478,645.8274467756478,645.8274467756478
0.192,1.6160221225102077e-18,-1.730447817259394e-18,0.02389423124259017,4.256920352919461e-15,4.912982040859576e-15,-3.3586954610995027e-16,-2.3870575094549838e-21,1.3442853033896804e-21,0.07993128775930121,1.9952659635512052e-21,2.814401434503743e-17,-3.3064675339108344e-17,0.30344447207054503,0.0,0.0,0.0,4.439797585585838,-7.8699426794647e-17,-5.057516239085841e-16,1.4033629288078535e-17,645.546248852899,645.546248852899,645.546248852899,645.546248852899
0.196,1.873869009125033e-18,-2.000296811019851e-18,0.0252238072397384,3.4780871110128728e-15,4.554055490280259e-15,-3.3615128344384453e-16,-2.383790911327442e-21,1.342445699677771e-21,0.08255882933939021,1.9925355173702197e-21,3.3193702152912174e-17,-3.998584045475608e-17,0.31997600114483377,0.0,0.0,0.0,4.425052795788955,1.7518527150134278e-16,-3.665342731668612e-16,1.412550974597188e-17,645.2121771851429,645.2121771851429,645.2121771851429,645.2121771851429
0.2,2.1503933330705238e-18,-2.2856139339471762e-18,0.02661973178130383,2.5498735255308532e-15,4.109340731399107e-15,-3.363016674689428e-16,-2.3804776959046234e-21,1.3405798431652163e-21,0.08522386830266192,1.9897661052647808e-21,3.872666649909503e-17,-4.7631243724816214e-17,0.33654345671372154,0.0,0.0,0.0,4.40810537319315,4.217756910523889e-16,-2.425582016931823e-16,1.398362831990486e-17,644.8279868321004,644.8279868321005,644.8279868321005,644.8279868321004
0.20400000000000001,2.4433394619883716e-18,-2.5825987224570627e-18,0.028082040805273226,1.4980806832840567e-15,3.6342182994320024e-15,-3.3673209029532676e-16,-2.3771185418698257e-21,1.3386881160564582e-21,0.08792585873911547,1.9869582945248177e-21,4.4511696541457004e-17,-5.580526915382865e-17,0.35313106829003915,0.0,0.0,0.0,4.389062426481489,6.580827017027748e-16,-1.6868153818763125e-16,1.4316924088527076e-17,644.3960186119679,644.3960186119682,644.3960186119681,644.396018611968
0.20800000000000002,2.751339271999236e-18,-2.887603328574431e-18,0.029610717039210824,2.8361131835242445e-16,3.0792324639906234e-15,-3.4259612639659924e-16,-2.3737141214159382e-21,1.336770896900827e-21,0.09066425995941697,1.984112647015131e-21,5.048617953272448e-17,-6.449974886952861e-17,0.36972446163010014,0.0,0.0,0.0,4.368023876358791,9.49736782357296e-16,-4.36241745636971e-17,2.0681909017855828e-17,643.9184454062423,643.9184454062427,643.9184454062425,643.9184454062424
0.21200000000000002,3.0715700443403133e-18,-3.1951314636857563e-18,0.03120569358817593,-1.0094295557457986e-15,2.5122405360247846e-15,-3.5363177325811807e-16,-2.3702651002991265e-21,1.3348285606227752e-21,0.09343853645171632,1.9812297192202684e-21,5.65417261728331e-17,-7.35841120272278e-17,0.3863105460473588,0.0,0.0,0.0,4.345084134750909,1.178771639307425e-15,2.557514072895609e-17,2.696395517412234e-17,643.3973113383628,643.3973113383632,643.3973113383631,643.3973113383629
0.21600000000000003,3.401679863478987e-18,-3.499923678761796e-18,0.032866850786685275,-2.3595885790861973e-15,1.942862380483564e-15,-3.698033992782887e-16,-2.366772137892106e-21,1.3328614785518775e-21,0.09624815783879581,1.978310062289052e-21,6.252662924404588e-17,-8.279612134326039e-17,0.4028764689855503,0.0,0.0,0.0,4.320345660674727,1.3898830902734782e-15,8.107836042227308e-17,3.341674091435057e-17,642.8348410652713,642.8348410652718,642.8348410652718,642.8348410652716
0.22000000000000003,3.73947347521896e-18,-3.796599827219362e-18,0.03459402308973653,-3.755023706165422e-15,1.3652066886691869e-15,-3.8686027506433623e-16,-2.3632358872370053e-21,1.3308700184526026e-21,0.09909259883554815,1.9753542220787677e-21,6.829040198480513e-17,-9.182651651207489e-17,0.41940992682273637,0.0,0.0,0.0,4.293898685687694,1.5968498401128063e-15,1.436338174596921e-16,3.5114902338395573e-17,642.2329803678845,642.232980367885,642.232980367885,642.2329803678846
0.22400000000000003,4.082865694586538e-18,-4.079974331744942e-18,0.03638701571527077,-5.220036525706904e-15,7.594149542888918e-16,-4.026908049434073e-16,-2.3596569950978254e-21,1.3288545445538549e-21,0.10197133920678138,1.972362739199012e-21,7.392867598080291e-17,-1.0073277089552627e-16,0.4359005986088446,0.0,0.0,0.0,4.265801203019476,1.8375481488490125e-15,2.303887756954157e-16,3.438273726538951e-17,641.592940096745,641.5929400967457,641.5929400967456,641.5929400967452
0.22799999999999998,4.4292692933524465e-18,-4.343993265091431e-18,0.03824559505331597,-6.716196946255854e-15,1.4762827849076326e-16,-4.1802205142846387e-16,-2.356036102012492e-21,1.3268154175782882e-21,0.10488386372534833,1.9693361490552024e-21,7.945283426821943e-17,-1.0947088785519078e-16,0.45233987497823946,0.0,0.0,0.0,4.236131677437044,2.052662898089741e-15,3.007189640490727e-16,3.444953842050744e-17,640.9163960215544,640.9163960215551,640.916396021555,640.9163960215545
0.23199999999999998,4.776281279504339e-18,-4.581814898838624e-18,0.04016949096714881,-8.14303796760176e-15,-4.716039444102677e-16,-4.3526465251449517e-16,-2.3523738423445102e-21,1.3247529947713954e-21,0.1078296621305984,1.9662749818917526e-21,8.48401777377713e-17,-1.1768412410101203e-16,0.4687185367520975,0.0,0.0,0.0,4.204965215435374,2.166965671423957e-15,3.731035461532056e-16,3.731184371764556e-17,640.2049478527714,640.2049478527721,640.2049478527721,640.2049478527716
0.236,5.121267642648523e-18,-4.786086532883275e-18,0.042158403297482105,-9.330574242737461e-15,-1.0776416802656047e-15,-4.513861311611767e-16,-2.3486708443342197e-21,1.3226676299303736e-21,0.11080822908714877,1.9631797628349157e-21,8.994551877067089e-17,-1.2435331003004952e-16,0.48502801808155416,0.0,0.0,0.0,4.172364961260278,2.0899036367668895e-15,4.265557706315897e-16,3.671022263093593e-17,639.4599229892281,639.4599229892289,639.4599229892286,639.4599229892283
0.24,5.4612013176370546e-18,-4.9518645758172955e-18,0.04421201068849315,-1.0266192631780706e-14,-1.607657555231788e-15,-4.576223219653663e-16,-2.344927730149657e-21,1.3205596734327665e-21,0.1138190641439734,1.9600510119352992e-21,9.454975952520349e-17,-1.2857094068494977e-16,0.50126139795202,0.0,0.0,0.0,4.138377176821081,1.960091912167579e-15,4.125065733111779e-16,2.582463353683003e-17,638.6822630729763,638.6822630729771,638.682263072977,638.6822630729765
0.244,5.794060342653072e-18,-5.075763513679031e-18,0.04632994293915751,-1.09889354321936e-14,-2.074118235922993e-15,-4.604669033014883e-16,-2.3411451159370233e-21,1.3184294722648871e-21,0.11686167169380696,1.956889244210048e-21,9.836765355321555e-17,-1.3011074516153956e-16,0.51741041680338,0.0,0.0,0.0,4.1031049857601545,1.8449588216965074e-15,3.986463262156967e-16,2.211876585469308e-17,637.8742127027155,637.8742127027162,637.874212702716,637.8742127027157
0.248,6.1180144635548395e-18,-5.155221912248351e-18,0.04851179985500032,-1.1531273534063355e-14,-2.479945166157349e-15,-4.623186359640005e-16,-2.3373236118707676e-21,1.3162773700500208e-21,0.11993556093286153,1.9536949696847085e-21,1.0132666269126465e-16,-1.2934489860916402e-16,0.5334657368918707,0.0,0.0,0.0,4.066614881045943,1.7467979613387595e-15,3.8334701846275336e-16,2.1075759653782776e-17,637.037182488166,637.0371824881666,637.0371824881665,637.0371824881662
0.252,6.431004474827492e-18,-5.187863534870115e-18,0.05075715424214146,-1.1870274468317305e-14,-2.7815485081487658e-15,-4.719314794926701e-16,-2.3334638222032795e-21,1.314103707076411e-21,0.12304024582085386,1.9504686934347645e-21,1.033840438093323e-16,-1.2645827907569005e-16,0.5494193654406642,0.0,0.0,0.0,4.028968306967451,1.6099228668447445e-15,3.17257286247075e-16,3.0217992853434034e-17,636.1724703279344,636.1724703279351,636.172470327935,636.1724703279345
0.256,6.7315189247363194e-18,-5.171528857692353e-18,0.05306555329152747,-1.192760586169387e-14,-2.9523696863329295e-15,-4.915497910750461e-16,-2.329566345314202e-21,1.3119088203250299e-21,0.12617524504134073,1.9472109156268562e-21,1.042667174281533e-16,-1.2119272955014423e-16,0.5652646375501086,0.0,0.0,0.0,3.9902248303098355,1.3675782131025335e-15,2.0844411891939628e-16,4.2300686293313534e-17,635.2813342381047,635.2813342381052,635.2813342381052,635.2813342381049
0.26,7.018750480989209e-18,-5.1057434122815324e-18,0.05543652538786357,-1.1689919003207946e-14,-2.9865693090266388e-15,-5.161988583484472e-16,-2.3256317737593623e-21,1.3096930434971336e-21,0.12934008196236027,1.94392213155968e-21,1.0372959234241252e-16,-1.130809916653321e-16,0.5809957788557909,0.0,0.0,0.0,3.9504310861868444,1.0730246624846099e-15,7.702530710611088e-17,4.898298571762369e-17,634.3647378152291,634.3647378152295,634.3647378152295,634.3647378152293
0.264,7.292684454582748e-18,-4.991985676126824e-18,0.05786958994046222,-1.1221467403664323e-14,-2.9039628904588834e-15,-5.42893713074675e-16,-2.3216606943193253e-21,1.3074567070416061e-21,0.13253428459737693,1.9406028317045738e-21,1.0177953920658208e-16,-1.0210635715384494e-16,0.5966087472911157,0.0,0.0,0.0,3.909614427408928,8.114568104305667e-16,-4.9046911125771644e-17,5.2384949204484267e-17,633.4232019604999,633.4232019605004,633.4232019605004,633.4232019605001
0.268,7.554070504293484e-18,-4.831941112151606e-18,0.06036422191101239,-1.0512602215523662e-14,-2.7525413405944104e-15,-5.657309311003088e-16,-2.3176536880475733e-21,1.3052001381820915e-21,0.1357573855665279,1.9372535017457874e-21,9.869299427846337e-17,-8.862841498875243e-17,0.612097551028827,0.0,0.0,0.0,3.867874553854601,5.196848966801494e-16,-1.3584263207324895e-16,4.8974786349387444e-17,632.4589203357314,632.4589203357316,632.4589203357316,632.4589203357316
0.272,7.803801528303656e-18,-4.6285408594115295e-18,0.06291988028251208,-9.58691596167967e-15,-2.563373314346674e-15,-5.857983787032103e-16,-2.3136113303183125e-21,1.3029236609439166e-21,0.13900892205816864,1.9338746226204438e-21,9.488564126647823e-17,-7.288229560811118e-17,0.6274551941307492,0.0,0.0,0.0,3.825254873199129,2.2357637109464e-16,-1.932433824080069e-16,4.667701631583869e-17,631.4727938838905,631.4727938838906,631.4727938838907,631.4727938838906
0.276,8.042378546891304e-18,-4.385375865808915e-18,0.06553602624052572,-8.448877081821257e-15,-2.3127746765680092e-15,-5.921507029413513e-16,-2.3095341908739113e-21,1.3006275961808057e-21,0.14228843579071562,1.93046667055819e-21,9.060489917627931e-17,-5.498733896142738e-17,0.642678249666851,0.0,0.0,0.0,3.7817624718334004,-9.18195530517566e-17,-2.7695252154032634e-16,3.147960753479969e-17,630.4648844547849,630.4648844547849,630.4648844547849,630.4648844547849
0.28,8.270331901880303e-18,-4.107055247534407e-18,0.06821209404638513,-7.124333603090967e-15,-1.9601356401573016e-15,-5.889730881187381e-16,-2.3054228338719717e-21,1.2983122616013896e-21,0.14559547297478356,1.9270301171205433e-21,8.563542030472978e-17,-3.5181371213376836e-17,0.6577638514902653,0.0,0.0,0.0,3.737463547140789,-4.059881021170937e-16,-4.1294207461990816e-16,2.0607968686438497e-17,629.4366252252414,629.4366252252413,629.4366252252413,629.4366252252414
0.28400000000000003,8.489206992637818e-18,-3.799495283004045e-18,0.07094746229197586,-5.6959699230740365e-15,-1.5290429111796075e-15,-5.864047310379786e-16,-2.301277817932036e-21,1.2959779717955089e-21,0.1489295842756156,1.923565429239932e-21,7.975510578866239e-17,-1.393704382185337e-17,0.6727036045141215,0.0,0.0,0.0,3.692483561093283,-6.5504750968625e-16,-5.405404645064671e-16,2.118918501229313e-17,628.3908357357515,628.3908357357512,628.3908357357514,628.3908357357515
0.28800000000000003,8.701038053562824e-18,-3.4685237582919057e-18,0.07374148803064849,-4.1934954517893164e-15,-1.059381129319528e-15,-5.871655178795733e-16,-2.2970996961819338e-21,1.2936250382603142e-21,0.15229032477580373,1.920073069258435e-21,7.317367560545521e-17,8.069982567962918e-18,0.6874880520834196,0.0,0.0,0.0,3.6468805481107425,-8.800813483445181e-16,-6.338272993494899e-16,2.4972676540356755e-17,627.328781031546,627.3287810315456,627.3287810315458,627.3287810315459
0.292,8.907903255465585e-18,-3.120109190726713e-18,0.07659352390947634,-2.63447623068543e-15,-5.792074057327268e-16,-5.837380408741062e-16,-2.2928890163037704e-21,1.2912537694261643e-21,0.15567725393829762,1.916553494966223e-21,6.632614655164774e-17,3.029476852195551e-17,0.7021116985667042,0.0,0.0,0.0,3.60067852556644,-1.0958925778527862e-15,-6.991271566162118e-16,2.0111352395254607e-17,626.2509391414254,626.2509391414251,626.2509391414252,626.2509391414253
0.296,9.111697434057548e-18,-2.7600451695704498e-18,0.07950290344966274,-1.001246596065977e-15,-9.298171757163494e-17,-5.773011371264278e-16,-2.288646320579558e-21,1.288864470682325e-21,0.15908993556969986,1.913007159639699e-21,5.95054453650277e-17,5.265451267549472e-17,0.7165721141216789,0.0,0.0,0.0,3.553931590927265,-1.3389177417967606e-15,-7.594849385839e-16,1.6455112773020586e-17,625.158493737133,625.1584937371326,625.1584937371327,625.1584937371329
0.3,9.314191063447227e-18,-2.3947500923448375e-18,0.08246896983224777,6.855645729308369e-16,4.0814194892636613e-16,-5.701656761470633e-16,-2.2843721459364953e-21,1.2864574444024671e-21,0.16252793778384475,1.9094345120793458e-21,5.277356369659895e-17,7.51060046799055e-17,0.7308672292834606,0.0,0.0,0.0,3.506636095772368,-1.574878190090856e-15,-8.306873747077435e-16,1.5374757377338425e-17,624.051282638153,624.0512826381524,624.0512826381525,624.0512826381529
0.304,9.517151277692124e-18,-2.0310296613425028e-18,0.08549105263657164,2.384702683279229e-15,9.374475768414884e-16,-5.650871757181071e-16,-2.2800670239918955e-21,1.284032989969969e-21,0.1659908329656597,1.905835996647282e-21,4.605821614849265e-17,9.741941979721685e-17,0.7449966176414831,0.0,0.0,0.0,3.45883535827375,-1.776091538061995e-15,-9.198463917448647e-16,1.7484597440717526e-17,622.9302439367178,622.9302439367171,622.9302439367174,622.9302439367176
0.308,9.722747816699899e-18,-1.6753995330773341e-18,0.08856846876127317,4.087518958794653e-15,1.4753307030087381e-15,-5.631209500588824e-16,-2.2757314810977674e-21,1.2815914038030222e-21,0.1694781977353061,1.902212053304524e-21,3.9335272676485523e-17,1.1920858394328034e-16,0.758957636335987,0.0,0.0,0.0,3.410571325373512,-1.970306956530565e-15,-9.942107003227478e-16,2.091167677694967e-17,621.7962892784074,621.7962892784067,621.7962892784069,621.7962892784072
0.312,9.932994593633568e-18,-1.3342988257615093e-18,0.09170052326088786,5.7903036221318875e-15,2.0224931901710732e-15,-5.6299719123755e-16,-2.271366038385049e-21,1.2791329793795416e-21,0.17298961291259826,1.8985631176479598e-21,3.2648833827830593e-17,1.4026883150809818e-16,0.7727471654499538,0.0,0.0,0.0,3.361884714204791,-2.1650129847725705e-15,-1.0699999973626026e-15,2.298321964081901e-17,620.6503071517405,620.6503071517398,620.65030715174,620.6503071517403
0.316,1.0150363833353898e-17,-1.0142961774921455e-18,0.0948865170764303,7.471970200285622e-15,2.535052146729554e-15,-5.609098181329045e-16,-2.2669712118075017e-21,1.2766580072618852e-21,0.17652466348169807,1.894889620947039e-21,2.6302122779490753e-17,1.6043914984092448e-16,0.7863629858471679,0.0,0.0,0.0,3.3128009934574343,-2.342066863152893e-15,-1.1022467595475704e-15,2.068431548751536e-17,619.4928319639807,619.4928319639798,619.4928319639802,619.4928319639805
0.32,1.037671460805096e-17,-7.214234068820489e-19,0.09812575862067839,9.153531368645571e-15,3.020002076611845e-15,-5.609941308067192e-16,-2.26254751218526e-21,1.2741667751213792e-21,0.18008293855608334,1.891191990180175e-21,2.0481713461345378e-17,1.7969173764431276e-16,0.7998048514036433,0.0,0.0,0.0,3.2633223132217166,-2.541595844382579e-15,-1.1352803571108538e-15,2.3135463370207976e-17,618.3238500175981,618.3238500175974,618.3238500175976,618.323850017598
0.324,1.0613790519494143e-17,-4.619701394139596e-19,0.1014175044822015,1.0823540310245339e-14,3.4828803032191846e-15,-5.612651360147242e-16,-2.258095445248046e-21,1.271659567762655e-21,0.18366403134378798,1.8874706480708675e-21,1.532210161813755e-17,1.98015319567909e-16,0.8130684773424575,0.0,0.0,0.0,3.213570989759693,-2.736008715078856e-15,-1.1731876073678793e-15,2.3357001634895928e-17,617.1461940237728,617.1461940237718,617.1461940237721,617.1461940237726
0.328,1.0863256353781504e-17,-2.421504837434875e-19,0.10476099578265785,1.2469450986170336e-14,3.926625635481239e-15,-5.605606247328136e-16,-2.25361551167805e-21,1.269136667147796e-21,0.18726753911291177,1.883726013123541e-21,1.0703774190377436e-17,2.153776881875503e-16,0.8261468626169457,0.0,0.0,0.0,3.1635972655546176,-2.9196325631041827e-15,-1.2136620287264226e-15,2.222856214794069e-17,615.9610069392113,615.9610069392102,615.9610069392105,615.961006939211
0.332,1.1127180151753933e-17,-6.837001495495651e-20,0.1081554914948827,1.4047982284127995e-14,4.3064862868074785e-15,-5.544312978334896e-16,-2.2491082071524733e-21,1.266598352420298e-21,0.190893063157398,1.87995849965911e-21,6.783304573635646e-18,2.314702640394968e-16,0.8390374095496685,0.0,0.0,0.0,3.1133843179430594,-3.0588311918763197e-15,-1.2067840486742269e-15,1.5862579839758023e-17,614.7678450787342,614.7678450787331,614.7678450787334,614.767845078734
0.336,1.140709944170782e-17,5.360330086081559e-20,0.11160024289154388,1.5553161130964977e-14,4.609176491707468e-15,-5.493850863318147e-16,-2.2445740223857463e-21,1.2640448999288428e-21,0.19454020876307676,1.876168517850264e-21,3.905536933412633e-18,2.458763345532459e-16,0.8517414798198815,0.0,0.0,0.0,3.062966672857401,-3.1847740098409096e-15,-1.1757116312197166e-15,1.6876129642819778e-17,613.5674847280108,613.5674847280097,613.56748472801,613.5674847280105
0.34,1.1704090225354065e-17,1.1895525566789717e-19,0.11509449428646942,1.7039631643387706e-14,4.838399350035744e-15,-5.426498443649502e-16,-2.240013443171414e-21,1.2614765832508877e-21,0.19820858517397189,1.8723564737564816e-21,2.3159544015217228e-18,2.5867384981130927e-16,0.8642579557417276,0.0,0.0,0.0,3.0123776574537287,-3.3636843805606934e-15,-1.139754911770571e-15,1.4695850897054625e-17,612.3606793612788,612.3606793612777,612.3606793612779,612.3606793612786
0.34400000000000003,1.2018799438993845e-17,1.22255968480548e-19,0.11863748369520484,1.8486718017630653e-14,5.011821233602806e-15,-5.374478210504667e-16,-2.2354269504236994e-21,1.2588936732160709e-21,0.20189780555887002,1.8685227693587697e-21,1.9411323176851366e-18,2.7018164000577464e-16,0.8765851370231934,0.0,0.0,0.0,2.961649539905283,-3.5288939516189884e-15,-1.1154797201984614e-15,1.6210311603229617e-17,611.1481628462627,611.1481628462616,611.1481628462618,611.1481628462626
0.34800000000000003,1.2351594916426292e-17,5.851122206944251e-20,0.1222284292563255,1.9899621428668547e-14,5.151562816588187e-15,-5.320139718397729e-16,-2.2308150202187424e-21,1.2562964379294362e-21,0.20560748697814926,1.8646678025941333e-21,2.5148510406058725e-18,2.8047132135720976e-16,0.8887200666094636,0.0,0.0,0.0,2.9108424066283276,-3.697522249545915e-15,-1.1106947239047418e-15,1.5725880037807078e-17,609.9313416178245,609.9313416178234,609.9313416178236,609.9313416178243
0.35200000000000004,1.2702580597793564e-17,-7.683970076442695e-20,0.12586654595033617,2.1307836537602823e-14,5.2916653695951474e-15,-5.229471855043764e-16,-2.226178123835517e-21,1.2536851427944757e-21,0.20933725035086592,1.860791967389779e-21,3.614103622198215e-18,2.896131046180366e-16,0.900660134185584,0.0,0.0,0.0,2.859983105261259,-3.8980101461544494e-15,-1.1407830881291227e-15,1.1258893199344368e-17,608.7108347885261,608.7108347885248,608.7108347885251,608.7108347885259
0.356,1.3072187816109132e-17,-2.884996045877147e-19,0.129551088626174,2.2720231552025363e-14,5.430627670640308e-15,-5.143661340253065e-16,-2.221516727796432e-21,1.2510600505359941e-21,0.2130867204220973,1.856895653697051e-21,4.924585828674496e-18,2.979336195932469e-16,0.9124075588519507,0.0,0.0,0.0,2.8090113194778765,-4.114685088054166e-15,-1.1732419462314773e-15,1.145398640769639e-17,607.4851683175576,607.4851683175563,607.4851683175565,607.4851683175574
0.36,1.3461205248494083e-17,-5.818884560539695e-19,0.13328128480399845,2.407102151311167e-14,5.5315116924580436e-15,-5.114013415780527e-16,-2.2168312939076155e-21,1.248421421222795e-21,0.21685552573053876,1.852979247525103e-21,6.455900056705298e-18,3.053016355827889e-16,0.9239648231182924,0.0,0.0,0.0,2.758001897532166,-4.2678480341335575e-15,-1.167213510391256e-15,1.766228895595248e-17,606.2561161813518,606.2561161813504,606.2561161813506,606.2561161813516
0.364,1.3870343407368152e-17,-9.621740451922211e-19,0.13705637493701128,2.5299946679012842e-14,5.554751531102476e-15,-5.068772006372485e-16,-2.212122279298884e-21,1.24576951229019e-21,0.22064329857635262,1.849043130974307e-21,8.689246683175434e-18,3.109994850058833e-16,0.9353312382843149,0.0,0.0,0.0,2.7069489041412664,-4.3488089422687955e-15,-1.11233321436406e-15,1.5718968883925027e-17,605.0235143019569,605.0235143019556,605.0235143019557,605.0235143019568
0.368,1.4299835122009787e-17,-1.4346009365029762e-18,0.14087557427574562,2.629575047148608e-14,5.482959248302772e-15,-5.006861122951612e-16,-2.2073901364634025e-21,1.243104578562334e-21,0.22444967498926796,1.845087682269406e-21,1.217030355079383e-17,3.137538656352693e-16,0.9465047935036136,0.0,0.0,0.0,2.6559234455225718,-4.297576183076971e-15,-1.0270810610309159e-15,1.3585924384937663e-17,603.7890629626532,603.7890629626518,603.789062962652,603.789062962653
0.372,1.4749352603796804e-17,-2.0029132116379296e-18,0.14473811299426834,2.7019156466212284e-14,5.321321156434368e-15,-4.913708719828107e-16,-2.202635313297034e-21,1.240426872274384e-21,0.22827429469692873,1.8411132757924016e-21,1.7147981636471168e-17,3.1229933821038866e-16,0.9574845539561366,0.0,0.0,0.0,2.6049160508681397,-4.172335794445025e-15,-9.352696602501038e-16,9.68218427694979e-18,602.5525209657441,602.5525209657427,602.5525209657429,602.5525209657438
0.376,1.5218543982779376e-17,-2.669129303345684e-18,0.1486431762329983,2.7500796571567776e-14,5.045028229158608e-15,-4.741332540083315e-16,-2.1978582531373835e-21,1.2377366430944876e-21,0.23211680109348845,1.837120282115193e-21,2.373013412199779e-17,3.0605888326607194e-16,0.9682668279925087,0.0,0.0,0.0,2.55403851349838,-4.048210509420773e-15,-8.080124428667421e-16,4.5070065067619307e-20,601.3165939156952,601.3165939156939,601.3165939156939,601.316593915695
0.38,1.570688264364883e-17,-3.4350412697736573e-18,0.1525899417101827,2.7703620353668968e-14,4.608961493862689e-15,-4.498696812351828e-16,-2.1930593948025356e-21,1.2350341381455985e-21,0.2359768412084501,1.8331090680319546e-21,3.2277722415254726e-17,2.950269260212091e-16,0.9788465595884197,0.0,0.0,0.0,2.5033277847050392,-3.888417750908412e-15,-6.264727668663035e-16,-8.837090737004997e-18,600.0821860116472,600.0821860116461,600.0821860116461,600.082186011647
0.384,1.6212798704422986e-17,-4.3011596586344295e-18,0.15657759955471418,2.762128293882213e-14,4.019339153775959e-15,-4.285065280906127e-16,-2.188239172629493e-21,1.2323196020271227e-21,0.2398540656757487,1.8290799965912658e-21,4.319621598348748e-17,2.7913406646116413e-16,0.9892217414750604,0.0,0.0,0.0,2.4527808563788724,-3.690626789221294e-15,-4.287691490824237e-16,-6.413878816829418e-18,598.8492331977928,598.8492331977918,598.8492331977918,598.8492331977928
0.388,1.6734602512680366e-17,-5.267046636464422e-18,0.16060534165535728,2.7240793531235558e-14,3.240260007559852e-15,-4.1565600682917474e-16,-2.1833980165123123e-21,1.2295932768363959e-21,0.2437481287030754,1.825033427127988e-21,5.676468919123256e-17,2.581545659717064e-16,0.9993945728978826,0.0,0.0,0.0,2.4024159951865407,-3.4492870065707793e-15,-1.7590855741709732e-16,2.6828935747941572e-18,597.6181914227151,597.6181914227141,597.6181914227141,597.618191422715
0.392,1.7269685874260515e-17,-6.3313145073436805e-18,0.16467240448605047,2.6542455512829737e-14,2.2669324647487406e-15,-4.088861004949227e-16,-2.1785363519399433e-21,1.2268554021899917e-21,0.24765868804144087,1.820969715294893e-21,7.317039971460312e-17,2.320022953503338e-16,1.0093692763571194,0.0,0.0,0.0,2.3521645510437073,-3.1546752954785564e-15,1.078017210532702e-16,9.287344476681247e-18,596.3873893502385,596.3873893502378,596.3873893502376,596.3873893502387
0.396,1.7814795763069273e-17,-7.492304348449688e-18,0.16877800424769776,2.5424948801304924e-14,1.0918791092837155e-15,-4.0223637437188515e-16,-2.173654600033773e-21,1.2241062152448654e-21,0.25158540495497644,1.8168892130940447e-21,9.263504010578023e-17,2.0004785285300528e-16,1.0191497551802153,0.0,0.0,0.0,2.302088136708124,-2.7170205275860462e-15,4.2357469939284664e-16,9.178282062141035e-18,595.158342219422,595.1583422194215,595.1583422194212,595.1583422194221
0.4,1.836555719376371e-17,-8.747129098259787e-18,0.17292139861041964,2.3776542593598013e-14,-2.4721669469031826e-16,-4.0003119649613234e-16,-2.1687531775848757e-21,1.2213459507193318e-21,0.25552794419097125,1.8127922689079352e-21,1.1494966183607007e-16,1.6096400019627587e-16,1.0287391159982895,0.0,0.0,0.0,2.2521237572631274,-2.1055554719391722e-15,7.254741167810399e-16,1.4125236040622852e-17,593.9295100168838,593.9295100168833,593.9295100168831,593.929510016884
0.404,1.891688186325725e-17,-1.0089827027155479e-17,0.17710177758493673,2.1614879617829772e-14,-1.7000952416986623e-15,-4.063916142887997e-16,-2.163832497090972e-21,1.2185748409138787e-21,0.2594859739501432,1.8086792275303782e-21,1.3954968492576499e-16,1.135234423220063e-16,1.0381344216985362,0.0,0.0,0.0,2.202428626463709,-1.440772817177644e-15,9.925922074839376e-16,2.406857853855804e-17,592.7047726310091,592.7047726310091,592.7047726310087,592.7047726310095
0.40800000000000003,1.9463131360057874e-17,-1.1512683960984438e-17,0.18131832672227263,1.8954247898198904e-14,-3.2013803479674935e-15,-4.211862744410913e-16,-2.1588929667930998e-21,1.2157931157318182e-21,0.2634591658571429,1.804550430197161e-21,1.654067674742789e-16,5.753627062464909e-17,1.0473300400791556,0.0,0.0,0.0,2.1530339022490073,-7.323757813022045e-16,1.202693914577124e-15,3.42106545322972e-17,591.4849257653137,591.4849257653141,591.4849257653136,591.4849257653142
0.41200000000000003,1.999891347616409e-17,-1.30055005468949e-17,0.18557027904563347,1.589021094465087e-14,-4.727817696260865e-15,-4.390962889061704e-16,-2.1539349907119976e-21,1.2130010026997761e-21,0.26744719493128777,1.800406214616455e-21,1.9151654951283716e-16,-5.963008876792624e-18,1.0563260936565093,0.0,0.0,0.0,2.1038655398245396,-6.579272813297975e-17,1.391801160665091e-15,3.8486798175888364e-17,590.2681654814676,590.268165481468,590.2681654814677,590.268165481468
0.41600000000000004,2.0519023856638432e-17,-1.4556117125092692e-17,0.18985684847378165,1.2572997168358125e-14,-6.279033728190687e-15,-4.583851184167216e-16,-2.148958968684203e-21,1.2101987269880212e-21,0.2714497395575253,1.7962469149989914e-21,2.1737955160040573e-16,-7.513437645089292e-17,1.065127065508531,0.0,0.0,0.0,2.054983150463951,4.849931264433889e-16,1.5856275102272568e-15,4.0863566154147495e-17,589.0559906567294,589.05599065673,589.0559906567296,589.05599065673
0.42000000000000004,2.101791911638319e-17,-1.615252260084033e-17,0.19417727560510928,9.049871488221688e-15,-7.826263157350299e-15,-4.75668279824996e-16,-2.1439652963978694e-21,1.2073865114306358e-21,0.275466481457624,1.7920728620879972e-21,2.426713432649633e-16,-1.4781617932170392e-16,1.0737348592788825,0.0,0.0,0.0,2.0063540856138466,1.0073646450208186e-15,1.7570841074101042e-15,3.934468779512429e-17,587.8476175473807,587.8476175473816,587.8476175473811,587.8476175473812
0.42400000000000004,2.1490332206948377e-17,-1.7781873523640666e-17,0.1985308013278703,5.387331274091075e-15,-9.362817919929638e-15,-4.83985363421093e-16,-2.1389543654283013e-21,1.2045645765455276e-21,0.279497105661589,1.7878843831889e-21,2.671177442182136e-16,-2.223375464650279e-16,1.0821517762953812,0.0,0.0,0.0,1.9579984548073828,1.487276848797795e-15,1.9231873702325026e-15,2.961379762276124e-17,586.6435708837408,586.643570883742,586.6435708837413,586.6435708837416
0.42800000000000005,2.1931114807255793e-17,-1.9430931288844785e-17,0.20291666548786186,1.648277455172487e-15,-1.088718484803689e-14,-4.915112476213581e-16,-2.1339265632732127e-21,1.201733140554285e-21,0.2835413004793026,1.783681802198797e-21,2.9055541595776975e-16,-2.9750549623222336e-16,1.0903788858030339,0.0,0.0,0.0,1.9099391119810765,1.920284722806248e-15,2.091214869828237e-15,2.9064862738441206e-17,585.4444481696156,585.4444481696169,585.4444481696163,585.4444481696163
0.43200000000000005,2.233480243689399e-17,-2.1086525009363478e-17,0.20733410783793296,-2.1299747024579266e-15,-1.2358306188514177e-14,-5.002933912157745e-16,-2.1288822733877073e-21,1.1988924194018774e-21,0.2875987574723864,1.779465439635696e-21,3.126906874588835e-16,-3.7213253913939656e-16,1.098415979996878,0.0,0.0,0.0,1.8621970665053424,2.327169794992698e-15,2.2199370925232036e-15,3.087571966921925e-17,584.2508055342736,584.2508055342752,584.2508055342744,584.2508055342745
0.43600000000000005,2.2695841056583334e-17,-2.273555494021918e-17,0.2117823620688774,-5.922303138803154e-15,-1.3707395149632846e-14,-5.138832622624814e-16,-2.123821875218986e-21,1.1960426267762002e-21,0.2916691714262842,1.7752356126675254e-21,3.3278090625257247e-16,-4.454217600750874e-16,1.1062624040368758,0.0,0.0,0.0,1.8148054939238216,2.719769336461915e-15,2.271847389221648e-15,3.688745201954488e-17,583.0635086248856,583.0635086248872,583.0635086248865,583.0635086248864
0.44000000000000006,2.3009010222803738e-17,-2.4364668206286065e-17,0.21626063918281999,-9.673242330320782e-15,-1.4858341436057593e-14,-5.332262006329627e-16,-2.1187457442407815e-21,1.193183974127467e-21,0.29575224032256386,1.770992635140917e-21,3.4961306066464225e-16,-5.166288133182384e-16,1.1139152892682662,0.0,0.0,0.0,1.7678315554153428,3.0648818967276273e-15,2.2288471772732325e-15,4.42018603108779e-17,581.8842839977113,581.884283997713,581.8842839977124,581.8842839977123
0.44400000000000006,2.3270493433804095e-17,-2.596077006417247e-17,0.22076815629372606,-1.3332492315819949e-14,-1.580958868233018e-14,-5.535911970612793e-16,-2.113654251987523e-21,1.1903166706874503e-21,0.29984766531143653,1.766736817609763e-21,3.6221399787537255e-16,-5.848384141005203e-16,1.12137234453156,0.0,0.0,0.0,1.721284732394774,3.359195881672318e-15,2.1599976259811308e-15,4.622729148801588e-17,580.7134195698887,580.7134195698904,580.7134195698899,580.7134195698895
0.44800000000000006,2.3476731450500464e-17,-2.7511360080159815e-17,0.22530413864639134,-1.6869755810348774e-14,-1.6515207314186225e-14,-5.823721364313194e-16,-2.1085477660882315e-21,1.1874409234885688e-21,0.3039551506844915,1.7624684673635485e-21,3.699638892313078e-16,-6.491599183217302e-16,1.1286341743890342,0.0,0.0,0.0,1.675170261481096,3.618657622946331e-15,2.0255066389283087e-15,5.693334011450921e-17,579.5510981337051,579.5510981337069,579.5510981337063,579.5510981337059
0.45200000000000007,2.362514212682292e-17,-2.9004241455647087e-17,0.22986781934727918,-2.0236519122170475e-14,-1.6945901650854482e-14,-6.198514329844753e-16,-2.1034266503001526e-21,1.1845569373828285e-21,0.30807440384764523,1.7581878884554635e-21,3.724154743465793e-16,-7.088220566300104e-16,1.1357027987261958,0.0,0.0,0.0,1.6294937135225729,3.822948330723336e-15,1.832951993918048e-15,6.831688819485315e-17,578.3975120271322,578.3975120271339,578.3975120271334,578.397512027133
0.45600000000000007,2.371463531777261e-17,-3.0428380164657363e-17,0.23445844567153032,-2.3435997768496427e-14,-1.7129298963031478e-14,-6.6378068275593575e-16,-2.0982912645421197e-21,1.1816649150606113e-21,0.31220513529430255,1.7538953817302913e-21,3.6927500036599455e-16,-7.632782814816055e-16,1.1425808232247316,0.0,0.0,0.0,1.5842476552779772,4.018986326051966e-15,1.6398506373832406e-15,7.743374396419872e-17,577.2525253299414,577.2525253299432,577.2525253299428,577.2525253299422
0.45999999999999996,2.374464727730578e-17,-3.177326631009034e-17,0.23907527637866818,-2.6457750884019372e-14,-1.7059415159084287e-14,-7.054194747436211e-16,-2.09314196492766e-21,1.1787650570693185e-21,0.3163470585787293,1.749591244852079e-21,3.6074614594665345e-16,-8.123029320883567e-16,1.149271203392413,0.0,0.0,0.0,1.539429695886623,4.197600220504333e-15,1.4187121445365018e-15,7.66083402129959e-17,576.1161286320827,576.1161286320844,576.1161286320842,576.1161286320834
0.46399999999999997,2.3715205165499946e-17,-3.3028743974167604e-17,0.24371755251109956,-2.925920137245154e-14,-1.6706971248796605e-14,-7.377425582518112e-16,-2.087979103797836e-21,1.1758575618318667e-21,0.3204998902896342,1.7452757723315904e-21,3.469404687394601e-16,-8.556876445947323e-16,1.155774347633437,0.0,0.0,0.0,1.495096389083979,4.322160704543099e-15,1.1405781689035816e-15,6.748518609136615e-17,574.9898110597487,574.9898110597504,574.9898110597502,574.9898110597493
0.46799999999999997,2.3627457173465336e-17,-3.418574488522747e-17,0.24838456045791266,-3.1830271962787276e-14,-1.6064859208451028e-14,-7.73954863284927e-16,-2.0828030297538334e-21,1.1729426256650383e-21,0.32466335002395785,1.7409492555535435e-21,3.275759189756773e-16,-8.929909989975909e-16,1.16209255997243,0.0,0.0,0.0,1.451176909827559,4.418893266811569e-15,8.224797544021807e-16,7.340720189318061e-17,573.8718273322394,573.8718273322411,573.871827332241,573.8718273322398
0.472,2.34834421409602e-17,-3.5235737303250865e-17,0.25307556753994526,-3.4129835987061804e-14,-1.5120054370602952e-14,-7.964978824182524e-16,-2.077614087689288e-21,1.170020442797688e-21,0.32883716036086874,1.7366119828036335e-21,3.0249787921049955e-16,-9.237581382843524e-16,1.1682289968519277,0.0,0.0,0.0,1.407729763508137,4.456376759627826e-15,4.585640825322368e-16,5.898033652184355e-17,572.7637198596592,572.7637198596607,572.7637198596607,572.7637198596595
0.476,2.3286286490669905e-17,-3.6171467911586586e-17,0.25778983475894296,-3.615186003109912e-14,-1.3872470049587128e-14,-8.066787265223778e-16,-2.0724126188223597e-21,1.1670912053888053e-21,0.3330210468359637,1.7322642392953414e-21,2.7172158922637734e-16,-9.47643643092957e-16,1.1741823895240642,0.0,0.0,0.0,1.3647882332861374,4.463656736115851e-15,5.977805438625933e-17,4.552065225036275e-17,571.6663974045517,571.6663974045532,571.6663974045532,571.6663974045518
0.48,2.3040642529341822e-17,-3.6986928071499185e-17,0.26252662649562164,-3.791619050943373e-14,-1.2377452823588045e-14,-8.130504099622418e-16,-2.0671989607275573e-21,1.164155103545435e-21,0.3372147379156714,1.7279063071965343e-21,2.3561747495922657e-16,-9.645678979504993e-16,1.179951676394086,0.0,0.0,0.0,1.3223661655446186,4.469818657109985e-15,-3.154181715201198e-16,4.1545321290121376e-17,570.5802770338029,570.5802770338042,570.5802770338044,570.5802770338029
0.484,2.275189135607855e-17,-3.7676690631658184e-17,0.26728523711766017,-3.9412375478818306e-14,-1.068224680625559e-14,-8.178304559812741e-16,-2.061973447367306e-21,1.1612123253404575e-21,0.34141796497185767,1.7235384656558537e-21,1.9510467380738921e-16,-9.747825707510541e-16,1.1855395890785936,0.0,0.0,0.0,1.2804233413400445,4.4474733592369134e-15,-6.649214336407147e-16,4.000443654490379e-17,569.5043901982204,569.5043901982216,569.5043901982218,569.5043901982203
0.488,2.2426043565603796e-17,-3.823657761312293e-17,0.2720649679738899,-4.06636057436915e-14,-8.833000878220654e-15,-8.22097933199861e-16,-2.0567364091232727e-21,1.1582630568302276e-21,0.3456304622566307,1.719160990828898e-21,1.513897408083877e-16,-9.785647994785712e-16,1.1909508638013322,0.0,0.0,0.0,1.238965319696652,4.426850756426519e-15,-9.864507499746608e-16,3.965905051478706e-17,568.4389380032777,568.4389380032788,568.4389380032792,568.4389380032776
0.492,2.2069479295991434e-17,-3.866325519030438e-17,0.276865127528025,-4.1692331275654973e-14,-6.86478006649096e-15,-8.222341571339376e-16,-2.0514881728274395e-21,1.1553074820720745e-21,0.3498519668773452,1.7147741559041954e-21,1.0544832156189041e-16,-9.763314570515939e-16,1.1961879240240614,0.0,0.0,0.0,1.197997208501846,4.412273148181248e-15,-1.2874888377070268e-15,3.506571896510986e-17,567.3841108701893,567.3841108701903,567.3841108701906,567.3841108701889
0.496,2.1689191941558785e-17,-3.8953842868743935e-17,0.28168503144429496,-4.2491065081659784e-14,-4.8374347498174325e-15,-8.192937378998767e-16,-2.0462290617929344e-21,1.1523457831416647e-21,0.35408221877180357,1.710378231128977e-21,5.831567550918414e-17,-9.685624898986425e-16,1.201252552884324,0.0,0.0,0.0,1.1575237574445445,4.3740912187410465e-15,-1.5400270524817878e-15,3.1534705731354475e-17,566.3400907995936,566.3400907995945,566.340090799595,566.3400907995932
0.5,2.1292601601232963e-17,-3.9106171123882584e-17,0.2865240026723683,-4.304899241300427e-14,-2.8348210006901456e-15,-8.160542763436799e-16,-2.040959395844619e-21,1.1493781401502267e-21,0.35832096068365266,1.7059734838347404e-21,1.1303207123863385e-17,-9.553671900695636e-16,1.2061465557913986,0.0,0.0,0.0,1.1175493563134602,4.3044360257141496e-15,-1.7104299430121672e-15,3.1121827337251504e-17,565.3070512144889,565.3070512144898,565.3070512144903,565.3070512144885
0.504,2.0886923246862898e-17,-3.9118224264386904e-17,0.2913813715305897,-4.3293617482606696e-14,-9.271839910234037e-16,-8.047705855769837e-16,-2.0356794913494328e-21,1.1464047312616405e-21,0.36256793813797494,1.7015601784626165e-21,-3.396622448740936e-17,-9.362558504750188e-16,1.2108717592514249,0.0,0.0,0.0,1.0780780353045898,4.136331932969488e-15,-1.801952825671783e-15,2.1648840094515962e-17,564.2851568553833,564.2851568553842,564.2851568553847,564.2851568553829
