Time_s,X,Y,Z,Roll_deg,Pitch_deg,Yaw_deg,Ref_X,Ref_Y,Ref_Z,Ref_Yaw,vx,vy,vz,p,q,r,T_pert,tau_x,tau_y,tau_z,RPM_0,RPM_1,RPM_2,RPM_3
0.0040000000000000036,-6.51783449945208e-23,4.0,0.010006999594037988,-3.861262043247411e-18,-1.3963409037126566e-18,6.720055526330817e-20,1.49409180602207e-22,4.0,7.200000000000012e-05,0.0,5.628567488317738e-19,800.0,2.0013999188075973,0.0,0.0,0.0,-10.19,4.508920778836622e-18,4.1311283405792925e-18,-7.850087496102184e-20,0.0,0.0,0.0,0.0
0.008000000000000007,1.113506850970939e-22,4.0,0.010010999365392528,-5.1444567313571905e-18,-1.550621506643741e-18,1.4477037634234904e-19,1.49409180602207e-22,4.0,0.00021513340800000038,0.0,3.3232299862985963e-19,444.44444444444446,1.1123332628213918,0.0,0.0,0.0,-0.034338475932384316,1.7651659355412083e-18,-4.099547955979204e-18,-9.337797965599407e-20,534.6826504237879,534.682650423788,534.6826504237879,534.682650423788
0.01200000000000001,2.222341169201568e-22,4.0,0.01001499913738627,-7.724763185920119e-18,-8.744186140056807e-19,1.7383427891395508e-19,1.49409180602207e-22,4.0,0.00042854147030131276,0.0,2.2816236566932653e-21,-1.013188435680341e-22,0.0009999429025551315,0.0,0.0,0.0,0.11268126795424338,3.3711847719656027e-18,-6.220819743250432e-20,-3.991076995507298e-20,538.6882898857357,538.6882898857358,538.6882898857357,538.6882898857358
0.016000000000000014,3.5468258353851586e-22,4.0,0.010018998918182361,-1.066945910401199e-17,-1.1342732386388776e-18,2.728198689382801e-19,1.49409180602207e-22,4.0,0.0007113732083620786,0.0,3.0360165237814583e-20,-1.404772848143137e-22,0.0009999438467103022,0.0,0.0,0.0,0.26021500563658706,3.978534531673017e-18,2.1505546009621448e-20,-1.227959508937659e-19,542.6782123972301,542.6782123972303,542.6782123972301,542.6782123972301
0.020000000000000018,4.480646032093992e-22,4.0,0.010022998716766816,-1.1792626165198403e-17,-1.2552927918551739e-19,4.303557930416986e-19,1.49409180602207e-22,4.0,0.0010627853561306145,0.0,2.469743243253463e-20,-1.7853557955469878e-22,0.0009999465697017526,0.0,0.0,0.0,0.4082515376201834,2.0602902542193137e-18,-7.549075002776635e-19,-1.9527571293172581e-19,546.6524625309181,546.6524625309182,546.6524625309181,546.6524625309181
0.02400000000000002,3.481904439128448e-22,4.0,0.010026998537361222,-1.3000008453031104e-17,-1.2923793681283594e-18,3.545260494070077e-19,1.49409180602207e-22,4.0,0.0014819422978531074,0.0,-1.0679934010280256e-20,-2.1093043631439732e-22,0.0009999511376240083,0.0,0.0,0.0,0.556779791992724,2.2436687367453535e-18,3.544245970015189e-18,7.083331257297717e-20,550.6110856198836,550.6110856198837,550.6110856198836,550.6110856198836
0.027999999999999997,4.315768448031044e-22,4.0,0.010030998381181792,-1.426399362100398e-17,-9.551010051611143e-19,5.896158284398742e-19,1.49409180602207e-22,4.0,0.001968016006352204,0.0,-5.369704007456041e-22,-2.299970400319537e-22,0.0009999566286535144,0.0,0.0,0.0,0.7057888086963886,2.401405136533505e-18,-2.3571793222916973e-18,-2.892807928555333e-19,554.5541273284902,554.5541273284903,554.5541273284902,554.5541273284903
0.032,4.1343525045104437e-22,4.0,0.010034998247862822,-1.575722161266254e-17,-1.1126967265146823e-18,7.744693137656774e-19,1.49409180602207e-22,4.0,0.002520185981773086,0.0,4.879098647326088e-21,-2.4966729080816685e-22,0.0009999623686071657,0.0,0.0,0.0,0.8552677391643431,2.765491858638412e-18,1.3635934564449226e-18,-2.4029156373562096e-19,558.4816336438812,558.4816336438813,558.4816336438812,558.4816336438812
0.036000000000000004,3.846261957633269e-22,4.0,0.010038998136029462,-1.629295766004419e-17,-1.665116718252292e-18,1.0550445062930185e-18,1.49409180602207e-22,4.0,0.003137639190793574,0.0,9.735707510109319e-21,-2.7000987144530313e-22,0.0009999679651017876,0.0,0.0,0.0,1.0052058470211558,1.7605085841500454e-18,8.618213206190593e-19,-3.597544013228919e-19,562.3936508955973,562.3936508955974,562.3936508955973,562.3936508955973
0.04000000000000001,5.120181140511936e-22,4.0,0.010042998043860081,-1.7284869429376754e-17,-1.0262608613951395e-18,1.0175738558339195e-18,1.49409180602207e-22,4.0,0.0038195700062949476,0.0,5.226613213352491e-21,-2.864814740599502e-22,0.0009999732140364079,0.0,0.0,0.0,1.155592507112551,2.3412092851139816e-18,-2.4255488192069047e-18,1.7845953831263709e-22,566.290225731341,566.2902257313411,566.290225731341,566.2902257313411
0.04400000000000001,4.9323501246320595e-22,4.0,0.01004699796942607,-1.74359994120459e-17,-1.097078678264303e-18,8.748797377481051e-19,1.49409180602207e-22,4.0,0.004565180147490079,0.0,1.001500702840948e-20,-2.9713819792480424e-22,0.0009999780063642272,0.0,0.0,0.0,1.3064172049737883,1.4392975495575586e-18,1.7521028752293675e-18,1.2456373412742426e-19,570.1714051050815,570.1714051050816,570.1714051050815,570.1714051050815
0.048000000000000015,5.193321605107303e-22,4.0,0.010050997910768732,-1.8032673527579158e-17,-7.32508626634426e-19,1.0454805824361428e-18,1.49409180602207e-22,4.0,0.005373678620505558,0.0,6.81624273023899e-21,-3.0730104927286526e-22,0.000999982317029767,0.0,0.0,0.0,1.4576695363945427,1.982081118162118e-18,-8.556386510312529e-19,-2.3561592213173477e-19,574.0372362681873,574.0372362681874,574.0372362681873,574.0372362681873
0.05200000000000002,5.603263338482836e-22,4.0,0.01005499786603685,-1.8124702252255083e-17,-7.432138819546342e-19,1.1203597199226421e-18,1.49409180602207e-22,4.0,0.006244281659414513,0.0,4.769838141988298e-21,-3.1212771421558863e-22,0.0009999861498962564,0.0,0.0,0.0,1.609339206343017,1.4461815190186021e-18,-1.3013412794934125e-19,-1.3087623964525042e-19,577.8877667447856,577.8877667447857,577.8877667447856,577.8877667447856
0.055999999999999994,5.99672526060135e-22,4.0,0.010058997833602031,-1.8340741874989808e-17,-6.846355395035577e-19,1.0132972034312424e-18,1.49409180602207e-22,4.0,0.007176212667716816,0.0,1.3604681464152676e-20,-3.164061102512195e-22,0.0009999895346526205,0.0,0.0,0.0,1.7614160280637425,1.6099396338939423e-18,-3.008497876831206e-20,7.850738839957803e-20,581.7230443125407,581.7230443125408,581.7230443125407,581.7230443125407
0.06,6.123853726541317e-22,4.0,0.01006299781215861,-1.8428400658177955e-17,-6.66200429671858e-19,1.1238079425121564e-18,1.49409180602207e-22,4.0,0.00816870216026346,0.0,6.767425710352116e-21,-3.1911256227463097e-22,0.0009999925371515644,0.0,0.0,0.0,1.9138899221698285,1.4876027236755697e-18,3.050568854892992e-19,-1.7132698897403912e-19,585.5431169841136,585.5431169841137,585.5431169841136,585.5431169841137
0.064,5.992203194869183e-22,4.0,0.010066997800444939,-1.846893468692257e-17,-7.425619109326246e-19,1.2098601775803621e-18,1.49409180602207e-22,4.0,0.009220987705621774,0.0,2.705707232240537e-21,-3.2133778659807793e-22,0.0009999952077193244,0.0,0.0,0.0,2.0667509164800344,1.4514333874668957e-18,4.2794926285467934e-19,-1.4737197182884182e-19,589.3480330078803,589.3480330078804,589.3480330078803,589.3480330078803
0.068,5.957075321773371e-22,4.0,0.010071013791861073,-5.966416248201198e-18,1.576913764823402e-18,8.196793167471718e-19,1.49409180602207e-22,4.0,0.010332313868878387,0.0,-4.668137406792062e-22,-2.7873182902108253e-22,0.0010015970251742168,0.0,0.0,0.0,2.2199566832024717,-1.3179829766543423e-17,-2.7564343868546737e-18,4.053255449911329e-19,593.1370405836153,593.1370405836153,593.1370405836153,593.1370405836153
0.07200000000000001,8.215750132867395e-23,4.0,0.010076918679375003,2.1638253679750037e-16,5.377283842446067e-17,-2.453043747093733e-19,1.49409180602207e-22,4.0,0.01150193215487664,0.0,-5.3234891530607994e-20,1.1658272655808896e-21,0.001192087422698454,0.0,0.0,0.0,2.369728342730255,-2.590750962473636e-16,-5.5110587543658585e-17,1.2095668149488485e-18,596.8178655534572,596.8178655534572,596.8178655534572,596.8178655534573
0.07600000000000001,-8.883637618120512e-22,4.0,0.010089602742007896,7.00506305014712e-16,1.6139478424804097e-16,1.4017676910657387e-18,1.49409180602207e-22,4.0,0.01272910095188534,0.0,-1.5303957365467623e-19,1.2963812223149e-20,0.002060494404398927,0.0,0.0,0.0,2.509872690435175,-5.801138408391634e-16,-1.2362717664607465e-16,-1.9147943835328467e-18,600.2416457308773,600.2416457308772,600.241645730877,600.2416457308773
0.08000000000000002,-1.5042709997747676e-21,4.0,0.010113792224934732,1.4444208506979336e-15,2.7234174625942293e-16,4.2663880063418435e-18,1.49409180602207e-22,4.0,0.014013085475695667,0.0,-2.0328632020387385e-19,6.259960371502256e-20,0.004036017243002135,0.0,0.0,0.0,2.6405571593551738,-9.170745253012406e-16,-1.440441888825342e-16,-3.404815210751055e-18,603.4168139074,603.4168139073998,603.4168139073997,603.4168139074001
0.08400000000000002,-1.4401104650359412e-21,4.0,0.010153825375880644,2.445039103559244e-15,3.884569637865254e-16,6.602515543378079e-18,1.49409180602207e-22,4.0,0.015353157714143145,0.0,-1.3928603998592228e-19,2.0387781761900142e-19,0.007171788983519403,0.0,0.0,0.0,2.762409032692198,-1.2687147977254612e-15,-1.6193212071484622e-16,-2.90538045374317e-18,606.3624027047931,606.3624027047929,606.3624027047928,606.3624027047932
0.08800000000000002,-3.1449124111666117e-22,4.0,0.010213674974121453,3.7110941134238435e-15,5.086298503515315e-16,1.120605056607617e-17,1.49409180602207e-22,4.0,0.016748596372051543,0.0,1.6197949649041844e-20,5.178114470537665e-19,0.011369400749286149,0.0,0.0,0.0,2.8760223233129674,-1.6488055071035724e-15,-1.7989067030688925e-16,-5.6504607985761074e-18,609.0960033323332,609.0960033323328,609.0960033323328,609.0960033323332
0.09200000000000003,2.4296645867536394e-21,4.0,0.010296911054078784,5.231390024630622e-15,6.1698674858686365e-16,1.7031884718487845e-17,1.49409180602207e-22,4.0,0.018198686816595647,0.0,2.5397853181263134e-19,1.1096781801662232e-18,0.01653433965528462,0.0,0.0,0.0,2.9820784321934823,-2.034857521352275e-15,-1.8205576207949823e-16,-7.268117756005245e-18,611.6367485733224,611.6367485733219,611.6367485733218,611.6367485733224
0.09600000000000003,7.066452201174359e-21,4.0,0.010406799660050104,6.9348782270075144e-15,7.246040086713496e-16,2.1513568192815166e-17,1.49409180602207e-22,4.0,0.019702721023079826,0.0,5.66303653808899e-19,2.0944300071661764e-18,0.02257571560449131,0.0,0.0,0.0,3.0810712600550705,-2.356390734480921e-15,-1.9361441108228995e-16,-5.938353761142235e-18,613.9987949044668,613.9987949044662,613.9987949044662,613.9987949044668
0.10000000000000003,-3.528360764662654e-11,3.9999999999647167,0.01054632299514398,-3.436399465566758e-06,3.436380679532461e-06,1.4518482781328497e-06,1.49409180602207e-22,4.0,0.021259997521129365,0.0,-3.827904447939379e-09,-3.827877944065859e-09,0.029416416064318412,0.0,0.0,0.0,3.17346359131638,3.6016403974151595e-06,-3.601615237530552e-06,-1.695988369380059e-06,616.1976948327087,616.197694839745,616.1936710801286,616.1916566041699
0.10400000000000004,-2.2393251859821295e-10,3.9999999997760622,0.010718177759740438,-2.2605103355872795e-05,2.260447437031461e-05,3.991668445468217e-06,1.49409180602207e-22,4.0,0.022869821341291546,0.0,-2.7053964197999457e-08,-2.7054584229779107e-08,0.03698470605949369,0.0,0.0,0.0,3.259730716770503,2.080423877298104e-05,-2.0803592166282854e-05,-3.0266304972450356e-06,618.2433831759868,618.2433833562184,618.2402335452402,618.2286358506013
0.10800000000000004,-4.967161395807681e-10,3.999999999503259,0.010924846624868268,-5.569321475322264e-05,5.5690377382889414e-05,7.068460348756146e-06,1.49409180602207e-22,4.0,0.024531503962043497,0.0,-6.976254349228614e-08,-6.97657861360389e-08,0.04521629186586996,0.0,0.0,0.0,3.3402120583309105,3.90612903062504e-05,-3.905883558399002e-05,-3.758470256241184e-06,620.1450352524979,620.145035934615,620.1448114403379,620.1231030707935
0.11199999999999999,-7.243591164569943e-10,3.9999999992755804,0.011168653341915014,-9.998040785561831e-05,9.997292356916594e-05,1.0539093797203652e-05,1.49409180602207e-22,4.0,0.026244363257203765,0.0,-1.150457302155868e-07,-1.1505477907413169e-07,0.0540602413651062,0.0,0.0,0.0,3.4151421009133753,5.587236154488372e-05,-5.5866945196101173e-05,-4.345375907265781e-06,621.9101525845026,621.9101540853231,621.9128625924142,621.8819000204437
0.11599999999999999,-7.370210276931727e-10,3.9999999992628728,0.011451711582801814,-0.000152963041854055,0.00015294781374754966,1.4281137698983393e-05,1.49409180602207e-22,4.0,0.028007723443744872,0.0,-1.487674960051604e-07,-1.4878566638526372e-07,0.06347013643495693,0.0,0.0,0.0,3.4848643111852655,7.113726429928907e-05,-7.112784835266309e-05,-4.805677380161078e-06,623.547975970677,623.5479785728966,623.5535481550596,623.5142304523833
0.12,-3.3065646216706976e-10,3.999999999669202,0.011776030054452175,-0.0002122141196892843,0.00021218759517358925,1.8186580201620108e-05,1.49409180602207e-22,4.0,0.029820915030003513,0.0,-1.6468821559083763e-07,-1.647183481536034e-07,0.07340568720209677,0.0,0.0,0.0,3.5495156072303056,8.474282024254047e-05,-8.472848876896755e-05,-5.151210160017582e-06,625.0627263478216,625.0627302989126,625.0710255089492,625.0243022817331
0.124,7.241977758711232e-10,4.000000000724065,0.012143472654788448,-0.0002754534140824691,0.00027541178342703183,2.216711748123674e-05,1.49409180602207e-22,4.0,0.03168327476428597,0.0,-1.5730149383168024e-07,-1.5734563208379448e-07,0.0838324564283213,0.0,0.0,0.0,3.6093172028526856,9.66282791653453e-05,-9.660830247434609e-05,-5.400572433799057e-06,626.4604870430358,626.4604925381872,626.4713094894635,626.4181529904349
0.128,2.673700327228116e-09,4.00000000267367,0.012555726197478108,-0.00034060594374061166,0.0003405453185963721,2.614675379538222e-05,1.49409180602207e-22,4.0,0.033594145583865524,0.0,-1.2189644489763395e-07,-1.2195571387432067e-07,0.09471350867471333,0.0,0.0,0.0,3.6645605166022115,0.00010680356230491552,-0.0001067773766962365,-5.564521190323696e-06,627.7488433477284,627.7488505360342,627.7619594047832,627.703327019458
0.132,5.773670275817158e-09,4.000000005773904,0.013014347546429265,-0.0004057570207238703,0.0004056736149415452,3.006165013181945e-05,1.49409180602207e-22,4.0,0.035552876564369104,0.0,-5.449146153579445e-08,-5.4565392699636885e-08,0.10600952931676211,0.0,0.0,0.0,3.715447037169152,0.00011525147809749253,-0.00011521865597142886,-5.65413672018755e-06,628.9331682315526,628.9331772247059,628.9483137932167,628.8851640941645
0.136,1.0282255488980088e-08,4.000000010282996,0.013520766534661447,-0.0004691601968752464,0.0004690504900061433,3.3859085068573634e-05,1.49409180602207e-22,4.0,0.037558822869550326,0.0,4.836756582397917e-08,4.828087695704351e-08,0.11768686935886655,0.0,0.0,0.0,3.762176556859342,0.00012196452482771122,-0.00012192489203243485,-5.679780171862734e-06,630.0187005094812,630.0187113500245,630.0355817143314,629.9688702219887
0.14,1.6452946672948533e-08,4.000000016454535,0.014076283752593457,-0.000529249052644816,0.0005291099291994727,3.7495601855981224e-05,1.49409180602207e-22,4.0,0.03961134570144607,0.0,1.8963027955399257e-07,1.8953456610173993e-07,0.1297135354774674,0.0,0.0,0.0,3.8049574908569204,0.0001269574023317389,-0.00012691089947289172,-5.65010103603546e-06,631.0107921799811,631.0108048796574,631.0290963049173,630.9597644632333
0.14400000000000002,2.4529161947963305e-08,4.00000002453205,0.014682125607079481,-0.0005845918302389603,0.0005844207376913362,4.0936196823371074e-05,1.49409180602207e-22,4.0,0.04170981225091381,0.0,3.7183088042245994e-07,3.7173194557682125e-07,0.1420625980486134,0.0,0.0,0.0,3.84389071553298,0.00013021542398554322,-0.00013016223504500908,-5.573178137463424e-06,631.9122293247675,631.9122438296549,631.9316182939733,631.8606102061077
0.14800000000000002,3.4737988895463094e-08,4.000000034742755,0.01533942384925184,-0.0006339187690134583,0.0006337138363172311,4.415343148344216e-05,1.49409180602207e-22,4.0,0.043853595648546906,0.0,5.971267266460204e-07,5.970327853090659e-07,0.15471148266830087,0.0,0.0,0.0,3.8791211045542644,0.0001317496472562374,-0.0001316901099759262,-5.456397765322605e-06,632.7267581373477,632.7267743525575,632.7468773425772,632.6751267130653
0.15200000000000002,4.72848599450888e-08,4.000000047292214,0.016049219480907963,-0.0006761247541305686,0.0006758848867958227,4.7126443553643524e-05,1.49409180602207e-22,4.0,0.046042074915965056,0.0,8.672728946129334e-07,8.671947927723797e-07,0.16763783024552156,0.0,0.0,0.0,3.9107887044479477,0.00013158976133477446,-0.00013152444948339885,-5.306299660579604e-06,633.4579560858677,633.4579738532719,633.4784416788905,633.4068624876784
0.15600000000000003,6.234885204172565e-08,4.000000062359645,0.016812468417596087,-0.0007102693343122051,0.0007099942864898602,4.984011841008952e-05,1.49409180602207e-22,4.0,0.048274634917477216,0.0,1.1835953130462436e-06,1.1835468624168873e-06,0.18081928472756478,0.0,0.0,0.0,3.9390250444128716,0.0001297786418893754,-0.00012970819545716946,-5.128724275023072e-06,634.109152887417,634.1091720319494,634.1296371324745,634.0591173091912
0.16000000000000003,8.007859586460131e-08,4.000000080093819,0.017630046550671276,-0.0007355762624944588,0.0007352666847163135,5.228434210118969e-05,1.49409180602207e-22,4.0,0.0505506663121142,0.0,1.5469886603306208e-06,1.546986520116279e-06,0.19423487254537783,0.0,0.0,0.0,3.9639541751617746,0.00012637180770196172,-0.00012629712568865755,-4.928874424401304e-06,634.6834602976995,634.683480574929,634.7035765818225,634.6349718362555
0.16400000000000003,1.0058881500058922e-07,4.000000100609603,0.01850275429186969,-0.0007514324011143129,0.0007510898638575274,5.445332881053482e-05,1.49409180602207e-22,4.0,0.052869565506028296,0.0,1.9578934102341605e-06,1.957957497505835e-06,0.2078648558090058,0.0,0.0,0.0,3.9856935573474828,0.00012143786147559858,-0.00012135986379938074,-4.711371932374665e-06,635.1837975518335,635.1838187126311,635.2031853445445,635.1373128287383
0.16800000000000004,1.2395750891456958e-07,4.000000123985133,0.019431320668642806,-0.0007573858935439776,0.0007570128859493658,5.634501664086942e-05,1.49409180602207e-22,4.0,0.055230734605257216,0.0,2.416267058826955e-06,2.4164204527141097e-06,0.22169060678834657,0.0,0.0,0.0,4.004354827975757,0.00011505787820975232,-0.00011497767950508822,-4.480310125970953e-06,635.6129134655505,635.6129352087985,635.6312229620471,635.5688551021817
0.17200000000000004,1.5022374713847574e-07,4.0000001502596065,0.020416412175534974,-0.0007531540849411983,0.0007527539931588332,5.7961694063101605e-05,1.49409180602207e-22,4.0,0.05763358136884959,0.0,2.921533040343841e-06,2.9218020161642823e-06,0.23569501363354622,0.0,0.0,0.0,4.020034016920796,0.00010733722311230143,-0.00010725596593069616,-4.240666895878085e-06,635.9731672894352,635.9731893071753,635.9900632088413,635.9319151471879
0.176,1.7938620910113931e-07,4.00000017943182,0.02145863295135522,-0.0007386134335950578,0.0007381904924363615,5.93064124715533e-05,1.49409180602207e-22,4.0,0.06007751916234955,0.0,3.472530259584626e-06,3.472944193929878e-06,0.2498620668906192,0.0,0.0,0.0,4.0328288687069875,9.838700159660305e-05,-9.830589080690783e-05,-3.993408229915685e-06,636.2669236999275,636.2669456678537,636.2820981292344,636.2288251569819
0.18,2.114024666748818e-07,4.000000211459445,0.0225585165588721,-0.0007137717679775815,0.0007133309836750165,6.0385153047752117e-05,1.49409180602207e-22,4.0,0.0625619669116377,0.0,4.067538706281642e-06,4.068130153788323e-06,0.2641755595337726,0.0,0.0,0.0,4.0428558791901335,8.830346859504987e-05,-8.82237514568712e-05,-3.742062896575967e-06,636.4969561170672,636.496977699736,636.5101168961731,636.4623229972161
0.184,2.461886822382899e-07,4.000000246258723,0.02371653848068453,-0.0006787825841337486,0.0006783296444726226,6.12057964854836e-05,1.49409180602207e-22,4.0,0.06508634905712558,0.0,4.704274909588681e-06,4.705078835660092e-06,0.27861918038256467,0.0,0.0,0.0,4.050208513340332,7.721212365198732e-05,-7.713506305981563e-05,-3.4890768643509585e-06,636.66548374228,636.6655046001913,636.6763653284416,636.6345876768842
0.188,2.8361999028733445e-07,4.000000283704848,0.024933118646799143,-0.0006339385034449782,0.000633479669637876,6.177777409604803e-05,1.49409180602207e-22,4.0,0.06765009550830155,0.0,5.379818401680662e-06,5.380871888667212e-06,0.2931782782583101,0.0,0.0,0.0,4.05497703721475,6.524797715931894e-05,-6.517475219992436e-05,-3.2365670877639625e-06,636.7746312267767,636.774651043104,636.7829980566561,636.7477022065816
0.192,3.235316074831694e-07,4.000000323633069,0.026208622896754602,-0.000579650380683824,0.0005791923676135798,6.211029245517705e-05,1.49409180602207e-22,4.0,0.0702526415986251,0.0,6.090600217698076e-06,6.09194217230864e-06,0.30783901735476593,0.0,0.0,0.0,4.057250599239395,5.253933688208042e-05,-5.247114656507244e-05,-2.9846409599752617e-06,636.8264762191994,636.8264946715365,636.8321265376109,636.8037102612595
0.196,3.6572079377739597e-07,4.000000365840652,0.027543362066531196,-0.000516392198412602,0.0005159420599006576,6.221484734411666e-05,1.49409180602207e-22,4.0,0.07289342804076722,0.0,6.832560638821124e-06,6.83423105907595e-06,0.32258774125159406,0.0,0.0,0.0,4.057122003638184,3.9168814391830186e-05,-3.9106740787821616e-05,-2.7363339692339177e-06,636.8231679681663,636.8231847654047,636.8259129660623,636.8047311868429
0.2,4.0994740706730667e-07,4.000000410087433,0.02893760321399883,-0.0004448300577042371,0.0004443950173552751,6.21047252285319e-05,1.49409180602207e-22,4.0,0.07557190088219416,0.0,7.600932812536882e-06,7.602972222022535e-06,0.33741185079257535,0.0,0.0,0.0,4.054663103690162,2.5358771677287578e-05,-2.530380410688056e-05,-2.4941940570204327e-06,636.766359255238,636.7663741308969,636.7660622269447,636.7523514578178
0.20400000000000001,4.559368063554441e-07,4.00000045609872,0.030391566468293326,-0.0003657695188299023,0.00036535679859788807,6.17942682064959e-05,1.49409180602207e-22,4.0,0.07828751146109222,0.0,8.390048198392161e-06,8.392496534736637e-06,0.3522996098921328,0.0,0.0,0.0,4.049953619824949,1.1310892644210771e-05,-1.1263868223549028e-05,-2.2599849666677646e-06,636.6578692357855,636.6578819639896,636.654442206783,636.6483317840942
0.20800000000000002,5.033833035392613e-07,4.000000503568741,0.03190542634434725,-0.00028011678045819906,0.00027973343475497855,6.129614627369932e-05,1.49409180602207e-22,4.0,0.08103971636263091,0.0,9.19328931658756e-06,9.196185079363593e-06,0.367239632287224,0.0,0.0,0.0,4.043072177446414,-2.800177329835915e-06,2.838591369366781e-06,-2.0323283648682693e-06,636.4994757457697,636.4994861459703,636.4928811935919,636.4944078453894
0.21200000000000002,5.519543337766818e-07,4.000000552164821,0.033479314979344726,-0.00018881667969768636,0.000188469456911723,6.062387552559009e-05,1.49409180602207e-22,4.0,0.08382797737556208,0.0,1.0003485896968103e-05,1.0006864902443942e-05,0.3822207257690057,0.0,0.0,0.0,4.034092363941918,-1.685402801975977e-05,1.6883292584552907e-05,-1.8127197992442766e-06,636.2928347235688,636.2928426492175,636.2830626919445,636.2921997606753
0.21600000000000003,6.0129387379895e-07,4.000000601530798,0.035113322501086945,-9.288339553081676e-05,9.257858176100827e-05,5.979102970342153e-05,1.49409180602207e-22,4.0,0.08665176144915256,0.0,1.0813013310067725e-05,1.0816907644022171e-05,0.39723224205363394,0.0,0.0,0.0,4.023088445827159,-3.0696840896280185e-05,3.071663327945296e-05,-1.6017694657045956e-06,636.0396073531386,636.0396127155944,636.0266871087515,636.0433263083493
0.22000000000000003,6.510265855148318e-07,4.000000651291166,0.036807498608196904,6.612630937265601e-06,-6.869361979941109e-06,5.881111758769485e-05,1.49409180602207e-22,4.0,0.08951054065044778,0.0,1.1613739744308963e-05,1.1618176925732448e-05,0.41226381250796995,0.0,0.0,0.0,4.010132897043225,-4.4173825023418654e-05,4.418399775808913e-05,-1.3999476510591937e-06,635.7414055504823,635.7414083079284,635.7254063508392,635.7493569863532
0.22400000000000003,7.00762318279868e-07,4.000000701055587,0.03856185590471681,0.00010856931247979586,-0.00010877303188428561,5.769676405678363e-05,1.49409180602207e-22,4.0,0.09240379212186403,0.0,1.2397059981943945e-05,1.2402061869613173e-05,0.4273056045681186,0.0,0.0,0.0,3.995292787500082,-5.714705010862752e-05,5.714767392374812e-05,-1.2067662646856936e-06,635.3997087291755,635.3997088983592,635.380738133844,635.4117359665058
0.22800000000000004,7.50100823129278e-07,4.0000007504236015,0.04037637420231322,0.00021188421693987545,-0.0002120308460054929,5.646121606893808e-05,1.49409180602207e-22,4.0,0.09533099803910691,0.0,1.3154100517877177e-05,1.3159682148051064e-05,0.4423486273337088,0.0,0.0,0.0,3.9786277124778744,-6.950634069614294e-05,6.949764798176947e-05,-1.023461026600351e-06,635.0158207161394,635.0158183571791,634.9940122365197,635.0317342197293
0.23200000000000004,7.98635557685903e-07,4.000000798988439,0.042250989708277585,0.0003153917463986115,-0.0003154782018608333,5.5117520904896706e-05,1.49409180602207e-22,4.0,0.09829164556941347,0.0,1.3875646015301703e-05,1.3881814557958039e-05,0.4573834962386016,0.0,0.0,0.0,3.960220329472002,-8.107425602019603e-05,8.105672471995587e-05,-8.503341836593264e-07,634.5915699477671,634.5915651870803,634.5671041598321,634.6111315734826
0.23600000000000004,8.459588867486105e-07,4.000000846342225,0.04418560347625129,0.00041792092080395696,-0.00041794521297199683,5.3678146223635214e-05,1.49409180602207e-22,4.0,0.10128522683011584,0.0,1.4552122913039077e-05,1.455887681818873e-05,0.4724005407101092,0.0,0.0,0.0,3.940137608363443,-9.171640430793866e-05,9.169075350512612e-05,-6.872368592237119e-07,634.1284194193659,634.1284124487119,634.1015137704533,634.1513551675757
0.24000000000000005,8.916669282383909e-07,4.000000892080825,0.04618008328883216,0.0005183124768706088,-0.0005182737852448994,5.215511534258031e-05,1.49409180602207e-22,4.0,0.10431123884752391,0.0,1.5173734449566394e-05,1.5181062271041318e-05,0.4873908076682376,0.0,0.0,0.0,3.9184438916140087,-0.00010131715888351799,0.0001012842452645574,-5.341552746082303e-07,633.6277686319719,633.6277596805667,633.5986721515262,633.653773102377
0.244,9.353643060052742e-07,4.00000093580861,0.048234264870187865,0.0006154320328144284,-0.0006153307595879307,5.0559969955034194e-05,1.49409180602207e-22,4.0,0.10736918351612453,0.0,1.573070542383026e-05,1.573858514462077e-05,0.5023460543916175,0.0,0.0,0.0,3.89520219349805,-0.00010977320007127978,0.00010973411988050666,-3.910146924758738e-07,633.0909839022084,633.09097326469,633.0599742312465,633.1197236165842
0.248,9.766687889309061e-07,4.0000009771430936,0.05034795306492216,0.0007081829289658927,-0.0007080207293568886,4.890373943131971e-05,1.49409180602207e-22,4.0,0.1104585675580954,0.0,1.6213394916271887e-05,1.6221793288888246e-05,0.5172583388938973,0.0,0.0,0.0,3.870474229422248,-0.00011699449725215658,0.00011695047868774341,-2.5768554309874187e-07,632.5193997418074,632.51938774925,632.4867798756862,632.5505166636744
0.252,1.0152157596971241e-06,4.000001015719412,0.05252092298434089,0.000795518557026182,-0.0007952983450878237,4.719691736678876e-05,1.49409180602207e-22,4.0,0.11357890248313052,0.0,1.6612427439266073e-05,1.662129995958083e-05,0.5321200119175951,0.0,0.0,0.0,3.8443204439925736,-0.000122905113545178,0.00012285758323316883,-1.3399059347921099e-07,631.9143201079596,631.9143071462511,631.8804148926795,631.9474354172521
0.256,1.0506624568820842e-06,4.000001051194566,0.05475292482388455,0.0008764591044883637,-0.0008761850308178843,4.5449000769699827e-05,1.49409180602207e-22,4.0,0.11672970454857583,0.0,1.6918839835772808e-05,1.6928130500310473e-05,0.5469240790962527,0.0,0.0,0.0,3.8167925232671918,-0.0001274501455306694,0.0001274006035887322,-1.9193041139329953e-08,631.2768448164447,631.2768312925136,631.2419970121614,631.3115660317321
0.26,1.0826918934451638e-06,4.000001083251351,0.057043694633109904,0.0009501142574953104,-0.0009497916542597578,4.366904926635399e-05,1.49409180602207e-22,4.0,0.11991049471987204,0.0,1.7124292294560816e-05,1.7133933845956123e-05,0.561665161724471,0.0,0.0,0.0,3.787921159859561,-0.00013060492521119172,0.0001305550039617663,8.683093642973639e-08,630.6075871143919,630.6075734724549,630.5721475118476,630.643514433981
0.264,1.1110164175048433e-06,4.000001111601914,0.059392936776743246,0.0010156655172561275,-0.0010153008351932887,4.1866129463761606e-05,1.49409180602207e-22,4.0,0.12312079863130279,0.0,1.7221173982722485e-05,1.7231088057864848e-05,0.5763376297852068,0.0,0.0,0.0,3.7577731624761466,-0.00013233026663674464,0.00013228161990441972,1.8370340370461346e-07,629.9079971031889,629.9079837947737,629.8723272288954,629.9447177410833
0.268,1.135381108731716e-06,4.000001135991159,0.06180031338824961,0.0010723687451154801,-0.0010719694671068112,4.0048684029218074e-05,1.49409180602207e-22,4.0,0.12636014654704564,0.0,1.7202605862208746e-05,1.7212703844525906e-05,0.5909332427277488,0.0,0.0,0.0,3.7264378231141913,-0.00013259272613744022,0.00013254708221930832,2.717825203658075e-07,629.1800482450532,629.1800357436788,629.1445211110653,629.2171399398632
0.272,1.155566600194851e-06,4.000001156199577,0.06426546176451912,0.0011195788053828418,-0.0011191533304341502,3.822446473982687e-05,1.49409180602207e-22,4.0,0.12962807332252388,0.0,1.706252328140922e-05,1.707270717803093e-05,0.6054434608443536,0.0,0.0,0.0,3.693970545866548,-0.0001313955656590327,0.00013135469264846894,3.515296864009067e-07,628.4249304675086,628.4249192593827,628.389920915185,628.4619717187015
0.276,1.1713915589486983e-06,4.000001172045724,0.06678799656001258,0.0011567575988983476,-0.0011563151043655264,3.640064641054851e-05,1.49409180602207e-22,4.0,0.13292411836605678,0.0,1.6795874504793454e-05,1.6806038178515767e-05,0.6198616136568892,0.0,0.0,0.0,3.660423141644034,-0.00012875890685397836,0.00012872449543721625,4.233010448192924e-07,627.643752249472,627.6437428014884,627.6096321120656,627.6803265042031
0.28,1.182714597518176e-06,4.000001183388139,0.0693675153887754,0.0011834773864707402,-0.0011830276762461584,3.4583577500192934e-05,1.49409180602207e-22,4.0,0.1362478256008061,0.0,1.639878105527038e-05,1.6408811937702286e-05,0.6341825698741395,0.0,0.0,0.0,3.62583684139218,-0.0001247175710021221,0.0001246912996210107,4.877672612935835e-07,626.8373769833997,626.837369761062,626.8045120214896,626.873077547715
0.28400000000000003,1.1894359145901988e-06,4.000001190126984,0.07200359744533827,0.0011994283104260974,-0.001198981641575953,3.277970286089379e-05,1.49409180602207e-22,4.0,0.13959874342701678,0.0,1.5868624705516085e-05,1.587840506036172e-05,0.6484016619319217,0.0,0.0,0.0,3.5902562852618836,-0.00011932344248119135,0.00011930683362277919,5.445545738328162e-07,626.0067505741824,626.006746002137,625.9754927837142,626.0411821709893
0.28800000000000003,1.1914993145689088e-06,4.00000119220607,0.0746957687014545,0.0012044409936909405,-0.0012040078431248033,3.0994719275307455e-05,1.49409180602207e-22,4.0,0.14297642468454957,0.0,1.5204235586466414e-05,1.5213644927775856e-05,0.6625111219607757,0.0,0.0,0.0,3.5537974009401854,-0.0001126560570460736,0.00011265052259962579,5.942712783767774e-07,625.1544870266275,625.1544855010418,625.1251699669161,625.187276187371
0.29200000000000004,1.1888917948410587e-06,4.000001189612444,0.07744353842654425,0.0011984702202121466,-0.0011980610833365935,2.9233691624863984e-05,1.49409180602207e-22,4.0,0.14638042661570333,0.0,1.4406008058944983e-05,1.441492592201429e-05,0.676502280899283,0.0,0.0,0.0,3.5165037601171836,-0.00010481143077606106,0.00010481819255557198,6.374202884080195e-07,624.2815175782525,624.2815194447627,624.2544513811455,624.3123170080581
0.29600000000000004,1.1816429435233531e-06,4.000001182375784,0.08024641677984812,0.0011815735954720512,-0.0011811988117738943,2.7500767033437333e-05,1.49409180602207e-22,4.0,0.14981031082832508,0.0,1.3475851797147869e-05,1.3484159917430665e-05,0.6903714089915443,0.0,0.0,0.0,3.478383829029495,-9.58709667825519e-05,9.589105719700147e-05,6.748640371070173e-07,623.3879525892332,623.387958142906,623.3634289402373,623.4164383055485
0.30000000000000004,1.1698244158840948e-06,4.000001170567873,0.0831039168867417,0.0011539071724703588,-0.0011535767541533,2.580015543810426e-05,1.49409180602207e-22,4.0,0.15326564325920555,0.0,1.2416985021442706e-05,1.242456934339049e-05,0.7041181422345394,0.0,0.0,0.0,3.4394418967166205,-8.591688450987867e-05,8.595115132771355e-05,7.063568925050779e-07,622.4738045030049,622.4738139894278,622.452093109323,622.4996728826195
0.30400000000000005,1.1535506535165265e-06,4.000001154303323,0.08601550794996769,0.0011157788754628277,-0.0011155022434330899,2.4135316783185582e-05,1.49409180602207e-22,4.0,0.15674599413775814,0.0,1.1234159930152812e-05,1.124091339084802e-05,0.7177390387877769,0.0,0.0,0.0,3.3997773836823137,-7.508580810087757e-05,7.513485375655574e-05,7.325998353008751e-07,621.5413204631502,621.5413340613158,621.5226567458275,621.5643060681782
0.308,1.1329763405812126e-06,4.000001133737027,0.08898064912322172,0.0010676037490809837,-0.0010673895386134724,2.2509487834233703e-05,1.49409180602207e-22,4.0,0.16025093794997908,0.0,9.93376112546188e-06,9.939586710161565e-06,0.7312276083619788,0.0,0.0,0.0,3.3594224277215954,-6.350950199120206e-05,6.357364412122676e-05,7.537089997170227e-07,620.5911749129132,620.5911927238828,620.575759390475,620.611047678328
0.312,1.1082947153775387e-06,4.000001109062462,0.09199878474639538,0.0010099035580715232,-0.0010097594207605202,2.092518727753385e-05,1.49409180602207e-22,4.0,0.16378005340268723,0.0,8.523798664452938e-06,8.528611937791848e-06,0.7445800965766111,0.0,0.0,0.0,3.3184192207083814,-5.1318328240036794e-05,5.139757760030104e-05,7.703875804866589e-07,619.6242812830685,619.624303323349,619.6122815071138,619.6408480349415
0.316,1.079734090128476e-06,4.000001080508214,0.09506937852595919,0.0009432448080885619,-0.0009431773036926973,1.9384733148605e-05,1.49409180602207e-22,4.0,0.16733292338804037,0.0,7.013447898569335e-06,7.0171794375629205e-06,0.7577957727545703,0.0,0.0,0.0,3.276741120186596,-3.85994804234887e-05,3.8693693739516615e-05,7.827636448410909e-07,618.6399311507857,618.6399573944286,618.6314918133658,618.6530221760476
0.32,1.0475574846623773e-06,4.000001048337595,0.09819185531170514,0.0008683314892442463,-0.0008683458589699163,1.7890095316792138e-05,1.49409180602207e-22,4.0,0.1709091349483273,0.0,5.413115590138685e-06,5.415713093702658e-06,0.7708730393484193,0.0,0.0,0.0,3.2344790938225874,-2.5517998580551154e-05,2.5626619605090496e-05,7.911456588710977e-07,617.6401942703368,617.640224576302,617.6354159358735,617.6496855594723
0.324,1.0120588668578117e-06,4.000001012844894,0.10136562440539588,0.0007859579942670155,-0.0007860580009014541,1.6442885454566154e-05,1.49409180602207e-22,4.0,0.17450827924103265,0.0,3.7346224983700567e-06,3.736053209260586e-06,0.7838064527064118,0.0,0.0,0.0,3.191678104735281,-1.2232952522767408e-05,1.2355184779936861e-05,7.958679654120245e-07,616.626061570084,616.626095729759,616.6250021025764,616.6318736075384
0.328,9.735595825015646e-07,4.000000974351786,0.10459008840539646,0.0006969852391820777,-0.0006971730447367026,1.5044380001346708e-05,1.49409180602207e-22,4.0,0.17812995150417288,0.0,1.9911749277075388e-06,1.9914280493151086e-06,0.7965920236469959,0.0,0.0,0.0,3.148365722927887,1.1172400697844758e-06,-9.82547947484883e-07,7.972526781232056e-07,615.5981163456983,615.5981540503284,615.6007963614713,615.6002085659509
0.332,9.324045191116497e-07,4.000000933203499,0.10786465345895252,0.0006023128388003163,-0.0006025889261846849,1.3695593624834947e-05,1.49409180602207e-22,4.0,0.18177375102190127,0.0,1.9684767538620968e-07,1.959360179862488e-07,0.8092287696360844,0.0,0.0,0.0,3.104548985977555,1.4416067455447843e-05,-1.4270259728392836e-05,7.955497728464756e-07,614.5564563884428,614.5564972738687,614.5628649312076,614.5548211312807
0.336,8.889597178985519e-07,4.000000889766418,0.11118868943648917,0.000502944328486147,-0.0005033073706032329,1.2397271761837118e-05,1.49409180602207e-22,4.0,0.18543928109038013,0.0,-1.6333235461155778e-06,-1.6353622032696843e-06,0.8217133963399018,0.0,0.0,0.0,3.0603157057358787,2.748161146464061e-05,-2.7326401850329355e-05,7.910286172731957e-07,613.5031044129062,613.5031480094062,613.5131803922066,613.4977855445283
0.34,8.43607602511556e-07,4.000000844423302,0.11456155434445565,0.00039993164657034356,-0.00040037844760170186,1.1149905788703236e-05,1.49409180602207e-22,4.0,0.18912614898391797,0.0,-3.4832859138094266e-06,-3.486387573433319e-06,0.8340407012828003,0.0,0.0,0.0,3.0157053643404823,4.015966754334823e-05,-3.9997029286828486e-05,7.839518610690635e-07,612.4389423933574,612.438988155851,612.4525819903645,612.4300279100032
0.34400000000000003,7.967427424179641e-07,4.0000007975690455,0.11798259700058907,0.0002943597228305413,-0.0002948851937985288,9.953759526510736e-06,1.49409180602207e-22,4.0,0.19283396592136995,0.0,-5.336137482594319e-06,-5.340210977122852e-06,0.8462069500489561,0.0,0.0,0.0,2.97075245226605,5.23125720398546e-05,-5.2144718195835974e-05,7.74561589889374e-07,611.3647384788686,611.364785791889,611.3817994235576,611.3523561230262
0.34800000000000003,7.487678626970301e-07,4.000000749606679,0.1214511450216716,0.00018735500283055157,-0.0001879521597689896,8.808845548412599e-06,1.49409180602207e-22,4.0,0.19656234703279932,0.0,-7.174465756604507e-06,-7.179392667099897e-06,0.8582086242020154,0.0,0.0,0.0,2.925516191087288,6.378931250437434e-05,-6.361867275860349e-05,7.631368918868772e-07,610.2818582019436,610.2819063855724,610.3021557946622,610.2661796741531
0.35200000000000004,7.000891830990064e-07,4.000000700942701,0.12496651967242683,8.005037388494146e-05,-8.071037496937677e-05,7.715093654343385e-06,1.49409180602207e-22,4.0,0.20031091132639836,0.0,-8.980423783846321e-06,-8.986058441363302e-06,0.8700425160635525,0.0,0.0,0.0,2.88002640085321,7.446526418495413e-05,-7.429445503357904e-05,7.497703662873282e-07,609.1909709476698,609.1910192655025,609.2142846452444,609.172204226202
0.35600000000000004,6.511112422054309e-07,4.000000651981896,0.12852808050872824,-2.649695192388805e-05,2.578470950569992e-05,6.6722418369811555e-06,1.49409180602207e-22,4.0,0.20407928165566647,0.0,-1.073642640287521e-05,-1.0742596945759911e-05,0.8817103542803558,0.0,0.0,0.0,2.834222558190201,8.430070495381508e-05,-8.413246802482178e-05,7.346853851500764e-07,608.0905779459123,608.0906256222434,608.1166756201775,608.0689438493888
0.36000000000000004,6.022339826107217e-07,4.000000603124412,0.13213516942455855,-0.00013122746887949186,0.00013047525098404555,5.679808762067511e-06,1.49409180602207e-22,4.0,0.20786708468684376,0.0,-1.2425524638916763e-05,-1.2432034606701345e-05,0.8932151131346527,0.0,0.0,0.0,2.7881565342167267,9.319140652619748e-05,-9.302858476472889e-05,7.181453623871086e-07,606.9818767022465,606.9819229282655,607.0104962437026,606.9576275233163
0.36400000000000005,5.53849048133316e-07,4.000000554762052,0.1357870803826083,-0.00023305334928424375,0.00023227494066308893,4.737090825563404e-06,1.49409180602207e-22,4.0,0.21167395086659818,0.0,-1.4031033687330112e-05,-1.4037663813966841e-05,0.9045513694652374,0.0,0.0,0.0,2.741942252435223,0.00010099021785353455,-0.0001008357097588451,7.004261894910224e-07,605.867570690569,605.8676146369685,605.8984075006831,605.8410027936967
0.36800000000000005,5.063352508218431e-07,4.000000507273737,0.13948309540921228,-0.00033091819361744015,0.0003301287307236983,3.84340137747385e-06,1.49409180602207e-22,4.0,0.21549951438996437,0.0,-1.553627279182736e-05,-1.554278366284729e-05,0.9157118372429747,0.0,0.0,0.0,2.6956221688019535,0.00010760421807553867,-0.00010746096108032586,6.8153348293202e-07,604.7486554759807,604.7486962976441,604.7813768238722,604.7200933352632
0.37200000000000005,4.600544255982811e-07,4.000000461021352,0.1432225242926019,-0.00042385171651643016,0.0004230675238118707,2.9980062464025362e-06,1.49409180602207e-22,4.0,0.21934341316853212,0.0,-1.6925221114573735e-05,-1.6931356101670993e-05,0.9266955857046966,0.0,0.0,0.0,2.649158607870542,0.0001130064059875396,-0.00011287731950082526,6.615475284456099e-07,603.6241926459192,603.6242294981613,603.6584565851715,603.5939704075682
0.37600000000000006,4.153481264879069e-07,4.000000416346444,0.147004711162173,-0.0005109781639800202,0.0005102165899542527,2.1999742950702764e-06,1.49409180602207e-22,4.0,0.223205288798883,0.0,-1.8183303284302672e-05,-1.818879152423745e-05,0.9375092692314329,0.0,0.0,0.0,2.6024997121886546,0.0001171909504085864,-0.00011707893367133418,6.407251891898741e-07,602.4928921839211,602.4929242230547,602.5283540863221,602.4613482075255
0.38000000000000006,3.7253468469292797e-07,4.000000373567274,0.15082895154937084,-0.00059145139920566,0.0005907305123630215,1.448276669880439e-06,1.49409180602207e-22,4.0,0.2270847865312729,0.0,-1.9297303796228318e-05,-1.9301863702954592e-05,0.9481527829759425,0.0,0.0,0.0,2.5557609109563155,0.00012008320895742228,-0.00011999101595889119,6.1921554219478e-07,601.3575219784417,601.3575483973563,601.3938142114943,601.3250185257048
0.38400000000000006,3.3190625982698547e-07,4.000000332975863,0.15469455321070297,-0.0006645091043792974,0.0006638474745688953,7.418409928216173e-07,1.49409180602207e-22,4.0,0.23098155523855898,0.0,-2.025524706975764e-05,-2.0258590639264563e-05,0.9586236405807661,0.0,0.0,0.0,2.5089357961086884,0.00012167047834227576,-0.00012160072425636624,5.971084441525946e-07,600.2179026666448,600.2179226933954,600.2546521678133,600.1848079883689
0.38800000000000007,2.9372611372606924e-07,4.000000294835267,0.15860081179287455,-0.0007294678969518153,0.0007288843023873936,7.941946950787791e-08,1.49409180602207e-22,4.0,0.23489524738536904,0.0,-2.104644535734281e-05,-2.1048283122523936e-05,0.9689194485353616,0.0,0.0,0.0,2.46206701214782,0.00012193926661942388,-0.0001218943647751991,5.746496845392655e-07,599.0750504694371,599.0750633855766,599.11187886454,599.0417396524043
0.39200000000000007,2.582261019761416e-07,4.000000259377071,0.1625469925811693,-0.000785727147390554,0.0007852402131487053,-5.402898520235267e-07,1.49409180602207e-22,4.0,0.23882551899751153,0.0,-2.1661797614609344e-05,-2.166184353392063e-05,0.979036749619801,0.0,0.0,0.0,2.415234685422142,0.00012088534878537628,-0.00012086735379411782,5.519506936536829e-07,597.9309061084319,597.9309112946459,597.9674318597221,597.8977581565933
0.3960000000000001,2.256050342102357e-07,4.000000226799741,0.16653236553502276,-0.0008327846714603705,0.0008324125947155778,-1.1185368180139637e-06,1.49409180602207e-22,4.0,0.2427720296316244,0.0,-2.2093862061346905e-05,-2.2091839605985237e-05,0.9889719346672237,0.0,0.0,0.0,2.3684488583748857,0.00011853554217579248,-0.00011854629983062723,5.290010842368196e-07,596.7857081952372,596.7857050888973,596.8215552651908,596.7530965906898
0.4000000000000001,1.9602744669930465e-07,4.0000001972674095,0.17055622469608314,-0.0008702386489150006,0.0008699989876757462,-1.6566299085418809e-06,1.49409180602207e-22,4.0,0.24673444234506117,0.0,-2.2337023724965057e-05,-2.233267062273342e-05,0.9987266714161501,0.0,0.0,0.0,2.32168008846602,0.00011492836523067031,-0.00011496940886850568,5.059177779722965e-07,595.6387276451475,595.6387157707193,595.673529367106,595.607017292125
0.4040000000000001,1.6962194529507615e-07,4.0000001709082165,0.17461785420793888,-0.0008977935293602671,0.0008977028758002274,-2.156028425902849e-06,1.49409180602207e-22,4.0,0.25071242366601226,0.0,-2.238762088376253e-05,-2.2380693773500294e-05,1.0083030620512763,0.0,0.0,0.0,2.2749671814057133,0.00011010911100433204,-0.00011018164210960379,4.8292788619253e-07,594.4909082228386,594.490887198184,594.5243095702987,594.4604538572744
0.4080000000000001,1.464800375653791e-07,4.000000147813145,0.1787165100085945,-0.0009152719095511453,0.0009153454930732524,-2.6182117810829902e-06,1.49409180602207e-22,4.0,0.25470564356386,0.0,-2.2244068799311635e-05,-2.2234348598137038e-05,1.0176982034813464,0.0,0.0,0.0,2.2283864658689434,0.00010414782897169198,-0.00010425252988322304,4.601121212852885e-07,593.3441258991967,593.344095490794,593.3757902689701,593.3152644640053
0.412,1.2665631361927983e-07,4.000000128036205,0.18285144812838286,-0.0009226074123819121,0.0009228588165215027,-3.0446565941305597e-06,1.49409180602207e-22,4.0,0.25871377541976515,0.0,-2.1906939916458145e-05,-2.1894238396992896e-05,1.0269083534744574,0.0,0.0,0.0,2.1819577902654492,9.712831604054474e-05,-9.726548760986748e-05,4.375253742611576e-07,592.1988766472933,592.1988367313566,592.2284900146885,592.1719229494436
0.416,1.1016875649122937e-07,4.000000111594756,0.18702193354188587,-0.0009198376852280122,0.0009202786156381984,-3.436768880591625e-06,1.49409180602207e-22,4.0,0.2627364959974844,0.0,-2.1378938112569767e-05,-2.136310284850099e-05,1.0359333148333343,0.0,0.0,0.0,2.1356830861484744,8.913490446524648e-05,-8.930438925228525e-05,4.151433076468328e-07,591.0552171348934,591.0551677206138,591.0824881711491,591.0304632656156
0.42,9.699948677106322e-08,4.000000098470252,0.19122725047965364,-0.0009070934246956791,0.000907733540862053,-3.7960625289877878e-06,1.49409180602207e-22,4.0,0.2667734854144151,0.0,-2.0664706819772088e-05,-2.0645625337811843e-05,1.0447760276743228,0.0,0.0,0.0,2.089543122853592,8.025084334245205e-05,-8.04521970551321e-05,3.9314727279602457e-07,589.9126796101325,589.91262079058,589.937340206827,589.8903956469039
0.424,8.70946279188692e-08,4.000000088608125,0.19546666495041953,-0.0008846280213707289,0.0008854746315007644,-4.12398450892459e-06,1.49409180602207e-22,4.0,0.27082442711286775,0.0,-1.9770905651927003e-05,-1.9748508619288093e-05,1.053437372734857,0.0,0.0,0.0,2.04359416783389,7.059037686557647e-05,-7.082253979374399e-05,3.715189717940566e-07,588.7726679606149,588.7726000097418,588.7944817876273,588.7530922668565
0.428,8.036646807560616e-08,4.000000081919942,0.1997394608425749,-0.0008527784579686152,0.0008538363930716566,-4.422053040759175e-06,1.49409180602207e-22,4.0,0.2748890078315629,0.0,-1.8706118135796173e-05,-1.8680383215122484e-05,1.0619176534760608,0.0,0.0,0.0,1.9978198507065823,6.0256534624430725e-05,-6.05181787488589e-05,3.5039886385834133e-07,587.634789279602,587.6347125517042,587.6535493268672,587.6181318577378
0.432,7.669382979013793e-08,4.000000078283792,0.20404489836475748,-0.000812009268204181,0.0008132806113608902,-4.691787275538817e-06,1.49409180602207e-22,4.0,0.27896691757735176,0.0,-1.748095722425744e-05,-1.7451912502834493e-05,1.0702158992195052,0.0,0.0,0.0,1.9522876259225346,4.939013240677649e-05,-4.967930959620372e-05,3.2984829503171367e-07,586.5007375344627,586.5006525684407,586.5162771369692,586.4871686112958
0.436,7.592471038641476e-08,4.000000077546934,0.20838223967447553,-0.0007628770422084433,0.0007643609972072107,-4.934666240539184e-06,1.49409180602207e-22,4.0,0.28305784959715835,0.0,-1.610798576787631e-05,-1.6075712923737465e-05,1.078330324532617,0.0,0.0,0.0,1.9070137380518706,3.81256971099072e-05,-3.844005755089515e-05,3.098807975276412e-07,585.370940669414,585.3708481257801,585.3831318894465,585.3605919622248
0.44,7.787859169772639e-08,4.000000079528119,0.212750751075013,-0.0007060210783794161,0.0007077138839179231,-5.1521448001814735e-06,1.49409180602207e-22,4.0,0.28716150035014176,0.0,-1.4601595731060122e-05,-1.4566231732523515e-05,1.0862605447149525,0.0,0.0,0.0,1.8620099593986712,2.6591381630283476e-05,-2.6928155756076057e-05,2.905270040791164e-07,584.2457178919911,584.2456185591172,584.2544700103103,584.2386842334804
0.444,8.23485972350474e-08,4.000000084019754,0.2171496903721671,-0.0006421751481092739,0.0006440699921708679,-5.345750923657081e-06,1.49409180602207e-22,4.0,0.29127756948007677,0.0,-1.2977739197048208e-05,-1.2939477662692397e-05,1.0940063359090573,0.0,0.0,0.0,1.8173136378821224,1.4934779019414457e-05,-1.5290803593073145e-05,2.719302807497864e-07,583.1260319255115,583.1259267130046,583.1312978341689,583.1223655724381
0.448,8.910452072282194e-08,4.000000090790941,0.22157831476197873,-0.0005721466827169744,0.0005742336801423052,-5.516811054187585e-06,1.49409180602207e-22,4.0,0.2954057597879513,0.0,-1.1253928926281659e-05,-1.1213020623375592e-05,1.1015669939629689,0.0,0.0,0.0,1.7729464317039745,3.2976595889452288e-06,-3.6694062628621593e-06,2.539162900611358e-07,582.0124590797745,582.0123490108723,582.014232924388,582.0121700781168
0.452,9.78966235437608e-08,4.000000099591291,0.22603590851501243,-0.0004967646509963883,0.0004990309487459091,-5.666672549093694e-06,1.49409180602207e-22,4.0,0.299545777204779,0.0,-9.448730925487763e-06,-9.405482522380015e-06,1.1089443269988988,0.0,0.0,0.0,1.728873880056267,-8.222380172014993e-06,7.838702721612808e-06,2.3656235700797807e-07,580.9041669155163,580.9040530973431,580.9024721111656,580.9072366360821
0.456,1.0845804748835641e-07,4.000000110153336,0.23052175927785534,-0.000416906347193506,0.00041933620045044983,-5.796644503888134e-06,1.49409180602207e-22,4.0,0.30369733076462535,0.0,-7.5813200102890704e-06,-7.536092165561772e-06,1.1161422526774085,0.0,0.0,0.0,1.6851088022567007,-1.9507873503359035e-05,1.9116236540567892e-05,2.1987763263162894e-07,579.8015089707363,579.8013925704201,579.7964041071251,579.807883752005
0.46,1.2050801783685944e-07,4.000000122195753,0.23503515833316807,-0.0003334868905742176,0.0003360617812344717,-5.907994153316803e-06,1.49409180602207e-22,4.0,0.30786013257784606,0.0,-5.671391674996909e-06,-5.624595609786866e-06,1.1231623247836748,0.0,0.0,0.0,1.6416634285155425,-3.0438652902998805e-05,3.0043315094188524e-05,2.038655840595277e-07,578.7048264278692,578.7047087049359,578.6964063299547,578.7144165141804
0.464,1.3375526123380403e-07,4.000000135426784,0.23957540699419977,-0.0002474393118819835,0.0002501381109941547,-6.001883520285778e-06,1.49409180602207e-22,4.0,0.3120338978045353,0.0,-3.739089949302994e-06,-3.691184216039297e-06,1.1300060829457363,0.0,0.0,0.0,1.598536941221265,-4.0909801789664214e-05,4.051514386493338e-05,1.8845404388003867e-07,577.6141327204954,577.614014978106,577.602523931252,577.6268162542611
0.468,1.4790150427895738e-07,4.000000149547746,0.24414182646365457,-0.00015968928160577643,0.00016248845789418304,-6.079504101187447e-06,1.49409180602207e-22,4.0,0.31621834462818327,0.0,-1.8045456194351363e-06,-1.7560312790236103e-06,1.1366767035871554,0.0,0.0,0.0,1.5557082396856088,-5.0840422408339367e-05,5.0450943107645046e-05,1.737239392280128e-07,576.5289265227078,576.5288101065914,576.5142808297293,576.544556985941
0.47200000000000003,1.6264387915343112e-07,4.000000164255442,0.2487337167789359,-7.120732886173884e-05,7.408117137843056e-05,-6.142008566898017e-06,1.49409180602207e-22,4.0,0.3204131942295409,0.0,1.1211517222997732e-07,1.606991726365365e-07,1.1431748725507194,0.0,0.0,0.0,1.5132389554014174,-6.009856949202784e-05,5.971877922111475e-05,1.5967770666161214e-07,575.4508049443947,575.4506912116656,575.4333146535064,575.4691953569197
0.47600000000000003,1.776787664731542e-07,4.000000179246014,0.2533503811210663,1.7038204996127825e-05,-1.4117317513925107e-05,-6.190484087419525e-06,1.49409180602207e-22,4.0,0.32461817076068994,0.0,1.990754748569481e-06,2.038837265588219e-06,1.1494991995021104,0.0,0.0,0.0,1.4711421038355539,-6.858477306312147e-05,6.82192208504094e-05,1.462851078736665e-07,574.3801392637693,574.3800295907428,574.3600276326663,574.4010715530316
0.48000000000000004,1.927052018977071e-07,4.00000019421835,0.25799113401579526,0.00010410183482757125,-0.00010116314400962705,-6.225916615087139e-06,1.49409180602207e-22,4.0,0.3288330013193178,0.0,3.8114577375245427e-06,3.858441859221552e-06,1.1556502563134115,0.0,0.0,0.0,1.4294140001534028,-7.622519643971676e-05,7.587835829140985e-05,1.3347156791736557e-07,573.3168774013809,573.3167731499666,573.2943909985668,573.3401097265987
0.48400000000000004,2.074281470700681e-07,4.000000208877364,0.2626553107669427,0.00018908233746113453,-0.00018615640497114373,-6.249307338696161e-06,1.49409180602207e-22,4.0,0.33305741592319466,0.0,5.555199149891595e-06,5.60046909326248e-06,1.1616315216087063,0.0,0.0,0.0,1.3880314964958425,-8.297065533848888e-05,8.264690568767765e-05,1.212944611904408e-07,572.2604690795754,572.2603715883828,572.2358709144039,572.2857435323599
0.48800000000000004,2.2156096134642975e-07,4.000000222936473,0.2673422159789079,0.00027107200965957324,-0.00026819027372936065,-6.261681398463558e-06,1.49409180602207e-22,4.0,0.3372911474848517,0.0,7.203819525547272e-06,7.246748126186194e-06,1.1674428710347902,0.0,0.0,0.0,1.3470753003182288,-8.872161018593227e-05,8.842507953479152e-05,1.0982203809804148e-07,571.2130182609438,571.2129288025054,571.1866032276819,571.2400454484105
0.49200000000000005,2.3482869333423096e-07,4.000000236120886,0.2720511542560628,0.00034920139230433674,-0.0003463957775893583,-6.2638920019584216e-06,1.49409180602207e-22,4.0,0.34153393178645947,0.0,8.739917903584896e-06,8.779875622172455e-06,1.1730817076798328,0.0,0.0,0.0,1.3065648358127597,-9.341803367266895e-05,9.315257617722242e-05,9.889478056771374e-08,570.1750727491135,570.1749925191526,570.1471551143212,570.2035428400548
0.49600000000000005,2.4697105133599033e-07,4.000000248170579,0.2767814634363772,0.00042267942551434416,-0.0004199820525656787,-6.256742115288288e-06,1.49409180602207e-22,4.0,0.3457855074549036,0.0,1.0147237487798124e-05,1.0183600677685383e-05,1.1785496142980805,0.0,0.0,0.0,1.2664521216064941,-9.704968745080949e-05,9.681893745998386e-05,8.848832453295776e-08,569.1454518991264,569.1453820327478,569.1163506880927,569.175050114191
0.5,2.577447431543227e-07,4.000000258842626,0.28153250745391345,0.0004907892350334826,-0.00048823211693230353,-6.241004292096058e-06,1.49409180602207e-22,4.0,0.3500456159370581,0.0,1.1411318790781814e-05,1.1443476762815926e-05,1.1838534584308313,0.0,0.0,0.0,1.2267026446788596,-9.961089960279509e-05,9.941823730018273e-05,7.859946231276125e-08,568.1233127228397,568.1232542836829,568.0933504152313,568.1537207609865
0.504,2.669256689230907e-07,4.000000267913403,0.28630364696864447,0.000552873074983672,-0.0005504876781309807,-6.21746548953704e-06,1.49409180602207e-22,4.0,0.35431400147525294,0.0,1.2519552352654705e-05,1.2546914587446682e-05,1.1889970107734336,0.0,0.0,0.0,1.187340708990286,-0.00010108242348701724,0.00010093088317957788,6.927614347479678e-08,567.1093223018946,567.1092762538516,567.0788291958673,567.140214275413
0.508,2.743110420205012e-07,4.0000002751807,0.29109422388822875,0.0006083332407186014,-0.0006061499513879381,-6.186865740743405e-06,1.49409180602207e-22,4.0,0.3585904110829363,0.0,1.3460994837423759e-05,1.3483000216270294e-05,1.1939791165924312,0.0,0.0,0.0,1.148422177440381,-0.00010144848079075653,0.00010134052335725215,6.049532372204453e-08,566.1049674711086,566.1049346082467,566.0742804731042,566.1360105879213
0.512,2.797211215933241e-07,4.00000028046545,0.29590358562814856,0.0006566509148826396,-0.0006546986353993307,-6.149895088936924e-06,1.49409180602207e-22,4.0,0.36287459452052856,0.0,1.4226386424787148e-05,1.4242512955762849e-05,1.1987979158691138,0.0,0.0,0.0,1.1099543153304294,-0.00010072150903501177,0.00010065905590086786,5.222850212902779e-08,565.1104877247293,565.1104686801818,565.0799416757066,565.1413509337607
0.516,2.8300084127812566e-07,4.000000283613355,0.30073107621613765,0.0006973927089004679,-0.0006956983966770897,-6.107251739595072e-06,1.49409180602207e-22,4.0,0.36716630427146696,0.0,1.4808360908163387e-05,1.4818135052163166e-05,1.2034529491186081,0.0,0.0,0.0,1.0719623066515154,-9.892593416254198e-05,9.891036793672417e-05,4.451310412339015e-08,564.1265880859838,564.1265833309179,564.0965122871668,564.1569459744011
0.52,2.8402093082964665e-07,4.000000284495997,0.3055760429527196,0.0007302133447420885,-0.0007288016157163378,-6.0595230165187296e-06,1.49409180602207e-22,4.0,0.3714652955184403,0.0,1.5201623190982634e-05,1.5204628318531981e-05,1.2079445788757543,0.0,0.0,0.0,1.0344579659262483,-9.609911388443674e-05,9.613122798448991e-05,3.724787690786921e-08,563.1536310284185,563.1536408553665,563.1243447378697,563.1831674084531
0.524,2.826784027471698e-07,4.000000283011313,0.3104378653219281,0.0007548530997242,-0.0007537460635633178,-6.00726185398691e-06,1.49409180602207e-22,4.0,0.37577132611981134,0.0,1.5402969890912344e-05,1.5398853149995102e-05,1.2122758271580816,0.0,0.0,0.0,0.997394368393616,-9.228734158038689e-05,9.23675034476417e-05,3.0416410462105803e-08,562.1904529675078,562.1904775391473,562.1622627510156,562.2188641206517
0.528,2.788972586986786e-07,4.000000279084298,0.315315942993283,0.0007711376164815355,-0.0007703546579441991,-5.951027046560036e-06,1.49409180602207e-22,4.0,0.3800841565862256,0.0,1.5411237337750204e-05,1.5399713692333882e-05,1.216452865053532,0.0,0.0,0.0,0.960747952854839,-8.753879774554919e-05,8.766704325732693e-05,2.4047939358322222e-08,561.236490396707,561.2365297740172,561.2096896133723,561.263485911248
0.532,2.7262966525323705e-07,4.000000272668171,0.32020965009863167,0.0007790022198803015,-0.0007785594564662849,-5.891386833005715e-06,1.49409180602207e-22,4.0,0.38440355005740573,0.0,1.5227403762935109e-05,1.5208261052441873e-05,1.2204766042666826,0.0,0.0,0.0,0.9245873494277947,-8.192943661613696e-05,8.210491769524353e-05,1.8176164414008373e-08,560.2935815518084,560.2936355232991,560.2684418190835,560.3188927151463
0.536,2.638556767142492e-07,4.000000263744089,0.3251183523977306,0.0007784864418620694,-0.0007783963447345326,-5.828846819985747e-06,1.49409180602207e-22,4.0,0.3887292722791297,0.0,1.4854758128874239e-05,1.4827864677017882e-05,1.2243441607448946,0.0,0.0,0.0,0.88894720314487,-7.555170474460242e-05,7.577290148101572e-05,1.2751017395743006e-08,559.3626881747103,559.3627563198648,559.3394537774305,559.386073081371
0.54,2.525822100794523e-07,4.000000252320104,0.33004143790716145,0.0007697082641595002,-0.0007699795600873585,-5.763851500259162e-06,1.49409180602207e-22,4.0,0.3930610915803909,0.0,1.4298808751472958e-05,1.426411938343614e-05,1.2280554650285,0.0,0.0,0.0,0.8538003023654082,-6.848374445486795e-05,6.874862572537824e-05,7.721666993524517e-09,558.4431580038413,558.4432397414693,558.4220500177726,558.4643974735675
0.544,2.388423204951392e-07,4.000000238430429,0.3349783197378303,0.0007528557921393745,-0.0007534934316805796,-5.696838744187068e-06,1.49409180602207e-22,4.0,0.39739877885074004,0.0,1.3566866829402808e-05,1.3524424094452718e-05,1.2316153293251655,0.0,0.0,0.0,0.8191130050681232,-6.0796244698005984e-05,6.110241127950667e-05,3.098458089684642e-09,557.5341649820571,557.5342596136275,557.515383600771,557.5530606750859
0.548,2.2269480489353469e-07,4.000000222135028,0.3399284171525614,0.0007282013025686224,-0.0007292063246255551,-5.628221368548165e-06,1.49409180602207e-22,4.0,0.40174210751780626,0.0,1.2667875941684725e-05,1.261781003755209e-05,1.2350283071001908,0.0,0.0,0.0,0.7848893506245012,-5.257756251025281e-05,5.29221179357905e-05,-1.1300363393012774e-09,556.6358669375509,556.63597360641,556.6195858131147,556.6522468301013
0.552,2.04223114471971e-07,4.000000203518518,0.3448911557888733,0.0006960967419646903,-0.0006974661864117669,-5.55838724230851e-06,1.49409180602207e-22,4.0,0.4060908535249972,0.0,1.161244363358718e-05,1.1554972410217145e-05,1.2382965053978734,0.0,0.0,0.0,0.7511327672328343,-4.3924714772418304e-05,4.43042822961284e-05,-4.976119721803003e-09,555.7484060257498,555.74852372144,555.7347693850511,555.7621272920122
0.556,1.8353389624801887e-07,4.000000182688698,0.34986597262099967,0.0006569611961015728,-0.0006586880949627296,-5.487683978808548e-06,1.49409180602207e-22,4.0,0.4104447953093749,0.0,1.041277379409897e-05,1.0348202688255446e-05,1.2414220066091448,0.0,0.0,0.0,0.7178364460728754,-3.493060325892554e-05,3.534138473263197e-05,-8.470974791481054e-09,554.8716549320241,554.8717825077487,554.8607785788465,554.8826028353141
0.56,1.6075526359120138e-07,4.000000159774804,0.35485232359582497,0.0006112635316974,-0.0006133369973987911,-5.4164539833810405e-06,1.49409180602207e-22,4.0,0.4148037137797089,0.0,9.082319202628443e-06,9.01103814103742e-06,1.244408162545182,0.0,0.0,0.0,0.6849777559885055,-2.567674800811056e-05,2.611459322006803e-05,-1.1606471879710134e-08,554.0050672223334,554.005203415902,553.997042009872,554.0131519223967
0.5640000000000001,1.360360121455261e-07,4.000000134926721,0.3598496517381527,0.0005595654768575211,-0.000561970637398469,-5.345016968851475e-06,1.49409180602207e-22,4.0,0.4191673922947029,0.0,7.635815019768841e-06,7.558296949867428e-06,1.247256387034908,0.0,0.0,0.0,0.6525982277903675,-1.6288598631805297e-05,1.674897770344776e-05,-1.4395095931363764e-08,553.1497885965154,553.1499320207531,553.1446665333575,553.154958898719
