Time_s,X,Y,Z,Roll_deg,Pitch_deg,Yaw_deg,Ref_X,Ref_Y,Ref_Z,Ref_Yaw,vx,vy,vz,p,q,r,T_pert,tau_x,tau_y,tau_z,RPM_0,RPM_1,RPM_2,RPM_3
0.0040000000000048885,0.6638534400580973,-2.2193157226773477,1.8703496048014647,-22.79756172227523,-17.052968405247114,5.512234454360078,0.6657911107565612,-2.225011410613829,7.200000000017598e-05,0.0,-0.4392098678692527,1.4427018549622643,0.3257611729520791,0.02272129277477144,-0.4624220471704773,0.000538648557918581,-10.19,1.0,1.0,-0.2,99.0610990677893,836.13125647371,0.0,0.0
0.008000000000009777,0.6618461777890512,-2.213563282687912,1.8688228801950229,-22.801507486231316,-17.150101499556534,5.555094608643953,0.6657434605658048,-2.224995306709068,0.00021513340800052478,0.0,-0.4493698461609307,1.455121929484465,0.3310579946755109,0.03130652963981107,-0.4610325806640937,0.0005405234756278857,-10.19,1.0,1.0,-0.2,99.0610990677893,836.13125647371,0.0,0.0
0.012000000000000455,0.6597930726449578,-2.207762299827352,1.8672815273214407,-22.80349383289797,-17.246923865298857,5.5978470875487805,0.6656724154127575,-2.224971296220123,0.0004285414703013474,0.0,-0.45957058382637256,1.467531860405461,0.336338491723285,0.03996484243538397,-0.45960290130523485,0.0005423827292691123,-10.19,1.0,1.0,-0.2,99.0610990677893,836.13125647371,0.0,0.0
0.016000000000005343,0.6576939051347711,-2.2019128877078202,1.865725519597915,-22.80350123203156,-17.343428340263443,5.640484540265,0.6655782585945915,-2.2249394748903817,0.0007113732083625512,0.0,-0.4698119358691989,1.4799309345824647,0.34160081133347103,0.04869620554797041,-0.4581327918704889,0.0005442260515806965,-10.19,1.0,1.0,-0.2,99.0610990677893,836.13125647371,0.0,0.0
0.020000000000010232,0.6555484569502202,-2.196015165113269,1.8641548322132444,-22.801510111781067,-17.439607716904074,5.682999580330567,0.6654612708409341,-2.224899937595501,0.0010627853561316913,0.0,-0.4800937589561592,1.4923184334506094,0.3468430782731545,0.05750058956512945,-0.4566220355949797,0.0005460531743447198,-10.19,1.0,1.0,-0.2,99.0610990677893,836.13125647371,0.0,0.0
0.02400000000000091,0.6533565109926369,-2.1900692560386066,1.862569442143224,-22.797500860259472,-17.535454741087737,5.725384787618483,0.6653217303345708,-2.2248527783504053,0.0014819422978532219,0.0,-0.49041591139431073,1.5046936326947364,0.3520633950101641,0.06637796103197534,-0.4550704142878129,0.0005478638260895046,-10.19,1.0,1.0,-0.2,99.0610990677893,836.13125647371,0.0,0.0
0.028000000000005798,0.6511178514001466,-2.184075289728953,1.8609693281655497,-22.79145382716587,-17.63096211081416,5.767632710382809,0.6651599127319913,-2.2247980903162303,0.0019680160063530122,0.0,-0.5007782531034944,1.5170558019101776,0.35725984189216964,0.07532828277439753,-0.45347771144009974,0.0005496577358400336,-10.19,1.0,1.0,-0.2,99.0610990677893,836.13125647371,0.0,0.0
0.03200000000001069,0.648832263575229,-2.178033400718981,1.8593544708742167,-22.783349325459398,-17.726122474906667,5.809735867364327,0.6649760911837843,-2.2247359658072137,0.002520185981774745,0.0,-0.5111806455836109,1.5294042042531255,0.362430477333901,0.08435151372683597,-0.451843710648326,0.0005514346311577623,-10.19,1.0,1.0,-0.2,99.0610990677893,836.13125647371,0.0,0.0
0.036000000000001364,0.6464995342126569,-2.1719437288723493,1.8577248526933958,-22.773167633086263,-17.82092843167432,5.851686749956887,0.6647705363548739,-2.2246664962975364,0.0031376391907938154,0.0,-0.5216229518769017,1.5417380960803884,0.36757333801228437,0.0934476087504566,-0.4501681947266185,0.0005531942370742469,-10.19,1.0,1.0,-0.2,99.0610990677893,836.13125647371,0.0,0.0
0.04000000000000625,0.6441196119710714,-2.165806589132701,1.8560799872504221,-22.7603641140495,-17.915274792932742,5.892829680260459,0.664543516444601,-2.2245897724281085,0.0038195700062961225,0.0,-0.5321081084446907,1.5540582061560138,0.372632733907833,0.10318497129864432,-0.4478771333196452,-0.00037146676894562705,-10.19,1.0,1.0,-0.2,99.0610990677893,836.13125647371,0.0,0.0
0.04400000000001114,0.6416968434214272,-2.1596269112390383,1.8544064858046345,-22.73319613437657,-18.001022192009103,5.92677813873647,0.6642952972066593,-2.2245058840133063,0.004565180147492341,0.0,-0.5427018870517492,1.5664276815799494,0.3760391357343319,0.13058275770216307,-0.4277878900028841,-0.00648492914792677,-10.19,1.0,1.0,-0.2,99.0610990677893,836.13125647371,0.0,0.0
0.04800000000000182,0.639237807689974,-2.153411831303859,1.8526843455118092,-22.672761766305868,-18.06305416631645,5.946002098226727,0.6640261419688743,-2.2244149200476575,0.005373678620505963,0.0,-0.55354990209593,1.5789845303528807,0.3752578661483999,0.20448377497277997,-0.3607692821588681,-0.01907163887210961,-10.19,1.0,1.0,-0.2,99.0610990677893,836.13125647371,0.0,0.0
0.05200000000000671,0.6367465765218077,-2.147165713796443,1.8509009232868583,-22.564004395575328,-18.089159804779612,5.944733241879707,0.663736311652831,-2.2243169687124746,0.006244281659416086,0.0,-0.5648066729131437,1.5918564323276874,0.3688625815480407,0.34243432360895953,-0.2290811558890545,-0.03554810226097547,-10.19,1.0,1.0,-0.2,99.0610990677893,836.13125647371,0.0,0.0
0.056000000000011596,0.6342255228692154,-2.1408910764893787,1.8490486817132834,-22.395130019907096,-18.06961310319578,5.918622909808367,0.6634260647933605,-2.2242121173824403,0.007176212667719711,0.0,-0.5765476585832167,1.6050692853180188,0.35773450977855836,0.5355026901191285,-0.041715458888115495,-0.053522399360035944,-10.19,1.0,1.0,-0.2,99.0610990677893,836.13125647371,0.0,0.0
0.060000000000002274,0.6316759758176012,-2.1345893208831113,1.8471233643661242,-22.15693222753328,-17.99656610147134,5.864523731250795,0.6630956575578724,-2.224100452632141,0.008168702160264074,0.0,-0.5887955593763354,1.6185989014963489,0.3427248253479317,0.7720593720916471,0.18959231082854527,-0.07243694691248369,-10.19,1.0,1.0,-0.17984130733436077,0.0,813.7983050279647,0.0,0.0
0.06400000000000716,0.6290986544490517,-2.128261208992071,1.8451228060818388,-21.84229792285127,-17.863581748271976,5.780362921057233,0.6627453437655367,-2.22398206024255,0.009220987705623782,0.0,-0.601536353510969,1.6323926532739812,0.3242683226825739,1.0431309270554998,0.4557662311616789,-0.09188935541103531,-10.19,1.0,1.0,-0.14291250257456461,0.0,771.2107542484177,0.0,0.0
0.06800000000001205,0.6264941312639173,-2.1219073439802165,1.8430456271202036,-21.445847159735596,-17.665148244553585,5.665256832921519,0.6623753749063336,-2.223857025207465,0.01033231386888193,0.0,-0.6147231403736305,1.6463755856043896,0.3024772535099455,1.3418247133011159,0.7498190870622431,-0.11113722632599762,-10.19,1.0,1.0,-0.10371115633296168,0.0,723.2637322466645,0.0,0.0
0.07200000000000273,0.623863189965614,-2.1155285307561327,1.8408902134708605,-20.963944089616195,-17.396893125439046,5.519230300656845,0.6619860001599456,-2.2237254317398945,0.011501932154877496,0.0,-0.6282782748992459,1.660453738136783,0.27718560221332267,1.6622016354879818,1.065730785803354,-0.1296665053176125,-10.19,1.0,1.0,-0.06326007129758568,0.0,670.2017942106326,0.0,0.0
0.07600000000000762,0.6212068120195751,-2.109125777961754,1.8386548182256068,-20.39552484821432,-17.056299845900014,5.34350179970756,0.6615774664145071,-2.2235873632783916,0.012729100951887803,0.0,-0.6420913608560957,1.6745051837458518,0.24808944154756657,1.9972145830033683,1.3963739367958001,-0.14739153398398538,-10.19,1.0,1.0,-0.022952470747808734,0.0,612.7746215850582,0.0,0.0
0.0800000000000125,0.6185260158651846,-2.102700136033056,1.8363379791437997,-19.740994494999317,-16.641762949210953,5.140200515554311,0.6611500182852229,-2.223442902493349,0.014013085475699875,0.0,-0.656020489298575,1.6883722393073868,0.2149734106077285,2.3398748558949762,1.7346643172018208,-0.16441005955979476,-10.19,1.0,1.0,0.016099831051129165,0.0,551.4613060391725,135.33551917337735,135.33551917337735
0.08400000000000318,0.6158225010432544,-2.0962533410316757,1.8339365494159559,-19.004216513834525,-16.154185976872725,4.913253696871757,0.6607038981328335,-2.2232921312932374,0.015353157714144272,0.0,-0.6698905320474283,1.7018696171162382,0.1775363653654059,2.6814721148554383,2.071800481506828,-0.17989936793418781,-10.19,1.0,1.0,0.05171090569742404,0.0,488.89321839527634,288.80563674462144,288.8056367446214
0.08800000000000807,0.6130987462090295,-2.089787954730466,1.8314453261746864,-18.192960399838487,-15.597520435562501,4.6685301812646935,0.6602393460819383,-2.2231351308308,0.016748596372054485,0.0,-0.6834827513559607,1.7147820715614244,0.13534427686707792,3.0101052206215035,2.395766599747542,-0.19189690636080373,-10.19,1.0,1.0,0.08145305559619087,0.0,429.7107313904569,371.1791509988622,371.1791509988622
0.09200000000001296,0.6103572456397668,-2.083306640374679,1.828859312492363,-17.31615026306814,-14.977105001433705,4.412087053830757,0.6597566000391949,-2.222971981509202,0.018198686816600536,0.0,-0.6965376718014964,1.7268593481006829,0.08816787797633119,3.314704862580103,2.6953081261111116,-0.19916454051765758,-10.19,1.0,1.0,0.10486662560078508,0.0,376.63506264062244,424.93682400805415,424.9368240080542
0.09600000000000364,0.6076001176582888,-2.0768117123246594,1.8261747514628537,-16.382356547547083,-14.298475447117905,4.149538783767562,0.6592558957113648,-2.2228027629881297,0.019702721023081255,0.0,-0.708787923543393,1.737839484876408,0.036278729101027765,3.5906918689428524,2.96564309440271,-0.20204649701661997,-10.19,1.0,1.0,0.12222075585103134,0.0,331.8623127914386,460.75229804860976,460.75229804860976
0.10000000000000853,0.6048292004377426,-2.0703052157441273,1.8233888414857322,-15.400695271389262,-13.568124615150497,3.8863804905413906,0.6587374666232212,-2.2226275541898417,0.021259997521132806,0.0,-0.71998312586793,1.7474812175609145,-0.019785780522143012,3.836203580282116,3.2047696710019964,-0.20141408125618332,-10.19,1.0,1.0,0.1334247437496768,0.0,299.4210737804046,482.4648125869358,482.4648125869358
0.10400000000001342,0.6020458600795213,-2.063788699650341,1.8205003693900033,-14.379098693432994,-12.79205922381459,3.627287837922079,0.6582015441353368,-2.2224464333051825,0.02286982134129713,0.0,-0.7299046058691101,1.755580431476345,-0.07937770722445443,4.051457101655597,3.412879392586299,-0.1975768150072237,-10.19,1.0,1.0,0.13921023843300545,0.0,281.2076694273414,493.30266719692554,493.30266719692554
0.10800000000000409,0.5992511703493156,-2.057263401597131,1.817509239852414,-13.324976947706064,-11.976239987373583,3.3765301498105544,0.6576483574617202,-2.222259477799541,0.02453150396204526,0.0,-0.7383638038916294,1.7619663161614922,-0.1418316242288265,4.237436272753369,3.59099590975491,-0.1912972955404727,-10.19,1.0,1.0,0.13985962748655545,0.0,279.08913277719535,494.50432836733654,494.50432836733654
0.11200000000000898,0.5964459569118657,-2.050730293867651,1.8144164376905956,-12.244471544718317,-11.125989036192202,3.137519200664732,0.6570781336873164,-2.2220667644187655,0.02624436325720776,0.0,-0.7452058656093709,1.7665026498652483,-0.20650382392308061,4.397017676766272,3.7420953977350293,-0.18271421678109753,-10.19,1.0,1.0,0.1361987701927195,0.0,290.83049131816915,487.69139845602143,487.6913984560215
0.11600000000001387,0.5936309025731368,-2.044190194502825,1.8112237343764157,-11.14218911815463,-10.245602713135387,2.9129054145610933,0.6564910977853926,-2.22186836919504,0.028007723443751197,0.0,-0.7503062754882939,1.7690798354544064,-0.27283770218652054,4.533912059018591,3.8700132976090735,-0.17263261797562177,-10.19,1.0,1.0,0.12897612567695332,0.0,312.7052080665968,473.96279142606113,473.9627914260612
0.12000000000000455,0.5908066654166649,-2.0376438914430532,1.8079332746550436,-10.021280678327916,-9.338328134459108,2.704684479131226,0.6558874726347738,-2.2216643674527092,0.029820915030005668,0.0,-0.7535682387824612,1.7696099640189953,-0.3403835902932564,4.653261259479075,3.9800360093242504,-0.16164099279623553,-10.19,1.0,1.0,0.11884668958695627,0.0,341.02786385053474,454.01021011195195,454.01021011195195
0.12400000000000944,0.5879739664666211,-2.031092232795999,1.8045471891339355,-8.88364483325213,-8.4064524880696,2.514376135277915,0.6552674790369454,-2.2214548338140574,0.03168327476429052,0.0,-0.7549133596544131,1.768018273437993,-0.4088364139853831,4.760035402064705,4.077273769040806,-0.15021641021193055,-10.19,1.0,1.0,0.10628334916777801,0.0,373.1814048249698,427.9730294086528,427.9730294086528
0.1280000000000001,0.5851336396576499,-2.0245361758668716,1.8010672764260902,-7.730151690318651,-7.451474591378732,2.343063449791111,0.6546313357330479,-2.2212398422050526,0.033594145583865614,0.0,-0.7542747967851964,1.7642363587418939,-0.47802206832707395,4.85859938421995,4.1662191920331395,-0.13890676898132626,-10.19,1.0,1.0,0.09173255285086557,0.0,407.26104793450344,395.68132839906366,395.6813283990637
0.132000000000005,0.5822866536333416,-2.017976804194577,1.797494709733791,-6.56071084556209,-6.474061266849279,2.191663339698223,0.6539792594207084,-2.221019465861036,0.035552876564371644,0.0,-0.7515911236526417,1.7581964181744347,-0.5478790915967579,4.952824071678137,4.250858092664773,-0.12804431854423617,-10.19,1.0,1.0,0.07534258947441884,0.0,442.5161574105698,355.8155775664429,355.8155775664429
0.1360000000000099,0.579434063036568,-2.011415282908512,1.7938302735071208,-5.374856573938369,-5.474609969037486,2.061027020093745,0.6533114647707778,-2.2207937773323767,0.03755882286955543,0.0,-0.7467994995632573,1.7498268159902644,-0.6183908758206027,5.0454897988942555,4.334058814979319,-0.11784845507844517,-10.19,1.0,1.0,0.05715116756381519,0.0,478.6150846211149,305.5370281675865,305.5370281675866
0.14000000000000057,0.5765770387097253,-2.0048528666983416,1.7900736493351344,-4.171232806100857,-4.4527965970147445,1.9514787703891827,0.6526281644439171,-2.220562848490078,0.03961134570144639,0.0,-0.7398368888538069,1.7390503132898452,-0.68961347628901,5.139133855202838,4.418441420130771,-0.10912420070831738,-10.19,1.0,1.0,0.03773742810380125,0.0,514.3525117120339,240.55512570693563,240.55512570693566
0.14400000000000546,0.573716831067253,-1.9982908452889445,1.7862230987340655,-2.9475730336295918,-3.407396483941534,1.8634279745970566,0.6519295691070564,-2.22032675053134,0.04170981225091676,0.0,-0.7306369219443101,1.7257791735166006,-0.7617090309066853,5.23680914223079,4.507151610621159,-0.10287146932250649,-10.19,1.0,1.0,0.016987167280329757,0.0,549.9887475045277,141.2007522173957,141.2007522173957
0.14800000000001035,0.5708546763973895,-1.9917304453647857,1.7822757769207387,-1.7010804475121712,-2.336696547766049,1.7972786444707725,0.65121588744975,-2.220085553985088,0.04385359564855259,0.0,-0.7191215771260675,1.7099085463749408,-0.8349139145645674,5.341770269717446,4.60353722872391,-0.09963105722616786,-10.19,1.0,1.0,-0.005111650687464414,0.0,585.5610536027646,0.0,0.0
0.15200000000000102,0.5679917359459835,-1.9851727403880355,1.7782274167530965,-0.42846915105141486,-1.2385296187485444,1.753385306759799,0.6504873262003857,-2.2198393287174487,0.046042074915965646,0.0,-0.7051951768727565,1.6913132961444455,-0.9094673575271297,5.456238595555895,4.709898158049773,-0.1001363237515744,-10.19,1.0,1.0,-0.028519338523625648,0.0,621.022010739958,0.0,0.0
0.1560000000000059,0.5651290058031144,-1.978618543427542,1.7740726025466094,0.8740113009854916,-0.1102822486777039,1.7325271527471766,0.649744090142268,-2.219588143937186,0.048274634917480595,0.0,-0.6887445448986368,1.6698487088431997,-0.9856099037445976,5.582106098499917,4.828216778600809,-0.10481580171603415,-10.19,1.0,1.0,-0.05374808332660205,0.0,657.1024373022883,0.0,0.0
0.1600000000000108,0.562267303047747,-1.972068519680378,1.769807878258731,2.210644649974935,1.0510500353032486,1.7364306183810276,0.6489863821296025,-2.219332068201105,0.050550666312120476,0.0,-0.669624821854212,1.6453401887656334,-1.0632617033543077,5.721252326560295,4.960391821565499,-0.11264947575527262,-10.19,1.0,1.0,-0.08193802091302166,0.0,695.2061650431021,0.0,0.0
0.16400000000000148,0.5594074073473548,-1.9655233846871905,1.765432439433689,3.586341543810107,2.2488144216913755,1.7673177476699906,0.648214403103335,-2.2190711694194025,0.05286956550602919,0.0,-0.6476563209875934,1.6175825719506847,-1.1419202519475797,5.87563189712913,5.108279411909697,-0.12212737470248147,-10.19,1.0,1.0,-0.11374072157109166,0.0,735.8283295706398,0.0,0.0
0.16800000000000637,0.5565501912658665,-1.9589840235665228,1.7609473651445295,5.006672177343437,3.4866482834608257,1.8279734239720284,0.6474283521068683,-2.2188055148609807,0.05523073460526106,0.0,-0.6226342475153194,1.586350518946123,-1.2209014986880196,6.047228200728751,5.27369293244586,-0.1327115954323664,-10.19,1.0,0.907358779254555,-0.14990679875470192,0.0,769.1465086386319,0.0,0.0
0.17200000000001125,0.5536967099562796,-1.952451570092481,1.756355051498132,6.4778737926265,4.768390635477051,1.9217640537193827,0.6466284263016834,-2.2185351711587247,0.05763358136885649,0.0,-0.5943385446699563,1.551410117841364,-1.2996466155173476,6.237893284901605,5.4583307032776975,-0.14432470170119274,-10.19,1.0,0.7937668585389532,-0.19123199788009776,171.24672151397462,804.7044917551893,0.0,0.0
0.17600000000000193,0.5508482881696332,-1.9459275013939252,1.7516591084616975,8.007172637900297,6.098309711280131,2.052621146778112,0.6458148209828166,-2.218260204314735,0.0600775191623508,0.0,-0.5625317884645339,1.512513681147543,-1.377669255412782,6.4497555494598044,5.6641838334287895,-0.15729265123116945,-10.19,0.8737401423822646,0.6674621364269484,-0.2,298.1202630806753,787.4343706884608,0.0,0.0
0.18000000000000682,0.5480065856832363,-1.93941372909271,1.7468638507855452,9.602414052030344,7.4806076344874395,2.2251162278698526,0.644987729594218,-2.2179806797055166,0.06256196691164205,0.0,-0.5269584628548073,1.4693902680783366,-1.4545198782317406,6.684661481514704,5.892973856617336,-0.1723130656050946,-10.19,0.717969724648436,0.5271884655999584,-0.2,374.0209415564999,754.3453550450301,0.0,0.0
0.1840000000000117,0.5451735415909418,-1.9329124995656226,1.7419733491704765,11.270666757210098,8.91779283834081,2.4447553401305733,0.6441473437440172,-2.21769666208714,0.06508634905713312,0.0,-0.4873521964555387,1.421758580629036,-1.529838629780502,6.941071713391177,6.143045758700522,-0.1894807481673432,-10.19,0.5483219331180156,0.37494338866665955,-0.2,441.99778793770105,716.6355662810787,0.0,0.0
0.1880000000000024,0.5423512761747532,-1.926426236235185,1.7369908261955407,13.017146615973342,10.4095480576224,2.71751566736755,0.6432938532196469,-2.2174082156003494,0.06765009550830313,0.0,-0.4434629949800839,1.369366557774739,-1.6033390482391714,7.2123557325900505,6.40766043023539,-0.2080146325005468,-10.19,0.3664260645523314,0.21469590836539876,-0.2,504.30357963102495,674.2451178704655,0.0,0.0
0.19200000000000728,0.5395420384031461,-1.9199574685882288,1.7319186289963975,14.845005093580337,11.952563146135935,3.049404174238027,0.6424274460028502,-2.2171154037756375,0.07025264159862993,0.0,-0.395095096873055,1.3120345854361326,-1.6747208679386354,7.488041236966649,6.67624251258472,-0.2273243312227872,-10.19,0.17428149663877246,0.05035000341638818,-0.2,561.9203973720583,627.0359211544833,0.0,0.0
0.19600000000001216,0.536748171654502,-1.9135087938284412,1.7267583224199963,16.755323938938822,13.540647999435356,3.446105374405592,0.6415483082845989,-2.2168182895382866,0.0728934280407754,0.0,-0.34213792713009417,1.249678828574373,-1.7435660071412358,7.7568048929807905,6.9373729961036705,-0.247166442975564,-10.19,-0.02596721347080777,-0.1142865835231579,-0.2,615.3321124424025,574.7129464332554,0.0,0.0
0.20000000000000284,0.5339720803128011,-1.9070828413662693,1.7215107718294176,18.74712857129692,15.164972499136919,3.9126154275801617,0.6406566244798715,-2.2165169352133614,0.07557190088219612,0.0,-0.2845861645874894,1.1823273432577215,-1.8093318474323508,8.007685923991264,7.180004499151987,-0.2673984377269335,-10.19,-0.2320503637693816,-0.27546871985578525,-0.2,664.7727561669104,516.7260028865131,0.0,0.0
0.20400000000000773,0.5312161960365929,-1.9006822381187374,1.716176214807724,20.817383738651202,16.81440515198331,4.452865721602425,0.6397525772423164,-2.2162114025306665,0.07828751146109757,0.0,-0.22255337915032952,1.110132975121294,-1.8713874876439909,8.230492699212704,7.393869073338635,-0.28790875901032215,-10.19,-0.44155188532218426,-0.4296298966627403,-0.2,710.345836840214,452.03691385173346,0.0,0.0
0.20800000000001262,0.5284829425063642,-1.8943095728069512,1.7107543212287357,22.96094927981188,18.475928343671725,5.069341176225987,0.6388363474788312,-2.215901752629673,0.08103971636263974,0.0,-0.15627985054246402,1.0333807125530872,-1.9290591747525536,8.416035815055704,7.5697132520547585,-0.308602406166652,-10.19,-0.6518610185776665,-0.5734784879858832,-0.2,752.0782194933163,378.5590193940525,0.0,0.0
0.2120000000000033,0.5257747197637138,-1.8879673839364088,1.7052443048931434,25.170716557332675,20.135311652216142,5.7627652902974225,0.637908114364002,-2.2155880460643975,0.08382797737556444,0.0,-0.08613362602516103,0.9524880297221383,-1.9816725504897121,8.556625614013944,7.6997982295897796,-0.3294420264996399,-10.19,-0.8603787939211935,-0.7045703571961612,-0.2,790.0285324099715,291.1760590758967,0.0,0.0
0.21600000000000819,0.523093926556267,-1.88165819344649,1.6996451312707341,27.438351495893297,21.778203758751978,6.532194656949593,0.6369680553544302,-2.215270342808246,0.08665176144915843,0.0,-0.012595763981614366,0.8679891781978807,-2.0285866854383157,8.647362387850412,7.779191538480049,-0.3503114030200677,-10.19,-1.0,-0.8220734120509345,-0.2,817.5904678164268,201.18251995772349,0.0,0.0
0.22000000000001307,0.5204426960757593,-1.8753842005782384,1.6939549334475916,29.751868372013874,23.388913720728638,7.3737511868016306,0.6360163462029805,-2.2149487022588272,0.08951054065045724,0.0,0.06374881939327541,0.7805266481153673,-2.069305811756471,8.682737212825305,7.802368823183168,-0.3711378234071151,-10.19,-1.0,-0.9203931661806433,-0.2,827.8871801845459,153.3994663840288,0.0,0.0
0.22400000000000375,0.5178231457714843,-1.8691475829782311,1.6881717961404399,32.09810060334136,24.952943695395856,8.281422727231812,0.6350531609728883,-2.2146231832427214,0.09240379212186679,0.0,0.14222507963653827,0.6908350889383121,-2.103455720059969,8.659108221532446,7.7656967275057465,-0.3918318757945752,-10.19,-1.0,-1.0,-0.2,836.13125647371,99.06109906778886,0.0,0.0
0.22800000000000864,0.5152372886516671,-1.8629503981923332,1.6822936138979416,34.46240144827546,26.45718269374436,9.246923402079021,0.6340786720517588,-2.214293844020211,0.09533099803911332,0.0,0.22209511913942231,0.599712249245249,-2.1307871821181554,8.576023535259058,7.668757702562472,-0.4125261171169961,-10.19,-1.0,-1.0,-0.2,836.13125647371,99.06109906778886,0.0,0.0
0.23200000000001353,0.5126870823395709,-1.8567946475938786,1.6763182500549414,36.82938317438673,27.890688338235815,10.260108885264758,0.633093050165489,-2.213960742289986,0.0982916455694236,0.0,0.3026084862154231,0.5079677789969153,-2.151198590996108,8.436608127454722,7.514733244140109,-0.4332708865715909,-10.19,-1.0,-1.0,-0.2,836.13125647371,99.06109906778886,0.0,0.0
0.2360000000000042,0.5101745858382553,-1.850682468924115,1.6702438223876686,39.18401484235331,29.24546780347798,11.30967652726383,0.6320964643920519,-2.2136239351938025,0.10128522683011904,0.0,0.38303723754220603,0.4163866016668745,-2.1647291240239106,8.246559085560811,7.309400571375825,-0.45440961783975276,-10.19,-1.0,-1.0,-0.2,836.13125647371,99.06109906778886,0.0,0.0
0.2400000000000091,0.5077019982853809,-1.84461619341829,1.6640687420220641,41.512264931662564,30.51650914755009,12.383901709355907,0.6310890821751745,-2.213283479321105,0.10431123884753087,0.0,0.4627162302018485,0.3256878793173553,-2.1715342168294915,8.014034189078036,7.061017041214798,-0.4762626949454421,-10.19,-1.0,-1.0,-0.2,836.13125647371,99.06109906778886,0.0,0.0
0.24399999999999977,0.5052715289150015,-1.838598202666163,1.6577914918361711,43.80082130975616,31.701227720872684,13.470812791641508,0.6300710693379448,-2.2129394307136256,0.10736918351612439,0.0,0.5410696050935966,0.23649962957171233,-2.171902355251011,7.747685058532326,6.778344498667737,-0.4989166121827915,-10.19,-1.0,-1.0,-0.2,836.13125647371,99.06109906778886,0.0,0.0
0.24800000000000466,0.5028853054746641,-1.832630827822471,1.6514105130245071,46.036923697239274,32.79900996104732,14.558349854160388,0.6290425900962621,-2.212591844869929,0.11045856755809906,0.0,0.6176172442160363,0.14935396523145184,-2.166280386594361,7.454505968519749,6.468489701428038,-0.5223176431631992,-10.19,-1.0,-1.0,-0.2,836.13125647371,99.06109906778886,0.0,0.0
0.25200000000000955,0.5005453160821074,-1.8267162855738337,1.6449241631796379,48.20829757286707,33.81083685183474,15.63452645943911,0.6280038070722361,-2.2122407767499412,0.11357890248313807,0.0,0.6919680624495117,0.06469325968249437,-2.15522885260419,7.139912879460768,6.1369838532967815,-0.5463851604871486,-10.19,-1.0,-1.0,-0.2,836.13125647371,99.06109906778886,0.0,0.0
0.2560000000000002,0.49825337558184657,-1.8208566407880347,1.6383307151951039,50.30315497974261,34.738963845410034,16.68758914388284,0.6269548813074476,-2.2118862807794315,0.11672970454857604,0.0,0.7638118030171879,-0.01712249427507302,-2.1393783164239872,6.808127769247015,5.788167846484409,-0.5710289184203886,-10.19,-1.0,-1.0,-0.2,836.13125647371,99.06109906778886,0.0,0.0
0.2600000000000051,0.49601110937386295,-1.8150537880418205,1.631628377807976,52.31023526295991,35.586641812646896,17.70616807824478,0.6258959722761057,-2.211528410854459,0.11991049471987618,0.0,0.8329105542196317,-0.09580790645046926,-2.1193978481100855,6.462461008394575,5.425474751796946,-0.5961590996465288,-10.19,-1.0,-1.0,-0.2,836.13125647371,99.06109906778886,0.0,0.0
0.26400000000001,0.49381994932366424,-1.8093094461087067,1.6248153260895337,54.21886478293823,36.357869109862506,18.67941222983766,0.624827237898138,-2.211167220345795,0.12312079863131092,0.0,0.8990902304793685,-0.1711442370730659,-2.095972243929274,6.105520899238714,5.051639034260279,-0.6216917932537985,-10.19,-1.0,-1.0,-0.2,836.13125647371,99.06109906778886,0.0,0.0
0.2680000000000007,0.49168113771150856,-1.80362516100707,1.6178897349997434,56.01901979447015,37.057168696052415,19.597103264309307,0.6237488345521454,-2.210802762103304,0.12636014654704622,0.0,0.9622322050146357,-0.24297146854586513,-2.0697855928808697,5.739370709279849,4.668853056829436,-0.6475516397879021,-10.19,-1.0,-1.0,-0.2,836.13125647371,99.06109906778886,0.0,0.0
0.27200000000000557,0.4895957362538953,-1.798002314399848,1.6108498121564503,57.70138128081125,37.68938680515537,20.449744081204027,0.6226609170882569,-2.210435088460286,0.1296280733225285,0.0,1.0222652302780117,-0.3111805520542377,-2.0415095074767557,5.365647493882197,4.278885310067639,-0.673672764746488,-10.19,-1.0,-1.0,-0.2,836.13125647371,99.06109906778886,0.0,0.0
0.27600000000001046,0.48756463806473266,-1.7924421350494915,1.6036938278475037,59.257374668628366,38.25951128103413,21.22861996530356,0.6215636388409199,-2.2100642512377995,0.1329241183660655,0.0,1.0791577395415433,-0.37570593821293863,-2.011794815279833,4.985652838251086,3.883170579362443,-0.6999987177963559,-10.19,-1.0,-1.0,-0.2,836.13125647371,99.06109906778886,0.0,0.0
0.28000000000000114,0.485588581055902,-1.786945711716287,1.5964201414437171,60.679190977886414,38.7725085690286,21.925832531978056,0.6204571516415567,-2.2096903017489398,0.1362478256008071,0.0,1.1329105889829347,-0.43651846632698604,-1.9812658367981606,4.600422757722377,3.4828793307431383,-0.7264818704332032,-10.19,-1.0,-1.0,-0.2,836.13125647371,99.06109906778886,0.0,0.0
0.284000000000006,0.4836681617463381,-1.781514006392146,1.5890272240242553,61.95978899321638,39.23317873876186,22.534308671510022,0.6193416058311227,-2.209313290803082,0.13959874342702192,0.0,1.1835502733544379,-0.4936186591926955,-1.950516603265232,4.210781977251178,3.078971553396163,-0.7530825527547503,-10.19,-1.0,-1.0,-0.2,836.13125647371,99.06109906778886,0.0,0.0
0.2880000000000109,0.48180384879066696,-1.7761478671265332,1.581513677381817,63.09288041008928,39.64602796779257,23.047788354078712,0.618217150272604,-2.2089332687101053,0.14297642468455893,0.0,1.231122628527129,-0.5470304488806568,-1.920108527438882,3.817386390217469,2.672238861817999,-0.7797680987342652,-10.19,-1.0,-1.0,-0.2,836.13125647371,99.06109906778886,0.0,0.0
0.2920000000000016,0.47999599578303925,-1.7708480399604687,1.5738782497482668,64.07290158983106,40.01515779259129,23.46079633361527,0.6170839323633818,-2.208550285284572,0.14638042661570477,0.0,1.2756870196878396,-0.5967953426822199,-1.8905691537449791,3.420756489941108,2.2633376459088073,-0.8065118982440669,-10.19,-1.0,-1.0,-0.2,836.13125647371,99.06109906778886,0.0,0.0
0.2960000000000065,0.4782448530636302,-1.7656151796656754,1.566119848646062,64.89497658824538,40.34417024769026,23.7686034592609,0.6159420980475011,-2.208164389849874,0.14981031082833077,0.0,1.3173110036909412,-0.642967026469211,-1.8623916955433688,3.0213038481734467,1.8528153342638263,-0.8332925092797263,-10.19,-1.0,-1.0,-0.2,836.13125647371,99.06109906778886,0.0,0.0
0.30000000000001137,0.4765505783737054,-1.760449859110167,1.5582375512734934,65.55487658534074,40.63608784918629,23.967183506833525,0.6147917918278812,-2.2077756312423578,0.15326564325921554,0.0,1.3560654471854243,-0.6856063943358327,-1.836035126839733,2.6193521957474433,1.4411313154376741,-0.8600928561030464,-10.19,-1.0,-1.0,-0.2,836.13125647371,99.06109906778886,0.0,0.0
0.30400000000000205,0.4749132462850658,-1.755352577154962,1.5502306128012482,66.0489808461918,40.89328728890685,24.05317125762626,0.6136331567783951,-2.2073840578154083,0.15674599413776003,0.0,1.3920200779770533,-0.7247769879033996,-1.8119246400437485,2.2151542816060052,1.0286736835119297,-0.8868995219620901,-10.19,-1.0,-1.0,-0.2,836.13125647371,99.06109906778886,0.0,0.0
0.30800000000000693,0.4733328563822759,-1.7503237650412542,1.542098472911513,66.37424399709056,41.11744571892642,24.023827069122042,0.6124663345558548,-2.2069897174434994,0.16025093794998532,0.0,1.4252394451096015,-0.760540825541566,-1.7904523148812905,1.8089054098782462,0.6157726980052225,-0.9137021357524299,-10.19,-1.0,-1.0,-0.2,836.13125647371,99.06109906778886,0.0,0.0
0.3120000000000118,0.4718093402096552,-1.7453637912621003,1.5338407608589548,66.52817380416,41.309498630988614,23.8770124846964,0.6112914654119408,-2.2065926575262256,0.16378005340269783,0.0,1.4557792629387714,-0.7929546005581117,-1.77197786939075,1.4007543475265263,0.2027116426210153,-0.9404928464003566,-10.19,-1.0,-1.0,-0.2,836.13125647371,99.06109906778886,0.0,0.0
0.3160000000000025,0.47034256701560156,-1.740472964933997,1.5254572992811024,66.50882286421967,41.469608564871855,23.61118057775014,0.6101086882050032,-2.2061929249922896,0.1673329233880427,0.0,1.4836831156968464,-0.8220662277913862,-1.7568293842115605,0.9908121407766906,-0.21026438627574592,-0.9672658766703348,-10.19,-1.0,-1.0,-0.2,836.13125647371,99.06109906778886,0.0,0.0
0.3200000000000074,0.46893234833877084,-1.7356515376961947,1.5169481069368251,66.314796698971,41.5971441960201,23.22538375206048,0.6089181404117692,-2.2057905663034596,0.17090913494833404,0.0,1.5089795014459457,-0.8479117197325945,-1.7453039076165928,0.5791592598679537,-0.622941346538047,-0.99401714606219,-10.19,-0.9503956615892724,-1.0,-0.2,831.0038393184304,135.50349972916442,0.0,0.0
0.3240000000000123,0.46757843943928473,-1.7308997029024016,1.508313402005017,65.94531516363578,41.69071030601155,22.719314645411803,0.6077199581389992,-2.2053856274585084,0.17450827924104387,0.0,1.5316791787570943,-0.8705122277208318,-1.7376678940081476,0.1658971776561992,-1.0350849516100804,-1.0208011361764306,-10.19,-0.732500719157483,-1.0,-0.2,808.0956042074972,236.45311133783684,0.0,0.0
0.32800000000000296,0.4662805083119476,-1.7262175672719418,1.4995536140559285,65.40081436919344,41.7483298932437,22.093709656691416,0.6065142761350136,-2.20497815399711,0.17812995150417565,0.0,1.551773320418558,-0.8898719595712741,-1.7341577431110617,-0.24828628928346275,-1.4458796683261466,-1.0478225814546014,-10.19,-0.5174975514955512,-1.0,-0.2,784.8362612178586,304.8944448139332,0.0,0.0
0.33200000000000784,0.46503797426629573,-1.7216049719870117,1.4906693508386597,64.6846893689472,41.767802006652886,21.35155350326597,0.6053012278011308,-2.2045681910037027,0.18177375102190851,0.0,1.5692382467215338,-0.9059839135190861,-1.734987793799305,-0.6604957136456545,-1.852322090841745,-1.0752930293532532,-10.19,-0.29411053219594374,-1.0,-0.04702447553868916,545.7570897747554,0.0,156.76247564052815,0.0
0.33600000000001273,0.463849596922858,-1.7170609493590874,1.4816611194468188,63.80458726659641,41.746103874973514,20.499273487691433,0.6040809452030538,-2.2041557831113403,0.1854392810903919,0.0,1.5840533804743846,-0.918854898135453,-1.7403937606300666,-1.065001957657429,-2.2486155370390484,-1.1015014858346517,-10.19,-0.0674172637504542,-1.0,0.11060230957497375,0.0,0.0,593.096414008783,174.2056486604592
0.3400000000000034,0.4627093971158774,-1.7125784798887957,1.4725267816189123,62.77963262049675,41.680340143973105,19.551748945350553,0.6028535590821307,-2.2037409745054957,0.18912614898392116,0.0,1.5962400077083085,-0.9285714114993272,-1.7512735117520084,-1.4475291360048363,-2.6209253376791803,-1.1208712822257898,-10.19,0.14877120873481997,-1.0,0.2,0.0,0.0,743.2543109985033,395.60284198039244
0.3440000000000083,0.4616049992924956,-1.7081424014369215,1.4632605621787198,61.65112410953895,41.57232452297035,18.537115641499305,0.6016191988665274,-2.2033238089278373,0.1928339659213777,0.0,1.605916370149986,-0.9354117251279048,-1.7692959126483885,-1.7734964038534187,-2.9399897673691275,-1.127369939104111,-10.19,0.32735478982418675,-1.0,0.2,0.0,0.0,763.6763008887689,354.58015576406683
0.3480000000000132,0.4605273224383131,-1.703741583513912,1.453858448947871,60.45770600654832,41.42508697485306,17.47779266749335,0.600377992682352,-2.2029043296799897,0.1965623470328117,0.0,1.6133154511933192,-0.939882824007013,-1.7948701602882973,-2.011230692742405,-3.1878838346803655,-1.1216483373317852,-10.19,0.4686813080929002,-1.0,0.2,0.0,0.0,779.4585741222091,318.3911283754559
0.35200000000000387,0.4594729369540861,-1.6993719172325676,1.444319550343111,59.226394785134154,41.23955117389842,16.38579935778491,0.5991300673646547,-2.202482579627249,0.20031091132640202,0.0,1.6186892482246447,-0.9425974064431634,-1.8261987791376069,-2.1550255921851886,-3.376690044695514,-1.1089193775523365,-10.19,0.583731649783916,-1.0,0.2,0.0,0.0,792.0743571563703,285.5639895647665
0.35600000000000875,0.4584416094223988,-1.6950332896788605,1.4346448360733692,57.97674151651415,41.01469341143993,15.266802764264018,0.5978755484683401,-2.2020586012022734,0.20407928165567477,0.0,1.6221866831808984,-0.9441237410949468,-1.8607161791962714,-2.2214977851126956,-3.536863985964591,-1.0924726984306126,-10.19,0.6794024109427086,-1.0,0.2,0.0,0.0,802.4140502425362,255.06915018126364
0.36000000000001364,0.45743478318628583,-1.6907277295214167,1.4248363967027395,56.723487816947895,40.74800068604638,14.122409875739388,0.5966145602790365,-2.201632436408754,0.20786708468685675,0.0,1.6238241266716096,-0.9449652444227199,-1.8968035089233126,-2.223887654145562,-3.6903613412568506,-1.0730378124613908,-10.19,0.7599856044843761,-1.0,0.2,0.0,0.0,811.0208719473836,226.21610169598642
0.3640000000000043,0.456454642714194,-1.6864582791163532,1.414896962025399,55.47820184543741,40.43610174035187,12.952099387260395,0.5953472258238389,-2.2012041268250475,0.21167395086660232,0.0,1.623507690356822,-0.945579847989942,-1.933567918998089,-2.17180561267719,-3.851218563602552,-1.0509948801076574,-10.19,0.8281814261433283,-0.998174538209766,0.2,0.0,0.0,818.041665463528,199.33994322884863
0.3680000000000092,0.4555035470135992,-1.6822282999653178,1.404829561113691,54.250541270024634,40.07489454780202,11.754036248489498,0.5940736668819696,-2.2007737136077785,0.21549951438997322,0.0,1.6210647400930032,-0.9463939787543463,-1.9705674397930975,-2.07236435391535,-4.028225437937815,-1.0266569662373937,-10.160895761738363,0.8854241974147924,-0.9687277921425873,0.2,0.0,0.0,821.4823646746762,189.2025076089621
0.3719999999999999,0.45458371764511135,-1.6780411178561039,1.3946373333615762,53.048927042140676,39.6599708441137,10.526087256856728,0.5927940039953995,-2.2003412374954285,0.219343413168532,0.0,1.6162682193511426,-0.9478096628960888,-2.0076295022788333,-1.9312387406092892,-4.226407697670025,-1.0003449887340914,-9.432216972299432,0.9324853532719669,-0.9314134332731374,0.2,0.0,0.0,835.3579080848369,235.431312381027
0.3760000000000048,0.45369710612405867,-1.6738998915568315,1.384323447775643,51.88104445022158,39.18679920924799,9.266400269595056,0.5915083564793199,-2.199906738811875,0.22320528879888762,0.0,1.6088531196274203,-0.9502092062532006,-2.044722546349975,-1.7534233403924475,-4.447976879888415,-0.9721026079038715,-8.706077188003913,0.9696299227927302,-0.8841555079922656,0.2,0.0,0.0,846.9449385037557,280.01138760353143
0.38000000000000966,0.4528455888944238,-1.6698079465956166,1.373891348777737,50.75403452848727,38.651053906886254,7.973906875983194,0.5902168424325999,-2.1994702574699274,0.2270847865312823,0.0,1.5985319638055837,-0.9539516165455157,-2.0818182146038513,-1.5440320481372791,-4.692689381048018,-0.9418184282123143,-7.98313984307871,0.996944361893072,-0.8289568566021401,0.2,0.0,0.0,856.5352272799767,323.03803306114946
0.38400000000000034,0.45203095178115243,-1.6657688112020241,1.3633447902324258,49.67455013388958,38.048893416855776,6.648262685845127,0.5889195787481175,-2.1990318329748155,0.23098155523855932,0.0,1.585011253054914,-0.9593690368340801,-2.1188335634688213,-1.3082145550420439,-4.958692800471225,-0.909480679456709,-7.264146172860503,1.0,-0.7786288285358018,0.2,0.0,0.0,864.021441729726,365.4127972265261
0.38800000000000523,0.45125474384699565,-1.661786061643964,1.352687718620401,48.64886601091782,37.37699008097041,5.289852471437121,0.5876166811230095,-2.1985915044276565,0.23489524738537418,0.0,1.5680071775360327,-0.9667647637315,-2.155656248858057,-1.050825859682784,-5.243347742592943,-0.8752698889960021,-6.549610139481167,1.0,-0.7188058550103262,0.2,0.0,0.0,870.1266340518454,405.871751678893
0.3920000000000101,0.450518311549302,-1.6578634309988616,1.3419243503758622,47.68281312464168,36.63271000477032,3.8996879362329944,0.5863082640688823,-2.198149310528904,0.2388255189975215,0.0,1.5472549878877817,-0.976413205425834,-2.1921635233569803,-0.776348722151976,-5.543636781521492,-0.839436047361429,-5.840208767180762,1.0,-0.6502550610253375,0.2,0.0,0.0,875.2448107413215,444.17464004995037
0.3960000000000008,0.44982264674370237,-1.6540046329787736,1.331059021015646,46.78179570235195,35.81409733953759,2.479306785452596,0.5849944409219028,-2.1977052895817586,0.24277202963162517,0.0,1.5225138338713768,-0.9885595732044287,-2.2282146775165845,-0.4889703267884184,-5.856319468108699,-0.8021154498695611,-5.136321457527302,1.0,-0.5716267099947552,0.2,0.0,0.0,879.2546391594055,481.0672585388321
0.4000000000000057,0.44916845088544777,-1.6502135213869016,1.3200963030812602,45.95067056948249,34.920005630923946,1.030688735362315,0.5836753238528092,-2.1972594794955524,0.2467344423450668,0.0,1.4935719105300216,-1.0034175979909614,-2.263633130922015,-0.19271778684338706,-6.177956819010445,-0.7634935108419479,-4.4385707410502775,0.9871044015761905,-0.4841570131293862,0.2,0.0,0.0,881.0213777472524,518.7742024167179
0.4040000000000106,0.4485560379374972,-1.6464939891689623,1.309040911280838,45.193708051015335,33.95008468104504,-0.4439279727647029,0.582351023876886,-2.196811917789119,0.2507124236660228,0.0,1.4602505968251687,-1.0211678665396362,-2.2982009228769633,0.10856395348447342,-6.5050411639252435,-0.7236676334723503,-3.7473941565200484,0.9566570024618135,-0.3872903067072233,0.2,0.0,0.0,880.0411285064463,557.9241441947657
0.40800000000000125,0.4479852927201678,-1.6428499511128505,1.2978976757518463,44.514504929283596,32.904820987570815,-1.9421183257535233,0.581021650863819,-2.196362641594124,0.2547056435638612,0.0,1.4224094280984452,-1.041955362478695,-2.331667963365526,0.4111985206992615,-6.834053612918889,-0.6827801495325354,-3.0631794809277793,0.9174665681313373,-0.28113149998195386,0.2,0.0,0.0,877.1742095108068,596.9391470655777
0.41200000000000614,0.44745562506172243,-1.639285307570556,1.2866714980997498,43.91588508500648,31.785587293661372,-3.4613573722879907,0.5796873135474729,-2.1959116876583704,0.25871377541977136,0.0,1.3799502693426242,-1.0658867270737808,-2.363757725318201,0.7115630223428348,-7.161399882741693,-0.6409497524045655,-2.3862289215984873,0.8701353980227347,-0.16581026740589422,0.2,0.0,0.0,872.4692463622694,635.7379029049443
0.416000000000011,0.44696591456560475,-1.6358038688500884,1.2753672713552957,43.39990614827759,30.594551798026504,-4.999142741341772,0.5783481195356354,-2.1954590923490898,0.2627364959974956,0.0,1.3328210635859619,-1.0930275597060577,-2.394170939565611,1.0061876778817296,-7.483546051263363,-0.5982677021773004,-1.7166844870471465,0.8153089064204765,-0.04125644631175973,0.2,0.0,67.06538087841011,865.9511195819596,674.2811541078584
0.4200000000000017,0.4465145356353488,-1.6324094392832307,1.2639899454508206,42.96769286991884,29.334816926391085,-6.552941320915119,0.5770041753196413,-2.1950048916561977,0.2667734854144169,0.0,1.281019990747239,-1.1233986184726872,-2.422575464827302,1.2915618615248647,-7.796853244315874,-0.5548630927947629,-1.0548207697101972,0.7538780468069564,0.09150174791593624,0.2,0.0,190.1190300232199,857.7666071641086,712.3726369091581
0.4240000000000066,0.446099336351357,-1.629105802752237,1.2525445403081397,42.6193398175529,28.01050685315993,-8.120303474453207,0.575655586283923,-2.194549121195519,0.2708244271128745,0.0,1.2246005441631742,-1.1569679593711206,-2.448598844808534,1.56396090805862,-8.097385477405615,-0.5111195830601629,-0.40094071076321924,0.6869104048823091,0.2317935570592553,0.2,0.0,260.5827164763051,848.0388671386145,749.8755615010809
0.4280000000000115,0.4457176408916233,-1.6258967532349489,1.2410362229672232,42.35406265083048,26.626748656498876,-9.698711011848278,0.574302456715527,-2.1940918162120053,0.27488900783157466,0.0,1.1636789265610523,-1.193642228411808,-2.4718317537062053,1.819774516636587,-8.380871024348142,-0.4675815227444491,0.24449401083287015,0.6153672977233013,0.3786497521084269,0.2,0.0,315.84366370755976,836.9047889785635,786.6540805305366
0.43200000000000216,0.44536629092097557,-1.6227862548369991,1.229470448645879,42.17048716522156,25.189733558601187,-11.285200717364342,0.5729448898135149,-2.1936330115829117,0.27896691757735403,0.0,1.0984446203913714,-1.233269893076429,-2.491817498512842,2.055958810577112,-8.642363623533166,-0.424402991295894,0.8807307688078261,0.5399331659865648,0.5305104824994924,0.2,0.0,362.67614080206187,824.5285973359867,822.5569091336881
0.43600000000000705,0.4450416613645609,-1.6197786179144271,1.2178530989919742,42.06665559317025,23.70699625541441,-12.876141237016155,0.5715829876982887,-2.193172741820949,0.2830578495971657,0.0,1.0291795704790971,-1.2756502383839603,-2.5080374243421892,2.269967176339492,-8.87568720919834,-0.3814189134216633,1.5067271890077016,0.4613263879525763,0.6856853489016779,0.2,0.0,403.7767375548907,811.0905475964962,857.4342300776708
0.44000000000001194,0.4447395912658834,-1.6168784067065645,1.2061903751211855,42.04015912425738,22.187156344887207,-14.46748382966938,0.5702168514208882,-2.1927110410774238,0.28716150035015414,0.0,0.9562715184758405,-1.3205431063126887,-2.5199508715890753,2.460010635016098,-9.074314971727352,-0.33858126386178844,2.1216444075149425,0.3801518660226254,0.8436735400417972,0.2,0.0,440.74441262573924,796.6410998992664,891.2857778660441
0.4440000000000026,0.44445533302642987,-1.6140903826228217,1.1944887420654617,42.08807796363404,20.639784444336374,-16.05478946216106,0.5688465809721701,-2.192247943145344,0.2912775694800796,0.0,0.8802118166903472,-1.3676745278084712,-2.5270480238463575,2.6251156524420614,-9.232379317213688,-0.2959973450987431,2.7247461391070686,0.29711702335184,1.0,0.2,0.0,473.8387295055737,781.6818062177998,923.7293431227713
0.4480000000000075,0.44418351185310523,-1.6114193999270794,1.1827548243848216,42.206941765154006,19.075154511416876,-17.63328947601225,0.5674722752919168,-2.1917834814624944,0.2954057597879592,0.0,0.8015825073457066,-1.4167431361751222,-2.528882411942631,2.7647927667749648,-9.344941204613662,-0.2538296685963061,3.3154995614845966,0.213012467338714,1.0,0.2,0.0,476.76633182762356,783.4599158583885,940.768636863852
0.4520000000000124,0.4439181060434482,-1.6088702527658365,1.170995246572232,42.39276737345608,17.503822977649946,-19.198071216867024,0.566094032277916,-2.191317689114506,0.299545777204792,0.0,0.7210376694764664,-1.4674273374698872,-2.52509820701707,2.8789951728339878,-9.408385249776561,-0.21219249587072722,3.893690686032535,0.12862480349064867,1.0,0.2,0.0,479.24207073077065,784.9689592275497,957.3383748331073
0.45600000000000307,0.4436524665492037,-1.6064476983712244,1.1592166462265165,42.64103786463645,15.936162290304859,-20.744224441864414,0.5647119487949261,-2.1908505988378875,0.3036973307646287,0.0,0.6392795214483566,-1.5193928691703842,-2.515434227646941,2.9681868858806704,-9.42105575456212,-0.17103701213147846,4.459078808752558,0.04480296007834855,1.0,0.2,0.0,481.41756919773957,786.2990401397715,973.3837760328319
0.46000000000000796,0.44337935729076977,-1.6041561631140175,1.1474253566025403,42.94693044815915,14.381629938574394,-22.267400457315194,0.5633261206835706,-2.1903822430230284,0.3078601325778545,0.0,0.5570204028114603,-1.5723059536113408,-2.499750692840275,3.0335877805273626,-9.384029780807563,-0.1302378514750841,5.012067094100683,-0.037830609300947726,1.0,0.2,0.0,483.4200357502219,787.5266570454688,988.8820902214544
0.46400000000001285,0.4430910285199072,-1.6019996505025915,1.135627299465421,43.30530148109408,12.848752380538391,-23.763667850584884,0.5619366427692066,-2.1899126537171987,0.3120338978045489,0.0,0.4749456269157353,-1.6258447742418682,-2.4780510653075742,3.0770779389576908,-9.30080958819116,-0.08969806512184182,5.553285880877574,-0.11861166886728702,1.0,0.2,0.0,485.38853128382345,788.7365408641423,1003.8108247442533
0.4680000000000035,0.4427793035420811,-1.5999817048670568,1.123827932463456,43.71069504642624,11.34515533960914,-25.229359406497355,0.5605436088706803,-2.1894418626275067,0.3162183446281871,0.0,0.3936889188260131,-1.6797047684004482,-2.450456146365892,3.100259198182441,-9.175218545899222,-0.04935444571755908,6.083485451732464,-0.19686046841997976,1.0,0.2,0.0,487.466144500449,790.0168014837395,1018.1482845631809
0.4720000000000084,0.4424356694305754,-1.5981054053411496,1.112032227205498,44.15737254522224,9.877604962890958,-26.660944600062066,0.5591471118090121,-2.188969901123835,0.32041319422954984,0.0,0.3138259199984366,-1.7335978761838953,-2.4171744878456036,3.104310078682081,-9.010737990215485,-0.009145435888299155,6.603475397098901,-0.2719066504931999,1.0,0.2,0.0,489.7936035487108,791.4550389439045,1031.8746131361384
0.4760000000000133,0.4420513742291252,-1.5963733569017067,1.1002446439795295,44.63937651644111,8.452038310500267,-28.054956830494415,0.5577472434160587,-2.1884968002417664,0.32461817076070404,0.0,0.2358708662762199,-1.787253241068499,-2.3784903986418344,3.0901970615267853,-8.810552752673617,0.030971279775622362,7.114132133091601,-0.34313104533324834,1.0,0.2,127.1506424224587,492.5017275967732,793.1338199057407,1044.975103609984
0.480000000000004,0.44161751670003,-1.5947877214906447,1.088469176583469,45.15054990812633,7.073746208875177,-29.408047074100025,0.5563440945430628,-2.1880225906854758,0.3288330013193221,0.0,0.16027515373289278,-1.8404173474934176,-2.3347478038596337,3.058768651782094,-8.57756098335507,0.07069754464651193,7.616257414401112,-0.4099178613748769,1.0,0.2,205.8174633469677,495.7149770996999,795.1330977348518,1057.4339267844744
0.48400000000000887,0.4411251011683022,-1.5933503725087261,1.0767095852438258,45.68443838911443,5.747260079654949,-30.716642187338586,0.5549377550691342,-2.1875473028305943,0.3330574159232041,0.0,0.0874305465335126,-1.892846566896144,-2.2863176496420876,3.010499603959841,-8.31425930611146,0.10994752761117943,8.110195179265872,-0.47151928633037954,1.0,0.2,259.6562229879117,499.5626688651182,797.5375632006967,1069.2179550646356
0.48800000000001376,0.44056510976343616,-1.592062870186128,1.0649693114742527,46.23436603684266,4.47622838002623,-31.977297479359557,0.5535283139097104,-2.18707096672707,0.3372911474848664,0.0,0.017665969507066726,-1.944311383174518,-2.2335917794681346,2.945524201523364,-8.02330326109232,0.14871269561381617,8.596469633856476,-0.5272510563984916,1.0,0.2,302.06998802843333,504.1624369901632,800.4268033145353,1080.3017906880236
0.49200000000000443,0.439928402307499,-1.5909268235097007,1.0532518694365893,46.793151208581655,3.263380231312218,-33.186482928128896,0.5521158590249038,-2.186593612101987,0.34153393178646424,0.0,-0.04875696488818314,-1.9945979123113937,-2.176961379704353,2.8634406374498345,-7.707795324598462,0.18752170689328024,9.074820896976778,-0.5760773077871362,1.0,0.2,337.11940442660296,509.6616058537714,803.9018951799471,1090.6214623494259
0.4960000000000093,0.43920580978807927,-1.5899437449623652,1.0415606281321916,47.353365617802176,2.11056436779452,-34.34088340535052,0.550700477427785,-2.186115268362368,0.3457855074549136,0.0,-0.11164795909908468,-2.0435114107493533,-2.116816673722659,2.763452588943845,-7.371029662683523,0.22664582041282633,9.545428843319904,-0.6172251124869604,1.0,0.2,366.74659472970194,516.1655592912645,808.04095761968,1100.0
0.5,0.43838811603225436,-1.5891151607705205,1.0298989385544104,47.90737897203312,1.0188693347861597,-35.43734981747043,0.5492822551926494,-2.1856359645979646,0.35004561593705813,0.0,-0.17088648713916155,-2.090877142091435,-2.053580443479891,2.6449908753947993,-7.016424832411934,0.26625556523411703,10.008219943592085,-0.6499516155663813,1.0,0.2,392.01636461785455,523.7570255413344,812.9112660040895,1100.0
0.5040000000000049,0.4374660816628577,-1.588442627084081,1.0182701603971764,48.44755585475718,-0.011287412677984908,-36.4729723875944,0.5478612774631434,-2.185155729584007,0.3543140014752582,0.0,-0.22641674804948134,-2.136540956605047,-1.9876831496046403,2.507802184526743,-6.6472024348957985,0.3062797551494609,10.19,-0.6737247268496717,1.0,0.2,403.8435772539507,524.9197991220822,813.6609245274303,1100.0
0.5080000000000098,0.43643062742496636,-1.5879275344053014,1.0066774483233194,48.966666088828234,-0.9802555980186197,-37.44525526194121,0.5464376284604028,-2.184674591783952,0.35859041108294687,0.0,-0.2782432795150103,-2.180374565676389,-1.9195904130879142,2.3525071243694997,-6.266786122698609,0.34666801480298276,10.19,-0.6884858699123588,1.0,0.2,406.98078288570497,522.491217879663,812.0962857653266,1100.0
0.5120000000000005,0.43527313570928927,-1.5875707940616062,0.9951233821973678,49.45793804360264,-1.888951406683063,-38.35205529988548,0.5450113914910755,-2.184192579352195,0.3628745945205291,0.0,-0.3264295971000478,-2.222285479846776,-1.8498509241085046,2.1804916191785013,-5.878615779034745,0.38738607441424133,10.19,-0.6942613804009258,1.0,0.2,408.2016975894062,521.5379223841367,811.4832771396015,1100.0
0.5160000000000053,0.43398561731142554,-1.587372763410785,0.9836098817876138,49.91502929230756,-2.7386059927502377,-39.191457047682654,0.5435826489552814,-2.183709720136761,0.36716630427147273,0.0,-0.37109247378037524,-2.262220631439324,-1.779098091772537,1.9933212931493416,-5.485484849734344,0.42839906464506045,10.19,-0.6910699586224044,1.0,0.2,407.52749877845457,522.0649079750634,811.8220696257752,1100.0
0.5200000000000102,0.43256075556209145,-1.5873333264224836,0.972138312689954,50.332085146378795,-3.5306161448385573,-39.96171153988228,0.5421514823545545,-2.1832260416819866,0.37146529551845137,0.0,-0.4123888704810029,-2.3001600721374387,-1.7079768715201087,1.7924189540845084,-5.089206794635599,0.4696176158826855,10.19,-0.6790235794674409,1.0,0.2,404.97254575474057,524.0492988112467,813.0996077830962,1100.0
0.5240000000000009,0.43099189976474045,-1.5874520088571669,0.9607096358686672,50.70383597009945,-4.266427855760155,-40.661193193835885,0.5407179722996766,-2.1827415712311713,0.37577132611981234,0.0,-0.45050283997780943,-2.336111031183143,-1.6370897844511856,1.5793672117431972,-4.690931127372072,0.5109464233909078,10.19,-0.6583771206287294,1.0,0.2,400.5556759403932,527.4330107905358,815.2845426377437,1100.0
0.5280000000000058,0.4292730474597121,-1.5877280787076233,0.9493245402122832,51.02566458332623,-4.947440440860258,-41.288370683853394,0.5392821985184494,-2.1822563357291997,0.38008415658623185,0.0,-0.4856354268496711,-2.370104798893559,-1.5669742213445188,1.356059867833778,-4.2913430877511045,0.5523138449314338,10.19,-0.6295004965439877,1.0,0.2,394.2951535650251,532.1294600703555,818.3306586382021,1100.0
0.5320000000000107,0.42739882026291975,-1.5881606322016246,0.9379835572579976,51.29365048546609,-5.574928122839137,-41.841788108642504,0.5378442398634502,-2.1817703618251656,0.3844035500574173,0.0,-0.5179966775679739,-2.402194298639441,-1.4981016801685858,1.124630231562693,-3.890768714841053,0.5936654918656574,10.19,-0.592856656489769,1.0,0.2,386.2046046005085,538.0301420784896,822.1798698444672,1100.0
0.5360000000000014,0.4253644368737461,-1.58874866651722,0.9266871584569073,51.50459598674966,-6.149976593272969,-42.320053943807146,0.536404174319681,-2.1812836758749556,0.3887292722791311,0.0,-0.5477992504360258,-2.432450947529323,-1.4308797684463792,0.8873688689193298,-3.4892603539373894,0.6349595441949237,10.19,-0.5489839676467931,1.0,0.2,376.2892629901534,545.0108448076625,826.7648550527698,1100.0
0.5400000000000063,0.4231656858453636,-1.589491140794045,0.9154358360839313,51.65603835064693,-6.673432488908873,-42.72183603935412,0.5349620790121565,-2.180796303943815,0.3930610915803976,0.0,-0.5752533679697462,-2.4609610970960345,-1.3656551473765766,0.6466554131173818,-3.086664893893585,0.6761633778314037,10.19,-0.4984821713961858,1.0,0.2,364.5419830360206,552.9372233841744,832.0113446319502,1099.4073579397616
0.5440000000000111,0.4207989059678795,-1.5903870218912814,0.9042301624222241,51.74622185331837,-7.145866961815493,-43.04587316970185,0.5335180302134779,-2.180308271808906,0.3973987788507521,0.0,-0.6005628709771099,-2.487822307032192,-1.3027182463750147,0.4048481817227291,-2.6826973017640894,0.7172423662559312,10.19,-0.44196692057140324,1.0,0.2,350.92995485915856,561.6748144453192,837.8436022162186,1094.9691842758425
0.5480000000000018,0.41826099091999014,-1.5914353034998303,0.893070813005288,51.774078097273055,-7.5675816322003175,-43.29101167197172,0.5320721033513007,-2.179819604961833,0.4017421075178083,0.0,-0.6239225382674196,-2.5131392428355257,-1.2423128490417519,0.1642063088767362,-2.277067319793714,0.7581706123587707,10.19,-0.3800780011019289,1.0,0.2,335.39050135173267,571.0898720890331,844.1841899698985,1090.0882852747384
0.5520000000000067,0.41554941831316056,-1.5926350022138582,0.8819585606136967,51.739582965003024,-7.938619702264249,-43.45628762396351,0.5306243730157439,-2.179330328611144,0.4060908535250045,0.0,-0.6455163640582068,-2.5370218583245094,-1.1846440092941224,-0.07252421854191482,-1.8696494322258896,0.798898064413346,10.19,-0.3139182803645468,1.0,0.2,317.939892448844,580.985933727532,850.9100773769916,1084.8462824320482
0.5560000000000116,0.41266228165630026,-1.5939851501060764,0.8708942540218754,51.643671551116235,-8.258809327148827,-43.540998207116324,0.5291749129667853,-2.178840467684833,0.41044479530938754,0.0,-0.6655168716432911,-2.5595849234491923,-1.1298794157715355,-0.30211344123927075,-1.4605844681996285,0.8393618152227349,10.19,-0.24456268273756504,1.0,0.2,298.55322915668654,591.1822052123607,857.9042512729584,1079.3237289785386
0.5600000000000023,0.4095982680985502,-1.5954848305423035,0.8598788456450329,51.48818533922395,-8.527754559237524,-43.5446964039733,0.5277237961415525,-2.1783500468328034,0.4148037137797114,0.0,-0.6840843754736368,-2.580946563799962,-1.078143091724495,-0.5213819695279966,-1.0502030650217808,0.8794951480287361,10.19,-0.17309069535748414,1.0,0.2,277.1598418741012,601.5088132787066,865.052690328412,1073.6029336975237
0.5640000000000072,0.4063566354444346,-1.5971332106842024,0.848913410904947,51.275820416918016,-8.744832908359,-43.46718257418889,0.5262710946615563,-2.1778590904293105,0.41916739229471073,0.0,-0.7013659601758218,-2.6012243876687133,-1.0295067372425855,-0.7274844043064528,-0.6387988674369879,0.9192487414703162,10.19,-0.10058460094286914,1.0,0.2,253.61964069507897,611.8067572798897,872.2446978032021,1067.768047584565
0.568000000000012,0.40293719047245163,-1.5989295700030692,0.8379991585730319,51.01006732678012,-8.909201665458497,-43.308493849272025,0.5248168798399122,-2.177367622575404,0.4235356166414075,0.0,-0.7174941346882803,-2.6205328476428997,-0.983991388125046,-0.9178431627199414,-0.22658505310352886,0.9585783313394179,10.19,-0.02811676635513527,1.0,0.2,227.6727025629676,621.928911457981,879.3741385211273,1061.9042050903547
0.5720000000000027,0.3993402653196955,-1.6008733284301646,0.8271374370833894,50.695080610977236,-9.019807889982577,-43.06889877264973,0.5233612221884587,-2.176875667101333,0.42790817501372935,0.0,-0.732585915403032,-2.6389813673010876,-0.9415720249649457,-1.0902917139195842,0.1862892241188174,0.9974307319192495,10.19,0.043336014970053294,1.0,0.2,198.80069540858844,631.7505155555446,886.3475720602848,1056.0906200659065
0.5760000000000076,0.3955666914645132,-1.6029640751635204,0.8163297393067943,50.335441055761244,-9.075427616662065,-42.748876096172715,0.5219041914248187,-2.1763832475689338,0.4322848579912983,0.0,-0.7467425446992506,-2.656671946728306,-0.9021848818225541,-1.2433850810105962,0.5997155032946173,1.0357757640845286,10.19,0.11302627810865212,1.0,0.2,165.86832274820074,641.1849420474045,893.0965426541517,1050.3894429151285
0.5800000000000125,0.39161780375718275,-1.6052015706498017,0.8055776705240673,49.93641097378112,-9.074679951560343,-42.34907610909223,0.5204458564794511,-2.1758903872740105,0.4366654585182488,0.0,-0.7600499220792736,-2.673698525756809,-0.8657366378446515,-1.3758321138627843,1.0136564706136741,1.0736195266970008,10.19,0.1798761111440455,1.0,0.2,126.46091606861897,650.1061967915092,899.5228577969467,1044.8914032516332
0.5840000000000032,0.38749544110052303,-1.6075857505893405,0.7948829128460827,49.50404465429256,-9.01602243195088,-41.87029619139168,0.5189862855025997,-2.1753971092486863,0.44104977188235367,0.0,-0.7725791065821018,-2.6901494455236863,-0.8321074724028271,-1.4858104450111351,1.4282018120189437,1.110958257321711,10.19,0.24262834768952268,1.0,0.2,71.96212089943808,658.3706278041947,905.5137702695387,1039.7039136891801
0.5880000000000081,0.383201913219225,-1.6101167592248002,0.7842472264788846,49.044783666523,-8.897793950049483,-41.31347219360694,0.5175255458711874,-2.1749034362637314,0.445437595694317,0.0,-0.7843863231208159,-2.7061094165333595,-0.801146070087334,-1.571772292222239,1.843517741287193,1.1477412770809097,10.19,0.3004400147938144,1.0,0.2,0.0,665.8936202122217,910.9981438135886,1034.901830250845
0.592000000000013,0.37874000392842344,-1.6127949502122236,0.7736723994423776,48.56529460983812,-8.718290234679223,-40.679563629077265,0.5160637041957006,-2.1744093908308906,0.4498287298670919,0.0,-0.7955144342634011,-2.7216585362526806,-0.7726786999637327,-1.6331735085282433,2.2598508132668926,1.1840391675275819,10.19,0.35262662371596015,1.0,0.2,0.0,672.6123711543485,915.920687844936,1030.5477717534557
0.5960000000000036,0.37411299949822924,-1.6156208641742509,0.7631601488341788,48.072825528326135,-8.475620024275617,-39.96958232920982,0.5146008263269738,-2.1739149952051755,0.45422297659550265,0.0,-0.8059942717802292,-2.736874456468602,-0.7465240577574831,-1.6695005063258133,2.6776490714993715,1.2197741147164627,10.19,0.39806744659446236,1.0,0.2,0.0,678.4084452837074,920.1854830547602,1026.7414928128846
