Time_s,X,Y,Z,Roll_deg,Pitch_deg,Yaw_deg,Ref_X,Ref_Y,Ref_Z,Ref_Yaw,vx,vy,vz,p,q,r,T_pert,tau_x,tau_y,tau_z,RPM_0,RPM_1,RPM_2,RPM_3
0.0040000000000000036,-6.51783449945208e-23,4.0,0.010006999594037988,-3.861262043247411e-18,-1.3963409037126566e-18,6.720055526330817e-20,1.494038018717053e-22,4.0,0.010074639714689831,7.2122854763592815e-22,5.628567488317738e-19,800.0,2.0013999188075973,0.0,0.0,0.0,0.13727673356390743,4.508920778836622e-18,4.131065662548703e-18,-3.0228665552082376e-20,539.3555031529193,539.3555031529194,539.3555031529193,539.3555031529194
0.007999999999999993,3.266149571333397e-23,4.0,0.01001099936604295,-5.077545963358211e-18,-1.5806513993925031e-18,1.779515296619247e-19,1.4939310914910226e-22,4.0,0.01021705724096241,7.21176929827702e-22,3.2358006469408643e-19,444.44444444444446,1.112333262893661,0.0,0.0,0.0,0.28307763445396705,1.684336394644241e-18,-3.1500568163016392e-18,-1.3044070718372069e-19,543.2938902409246,543.2938902409246,543.2938902409246,543.2938902409246
0.011999999999999997,1.407076584761572e-22,4.0,0.010014999147004025,-5.318706777052454e-18,-1.639684111117076e-18,2.761434306337637e-19,1.4937716658724108e-22,4.0,0.010429397942859043,7.210999690637008e-22,-5.8682554324860094e-21,-8.569108595430525e-23,0.000999943864330756,0.0,0.0,0.0,0.42940121619331495,6.288259324557946e-19,-2.190217055542735e-20,-1.2031933251943465e-19,547.2178991675321,547.2178991675322,547.2178991675321,547.2178991675321
0.016,1.877018328793566e-22,4.0,0.010018998946029293,-6.792664248954473e-18,-1.2900319197511338e-18,3.3241307827056944e-19,1.493560377581251e-22,4.0,0.010710815098006973,7.209979722299813e-22,1.3613647803768918e-20,-1.0127493510055886e-22,0.000999946631403438,0.0,0.0,0.0,0.5762362186425524,2.084893676906602e-18,3.2573574558362077e-19,-7.53814436432153e-20,551.1275382989265,551.1275382989267,551.1275382989265,551.1275382989267
0.020000000000000004,3.561504976844513e-22,4.0,0.010022998767401186,-6.9079643467845925e-18,-6.13704864723824e-19,7.209812095315814e-19,1.4932978565759922e-22,4.0,0.0110604696579496,7.208712434312662e-22,1.4514719843096625e-20,-1.1120033295036144e-22,0.0009999512708235361,0.0,0.0,0.0,0.7235715097454171,5.99138153959007e-19,-2.1562487861244097e-18,-4.658711269265365e-19,555.0228180234129,555.022818023413,555.0228180234129,555.0228180234129
0.024000000000000007,5.124904148254777e-22,4.0,0.010026998612427269,-8.257716526251793e-18,-1.4046732715392736e-18,9.359217271867248e-19,1.4929847270999597e-22,4.0,0.011477530186265229,7.207200840133721e-22,4.1208189469371444e-20,-1.2470479109015447e-22,0.000999956851879813,0.0,0.0,0.0,0.8713960695306959,2.0485323356693652e-18,9.649652820826933e-19,-2.7900440970972527e-19,558.9037502648109,558.9037502648109,558.9037502648109,558.9037502648109
0.02800000000000001,5.830352249731836e-22,4.0,0.010030998480593734,-9.124759532020833e-18,-6.606792107769945e-19,1.1461113646292796e-18,1.492621607727464e-22,4.0,0.011961172797154364,7.2054479258546825e-22,2.831195076338822e-20,-1.3891235204216e-22,0.0009999626813309709,0.0,0.0,0.0,1.019698990477051,1.5771564513268201e-18,9.375675061031208e-20,-2.8228275049937166e-19,562.7703484418339,562.770348441834,562.7703484418339,562.7703484418339
0.032000000000000015,8.1355606108660985e-22,4.0,0.010034998370593344,-9.357873579948051e-18,5.709678843949664e-19,9.496597722027389e-19,1.4922091114095602e-22,4.0,0.012510581094492133,7.203456650421662e-22,3.6279051246852715e-20,-1.557080577331483e-22,0.000999968364269986,0.0,0.0,0.0,1.1684694767475388,8.961875277194931e-19,-3.3201371632653325e-18,1.8410543742652326e-19,566.6226274005367,566.6226274005368,566.6226274005367,566.6226274005367
0.03599999999999999,9.91724586757667e-22,4.0,0.010038998280580694,-9.991868159115747e-18,1.5333632412189946e-18,1.0736294628689326e-18,1.4917478455194605e-22,4.0,0.013124946111342442,7.201229945854423e-22,4.6306573921559294e-20,-1.6649425009083594e-22,0.0009999736877611132,0.0,0.0,0.0,1.3176968447491508,1.3802496027032903e-18,-7.506127107448132e-19,-1.8213239907195286e-19,570.460603384013,570.4606033840131,570.460603384013,570.460603384013
0.039999999999999994,9.350114687841593e-22,4.0,0.010042998208557034,-1.0647828471677312e-17,1.0656009864868077e-18,9.99029418813167e-19,1.4912384118976031e-22,4.0,0.013803466249930544,7.198770717463939e-22,2.257155860156102e-20,-1.7389134499230812e-22,0.0009999785601110325,0.0,0.0,0.0,1.4673705218935587,1.449253754437816e-18,3.022202932154911e-18,4.4735776274340195e-20,574.2842939580332,574.2842939580335,574.2842939580332,574.2842939580333
0.044,8.91746243164811e-22,4.0,0.0100469981525924,-1.0964514636869526e-17,7.324455945628246e-19,1.0272774022778227e-18,1.49068140689638e-22,4.0,0.014545347222070591,7.196081844068313e-22,-7.8663159478781e-21,-1.84039511586934e-22,0.0009999829385910763,0.0,0.0,0.0,1.617480045954422,1.0979284634934403e-18,1.9843564381981613e-19,-7.234578096414956e-20,578.0937179552251,578.0937179552252,578.0937179552251,578.0937179552251
0.048,8.915054820554686e-22,4.0,0.0100509981108907,-1.1276996867136043e-17,6.617713367927157e-19,1.2540951204644375e-18,1.490077421424523e-22,4.0,0.015349801990044964,7.193166178207048e-22,-6.028982029775954e-21,-1.9234837195881294e-22,0.0009999868456142189,0.0,0.0,0.0,1.768015064425992,1.1146751436845387e-18,-4.40702451700792e-19,-3.0546873458150255e-19,581.8888954219518,581.8888954219518,581.8888954219518,581.8888954219518
0.052000000000000005,8.956845177911294e-22,4.0,0.010054998081938944,-1.1488256319145189e-17,5.836688943629966e-19,1.1842459566212608e-18,1.489427040991157e-22,4.0,0.016216050707932004,7.1900265463537025e-22,-2.4146936892178077e-21,-1.9677290669866634e-22,0.0009999903264534468,0.0,0.0,0.0,1.9189653334046648,1.0178423024148266e-18,-1.3036495671874446e-20,3.176904511877561e-20,585.6698475557953,585.6698475557954,585.6698475557953,585.6698475557953
0.05600000000000001,8.883709444984294e-22,4.0,0.010058998064222434,-1.1578035222578732e-17,5.729426347884646e-19,8.533615123427073e-19,1.488730845749516e-22,4.0,0.01714332066337891,7.186665749126929e-22,-8.098951377284244e-22,-2.0025983382453385e-22,0.0009999934167531643,0.0,0.0,0.0,2.0703207175269873,8.904319527752819e-19,9.530775206263572e-20,3.395655426273092e-19,589.4365966720757,589.4365966720758,589.4365966720757,589.4365966720757
0.06000000000000001,8.908147191414088e-22,4.0,0.01006299805639553,-1.165950899134198e-17,5.532901088172116e-19,1.067597927048085e-18,1.4879894105403274e-22,4.0,0.018130846219816574,7.183086561499908e-22,-2.576624865469033e-21,-2.0236703352005274e-22,0.0009999961493324314,0.0,0.0,0.0,2.2220711881233584,8.868730723483108e-19,-1.316021568013456e-19,-2.8363689289750836e-19,593.1891661280649,593.189166128065,593.1891661280649,593.1891661280649
0.06400000000000002,7.878056287502943e-22,4.0,0.010067340075827913,3.336300223646684e-17,1.0138048163640127e-17,1.2414518599464592e-18,1.4872033049348697e-22,4.0,0.01917786875911307,7.179291733008196e-22,-1.0518199452672808e-20,-8.280803236636447e-23,0.0010342004075359831,0.0,0.0,0.0,2.373512690389952,-5.1776940044694624e-17,-1.0011253973647189e-17,-2.452632904526718e-19,596.9105766065045,596.9105766065046,596.9105766065045,596.9105766065045
0.06799999999999999,2.805245392881909e-22,4.0,0.010075783820653961,3.095705848500478e-16,6.150401558497986e-17,1.384425071463008e-18,1.4863730932776999e-22,4.0,0.020283636624662676,7.175283987955997e-22,-6.157414217311173e-20,3.042004287032568e-21,0.0014785761493161728,0.0,0.0,0.0,2.517688263783218,-3.248179835796757e-16,-5.58854430081702e-17,-2.1633104454501688e-19,600.4320084459669,600.4320084459669,600.4320084459667,600.432008445967
0.072,-4.045457880125967e-22,4.0,0.010093509255487885,8.352805977340768e-16,1.4354478352983579e-16,3.9529930215563646e-18,1.4854993347290582e-22,4.0,0.021447405064907207,7.171066025620859e-22,-1.333239504895453e-19,2.3134417226180642e-20,0.00285111996468565,0.0,0.0,0.0,2.6515858716492717,-6.350577840825885e-16,-9.751702322046976e-17,-3.0556825481906386e-18,603.6840082694722,603.6840082694721,603.684008269472,603.6840082694722
0.076,-8.194644689599631e-22,4.0,0.010125199345942082,1.6195885094162203e-15,2.344459253900134e-16,3.0373093394366438e-18,1.48458258330695e-22,4.0,0.022668436177286467,7.166640520456819e-22,-1.5360977207999519e-19,9.63949737531433e-20,0.005448547139637154,0.0,0.0,0.0,2.776039405819426,-9.729802258793017e-16,-1.1853936952649185e-16,9.089982753468765e-19,606.691007464693,606.6910074646929,606.6910074646928,606.6910074646931
0.08,-5.986650915689603e-22,4.0,0.010175055939526721,2.6571969442554767e-15,3.260747207834177e-16,-2.967811933415887e-18,1.483623387928908e-22,4.0,0.02394599885261479,7.162010122296011e-22,-9.271080577940902e-20,2.863934892607229e-19,0.009187414799000267,0.0,0.0,0.0,2.8918664549042927,-1.3224002882714617e-15,-1.3008479396873738e-16,6.8918646793607455e-18,609.4762480457272,609.476248045727,609.4762480457268,609.4762480457273
0.084,5.463819662005994e-23,4.0,0.010246948274060742,3.9232336660288606e-15,4.675667966686905e-16,-1.7524276234050893e-17,1.482622292453437e-22,4.0,0.02527936871988048,7.157177456548731e-22,-1.0959655541943482e-20,6.809111941557131e-19,0.01396091085493611,0.0,0.0,0.0,2.999598629363617,-1.6600975252903562e-15,-1.9273858178604347e-16,1.712777271888513e-17,612.0554580819752,612.0554580819747,612.0554580819747,612.0554580819752
0.08800000000000001,1.3936040455983015e-21,4.0,0.010344359826306276,5.393560570042729e-15,6.751825511979519e-16,-3.183061522057522e-17,1.4815798357211431e-22,4.0,0.02666782809146507,7.152145124401982e-22,5.00290252102621e-20,1.3815927985086197e-18,0.019675409350087058,0.0,0.0,0.0,3.0998860995587867,-1.9852283835929345e-15,-2.8294390138650524e-16,1.743331959268693e-17,614.4467047952995,614.4467047952991,614.4467047952991,614.4467047952995
0.09200000000000001,4.452959195925927e-21,4.0,0.01047050909008585,7.10835106933082e-15,9.108630160443677e-16,-4.819936974067031e-17,1.480496551595551e-22,4.0,0.02811066590877935,7.146915703016515e-22,1.619956311424544e-19,2.5075659254008798e-18,0.026248458953773667,0.0,0.0,0.0,3.1931462980695464,-2.3712408850325923e-15,-3.425524806967238e-16,2.043000887829082e-17,616.6620730902388,616.6620730902381,616.6620730902382,616.6620730902388
0.09600000000000002,1.0221740699630996e-20,4.0,0.010628325001743964,9.036469020436084e-15,1.1546613394390395e-15,-6.530943941436498e-17,1.4793729690036084e-22,4.0,0.029607177688313144,7.141491745722366e-22,4.3091012445277153e-19,4.195010455687934e-18,0.033606954773085326,0.0,0.0,0.0,3.2798550652639067,-2.7376117036028485e-15,-3.8113001320762454e-16,2.1968133403992412e-17,618.7146980657512,618.7146980657504,618.7146980657506,618.7146980657512
0.10000000000000002,1.958422387087692e-20,4.0,0.010820546106269053,1.1078378538903234e-14,1.4028818866655215e-15,-8.21085895653921e-17,1.4782096119758852e-22,4.0,0.031156665468095753,7.1358757822129e-22,8.57085400694511e-19,6.566129999374991e-18,0.04168896007388771,0.0,0.0,0.0,3.360296299296285,-3.002339082487101e-15,-4.155732577004853e-16,2.2307522194999548e-17,620.6128835048869,620.612883504886,620.6128835048861,620.6128835048869
0.104,3.349988853447184e-20,4.0,0.011049627175608001,1.3254331981448907e-14,1.647766014315207e-15,-9.797023026820392e-17,1.4770069996864635e-22,4.0,0.03275843775456411,7.130070318737389e-22,1.4284745624349366e-18,9.720800014449832e-18,0.05043479463060931,0.0,0.0,0.0,3.4349495736840367,-3.298497131716989e-15,-4.4290423370631376e-16,2.1902187485870493e-17,622.3693100110871,622.3693100110863,622.3693100110863,622.3693100110871
0.108,5.283569141389979e-20,4.0,0.011317806898220824,1.560860888278983e-14,1.8915286703027467e-15,-1.146499043109665e-16,1.4757656464925262e-22,4.0,0.034411809469835686,7.124077838292109e-22,2.1358563385829896e-18,1.3780410477894885e-17,0.059783121200623214,0.0,0.0,0.0,3.5041662177381236,-3.655528069630383e-15,-4.723564162917372e-16,2.3509107174250557e-17,623.993407585489,623.993407585488,623.9934075854881,623.9934075854891
0.112,7.837214463683472e-20,4.0,0.011627188861514062,1.8026980281290757e-14,2.145622561089722e-15,-1.3192528755789499e-16,1.4744860619736423e-22,4.0,0.03611610189938309,7.117900800809994e-22,2.956582532882358e-18,1.8860247435156997e-17,0.06968513154802634,0.0,0.0,0.0,3.5681401806337822,-3.8913643295553445e-15,-5.148715007193172e-16,2.4889908169755784e-17,625.4907410523341,625.490741052333,625.4907410523331,625.490741052334
0.116,1.1104143088522094e-19,4.0,0.011979689113070542,2.05123404618688e-14,2.410045963111145e-15,-1.4719904947980957e-16,1.473168750970754e-22,4.0,0.03787064264010755,7.111541643348835e-22,3.876946355714385e-18,2.5031509148657573e-17,0.08009972122144522,0.0,0.0,0.0,3.6271762300422545,-4.134963273498572e-15,-5.605680730150302e-16,2.3261078101484335e-17,626.8693278152103,626.8693278152091,626.8693278152092,626.8693278152102
0.12000000000000001,1.5193703004228596e-19,4.0,0.01237709113488029,2.3079429928403924e-14,2.673711887968021e-15,-1.6589292615106726e-16,1.4718142136248654e-22,4.0,0.03967476554880828,7.105002780278049e-22,4.91588360368516e-18,3.2358823130363323e-17,0.09098659974177276,0.0,0.0,0.0,3.6814736272751145,-4.400356033185926e-15,-5.967488711943832e-16,2.788350006691761e-17,628.1345883423306,628.1345883423294,628.1345883423295,628.1345883423305
0.12400000000000001,2.0205498624611284e-19,4.0,0.012821025921642294,2.572372533694669e-14,2.9366182695023296e-15,-1.8509391663960815e-16,1.470422945415437e-22,4.0,0.04152781069104484,7.098286603464023e-22,6.0892062490007624e-18,4.093439069381423e-17,0.1023092672602817,0.0,0.0,0.0,3.7312763770165587,-4.666055580049645e-15,-6.327298947751446e-16,2.92435172024535e-17,629.2928759462517,629.2928759462503,629.2928759462505,629.2928759462517
0.128,2.6234070334917365e-19,4.0,0.013312972023692244,2.84861359700119e-14,3.2039362731788945e-15,-2.0460820209092293e-16,1.4689954371984869e-22,4.0,0.04342912429038968,7.091395482454041e-22,7.385209881630159e-18,5.0872734463230045e-17,0.11403006432545001,0.0,0.0,0.0,3.776833343657102,-4.984805746875721e-15,-6.750268222451039e-16,3.03979469667299e-17,630.3505532915312,630.3505532915298,630.3505532915299,630.3505532915311
0.132,3.3385625660655446e-19,4.0,0.013854275906323548,3.139058572669756e-14,3.4712299464184486e-15,-2.241248629823439e-16,1.4675321752444008e-22,4.0,0.04537805867806793,7.08433176465881e-22,8.799034948931084e-18,6.23136428651242e-17,0.12611309660911593,0.0,0.0,0.0,3.8183570172747,-5.3395696249637425e-15,-7.1469229686162325e-16,3.1202038436768513e-17,631.3130477179548,631.3130477179532,631.3130477179533,631.3130477179546
0.136,4.17621967149526e-19,4.0,0.014446175189612368,3.4480249164708415e-14,3.7388737967488084e-15,-2.4270163898544346e-16,1.466033641275455e-22,4.0,0.047373972242981614,7.077097775533594e-22,1.0334649101202575e-17,7.544429695425124e-17,0.13852636181424272,0.0,0.0,0.0,3.856017018308396,-5.754462804991502e-15,-7.553019652489218e-16,3.090551836189427e-17,632.1847172737499,632.1847172737483,632.1847172737484,632.1847172737498
0.14,5.146970547818342e-19,4.0,0.015089769923541017,3.768082219539789e-14,4.003888751433369e-15,-2.611541880000658e-16,1.4645003125030508e-22,4.0,0.0494162293821156,7.069695818757961e-22,1.19951774268062e-17,9.041965301165682e-17,0.15123972678859499,0.0,0.0,0.0,3.890044819563216,-6.0952540444023186e-15,-7.93881302142759e-16,3.152322097122535e-17,632.9712844802298,632.9712844802281,632.9712844802283,632.9712844802298
0.14400000000000002,6.26028052703431e-19,4.0,0.01578609152321859,4.0880728042633647e-14,4.274053823209729e-15,-2.8101810411869843e-16,1.4629326616646652e-22,4.0,0.05150420045132223,7.062128176414161e-22,1.3772975839927502e-17,1.0724081028804579e-16,0.16422605020501632,0.0,0.0,0.0,3.920536458909164,-6.313337728678288e-15,-8.410661359070299e-16,3.392963911969067e-17,633.6752823618934,633.6752823618916,633.6752823618917,633.6752823618933
0.14800000000000002,7.527213065077314e-19,4.0,0.016536086278777003,4.3964624109512836e-14,4.542694606181077e-15,-3.0047300356735576e-16,1.4613311570605203e-22,4.0,0.05363726171648213,7.054397109164135e-22,1.5664040592145112e-17,1.2569131574805048e-16,0.1774642091040144,0.0,0.0,0.0,3.94762371332166,-6.396686502280248e-15,-8.836027867267576e-16,3.426751641430076e-17,634.3000236655273,634.3000236655254,634.3000236655256,634.3000236655271
0.15200000000000002,8.958788766622523e-19,4.0,0.017340618844637664,4.686113445864594e-14,4.804268740219242e-15,-3.2167394404375384e-16,1.459696262589971e-22,4.0,0.055814795305038314,7.046504856425179e-22,1.7679120114856138e-17,1.4546702580858858e-16,0.19093400857105053,0.0,0.0,0.0,3.971434075665515,-6.38875425749914e-15,-9.205887321840731e-16,3.710604631465508e-17,634.8486788946784,634.8486788946765,634.8486788946767,634.8486788946782
0.15600000000000003,1.0569299262405337e-18,4.0,0.018200473814999847,4.955696703932703e-14,5.0189517080750994e-15,-3.501272102318698e-16,1.458028437787615e-22,4.0,0.05803618915790085,7.03845363654426e-22,1.9913260348267888e-17,1.6625954832143366e-16,0.20461499406666253,0.0,0.0,0.0,3.9920945270637884,-6.352486574611824e-15,-9.154824105871275e-16,4.6448485474064e-17,635.3243677116421,635.3243677116403,635.3243677116405,635.324367711642
0.16000000000000003,1.2370831934302193e-18,4.0,0.019116354900846386,5.2129653083219405e-14,5.155287853430462e-15,-3.8191032444528964e-16,1.456328137859127e-22,4.0,0.06030083698171934,7.030245646970997e-22,2.2494037917341614e-17,1.879228292409228e-16,0.21848705432047125,0.0,0.0,0.0,4.009736353990485,-6.3930318008292626e-15,-8.692389744502664e-16,5.1506654243691325e-17,635.7302736123042,635.7302736123024,635.7302736123027,635.7302736123042
0.16400000000000003,1.4364454654084777e-18,4.0,0.020088911130626465,5.469430389538562e-14,5.262729924304976e-15,-4.189393921652009e-16,1.454595813716818e-22,4.0,0.06260813820152067,7.021883064429321e-22,2.5392553248654496e-17,2.1058018747680951e-16,0.23253252109249437,0.0,0.0,0.0,4.024440329077018,-6.559575174853514e-15,-8.637446263423654e-16,5.893987146174153e-17,636.0683870437294,636.0683870437275,636.0683870437279,636.0683870437293
0.16800000000000004,1.6558404414085682e-18,4.0,0.021118727479368053,5.721685121642102e-14,5.305068764043632e-15,-4.55174885049174e-16,1.4528319120149226e-22,4.0,0.06495749791370913,7.013368045087826e-22,2.85578213041373e-17,2.344481772558712e-16,0.2467358434777564,0.0,0.0,0.0,4.036308068427324,-6.6857864704764365e-15,-8.226346454594425e-16,5.953338025646411e-17,636.3411510821579,636.341151082156,636.3411510821562,636.3411510821579
0.17200000000000004,1.8958736597808257e-18,4.0,0.02220632537219191,5.959546538993875e-14,5.247600451454769e-15,-4.870069162706195e-16,1.4510368751846175e-22,4.0,0.06734832683942643,7.004702724728806e-22,3.209198909289139e-17,2.5946971408496824e-16,0.2610814785348768,0.0,0.0,0.0,4.0454422895982285,-6.690208840825109e-15,-7.348976899951205e-16,5.587738364885346e-17,636.5510092803804,636.5510092803786,636.5510092803788,636.5510092803805
0.17600000000000005,2.1566368575732796e-18,4.0,0.023352163102193447,6.181824546659257e-14,5.069604100098616e-15,-5.203500830805398e-16,1.4492111414687696e-22,4.0,0.06978004127826891,6.995889218916004e-22,3.617405687410277e-17,2.853328900237108e-16,0.27555354056780157,0.0,0.0,0.0,4.051946968855159,-6.670891597019247e-15,-6.108701850314748e-16,5.894975157752682e-17,636.70041173932,636.7004117393182,636.7004117393184,636.7004117393201
0.18000000000000005,2.437002454317874e-18,4.0,0.024556649713761012,6.384896058693977e-14,4.8279180700250204e-15,-5.471924451957174e-16,1.447355144956419e-22,4.0,0.07225206306235926,6.986929623161074e-22,4.067825282406579e-17,3.117082151332294e-16,0.2901375703340179,0.0,0.0,0.0,4.055899999045403,-6.5986100996911485e-15,-5.310583658261267e-16,5.2724958397717915e-17,636.7911896273152,636.7911896273134,636.7911896273137,636.7911896273152
0.18400000000000005,2.736672729793443e-18,4.0,0.025820140514439715,6.575314526743372e-14,4.467101009103151e-15,-5.614004239036771e-16,1.445469315616998e-22,4.0,0.07476381951077028,6.97782601308877e-22,4.56109803864707e-17,3.384539366008745e-16,0.3048203061628628,0.0,0.0,0.0,4.057390031656954,-6.589721522992155e-15,-3.910944369990394e-16,3.906823139928687e-17,636.8254035676329,636.825403567631,636.8254035676313,636.825403567633
0.188,3.0545653399948767e-18,4.0,0.027142938014514232,6.756779311164787e-14,3.970188456415475e-15,-5.670349765199482e-16,1.443554079334288e-22,4.0,0.07731474338429795,6.968580444600863e-22,5.106233806239732e-17,3.655815624994757e-16,0.3195886175386541,0.0,0.0,0.0,4.056505603741655,-6.615379124021351e-15,-2.1399024775661518e-16,2.963653624415214e-17,636.8050956674664,636.8050956674646,636.8050956674646,636.8050956674664
0.192,3.388775998492696e-18,4.0,0.02852529797232936,6.927516434628448e-14,3.349033468878893e-15,-5.654497554830401e-16,1.4416098579401145e-22,4.0,0.07990427284058148,6.959194954038805e-22,5.712312736428337e-17,3.931736710135029e-16,0.3344298367313738,0.0,0.0,0.0,4.053324745279392,-6.614198675808438e-15,-3.1141852119327095e-17,2.143406870598861e-17,636.7320526416428,636.7320526416411,636.7320526416411,636.7320526416429
0.196,3.736756089272384e-18,4.0,0.0299674300862696,7.080869979883586e-14,2.6316466472806465e-15,-5.579967418943059e-16,1.439637069247785e-22,4.0,0.08253185138956735,6.949671558345146e-22,6.364686331270953e-17,4.2107500344932857e-16,0.34933212390895746,0.0,0.0,0.0,4.047925650632398,-6.5279590965448924e-15,1.364021318890667e-16,1.4514461724186643e-17,636.6080523943251,636.6080523943234,636.6080523943233,636.6080523943251
0.2,4.095479311340666e-18,4.0,0.031469500986953815,7.216089204946121e-14,1.853480167962756e-15,-5.460564221363739e-16,1.4376361270852708e-22,4.0,0.08519692784931537,6.94001225522371e-22,7.044610725246849e-17,4.4894063009982585e-16,0.3642842456020079,0.0,0.0,0.0,4.040381987641311,-6.421065556780118e-15,2.7665322105293503e-16,8.966530669803705e-18,636.4347576872681,636.4347576872666,636.4347576872664,636.4347576872682
0.20400000000000001,4.462022918073548e-18,4.0,0.033031630413084365,7.33467159236635e-14,1.0131042586576923e-15,-5.310947984356994e-16,1.4356074413281315e-22,4.0,0.08789895630214384,6.930219023298543e-22,7.735488094841564e-17,4.765063113527488e-16,0.37927493636244547,0.0,0.0,0.0,4.030776635596864,-6.31925792756835e-15,4.2390758554311506e-16,4.946858784603585e-18,636.2140330834635,636.214033083462,636.2140330834618,636.2140330834637
0.20800000000000002,4.8333184660563234e-18,4.0,0.03465389590654451,7.433504714888033e-14,1.0094755677403368e-16,-5.092060211866126e-16,1.43355141793219e-22,4.0,0.09063739605111149,6.9202938222716405e-22,8.43575239549244e-17,5.035960174965475e-16,0.394293122021493,0.0,0.0,0.0,4.019184516687827,-6.1697288127444735e-15,5.906174401080225e-16,-3.759527552142797e-18,635.9475518815143,635.9475518815129,635.9475518815127,635.9475518815145
0.21200000000000002,5.205405728512835e-18,4.0,0.03633633668861387,7.513608631412648e-14,-8.320661636643095e-16,-4.781844443462152e-16,1.4314684589659545e-22,4.0,0.09341171157683369,6.910238593079458e-22,9.136831372128528e-17,5.300247619604243e-16,0.4093284090280383,0.0,0.0,0.0,4.005674107743678,-6.0186062403598374e-15,7.156401917748654e-16,-1.5326908479542416e-17,635.6368317890448,635.6368317890435,635.6368317890431,635.6368317890449
0.21600000000000003,5.574716082829379e-18,4.0,0.038078957744878364,7.57380577537927e-14,-1.7858668270754277e-15,-4.3885522757477703e-16,1.429358962642791e-22,4.0,0.09622137249463045,6.9000552580482315e-22,9.819303139924473e-17,5.555631736607188e-16,0.4243714845439297,0.0,0.0,0.0,3.9903068925887215,-5.840925366412626e-15,8.407001694188813e-16,-2.6305394599330132e-17,635.2832230680763,635.283223068075,635.2832230680746,635.2832230680764
0.22000000000000003,5.9377470489550775e-18,4.0,0.03988172037304235,7.610688027278834e-14,-2.773006715897578e-15,-3.9682204860063307e-16,1.4272233233528502e-22,4.0,0.09906585351200384,6.88974572104809e-22,1.0478365015539179e-16,5.799800071091311e-16,0.43941274148740417,0.0,0.0,0.0,3.973164705043314,-5.609834053561115e-15,9.840356119868366e-16,-3.1079037470366014e-17,634.8885387988739,634.8885387988728,634.8885387988722,634.8885387988742
0.22400000000000003,6.290780770615323e-18,4.0,0.041744549945199584,7.618493115240848e-14,-3.7971594758653635e-15,-3.6324545818127656e-16,1.425061931694748e-22,4.0,0.10194463438644231,6.879311867645992e-22,1.1123634452303922e-16,6.028480577995457e-16,0.45444237079404204,0.0,0.0,0.0,3.954315092721739,-5.295511549055348e-15,1.139397710708639e-15,-2.2926425646837987e-17,634.4542591003332,634.4542591003321,634.4542591003317,634.4542591003334
0.22800000000000004,6.62934377762115e-18,4.0,0.04366734044496468,7.597737243585816e-14,-4.799909295879697e-15,-3.4007552206233293e-16,1.422875174507002e-22,4.0,0.10485719988354962,6.868755565257484e-22,1.173805610468697e-16,6.236626167188207e-16,0.4694515215542969,0.0,0.0,0.0,3.9338176145339245,-4.967333275183446e-15,1.2410450064801234e-15,-1.2148573946526371e-17,633.9816762862989,633.9816762862981,633.9816762862976,633.9816762862993
0.23200000000000004,6.949337682738299e-18,4.0,0.04564995989433166,7.55306965255723e-14,-5.756894927294265e-15,-3.2157483376656503e-16,1.4206634348992267e-22,4.0,0.10780303973549583,6.858078663297289e-22,1.229365793171379e-16,6.421522315244355e-16,0.4844327077804925,0.0,0.0,0.0,3.911721889797616,-4.673915024131811e-15,1.3122448818302083e-15,-7.6455895694629e-18,633.4718499863378,633.471849986337,633.4718499863365,633.4718499863382
0.23600000000000004,7.24713472898457e-18,4.0,0.04769223380705957,7.485372743860227e-14,-6.672586187888236e-15,-3.0363659851347466e-16,1.4184270922830885e-22,4.0,0.11078164859978822,6.847282993328738e-22,1.2768719350762453e-16,6.583193320264823e-16,0.49937766228103503,0.0,0.0,0.0,3.888112020210152,-4.37444946273298e-15,1.3836156539469419e-15,-7.748256577879299e-18,632.9266331795295,632.9266331795288,632.9266331795284,632.92663317953
0.24000000000000005,7.51919043841064e-18,4.0,0.04979396008171833,7.387403967191246e-14,-7.542536378504117e-15,-2.8820067618531233e-16,1.4161665224030216e-22,4.0,0.1137925260183595,6.836370369212049e-22,1.3162841854080365e-16,6.719811889006879e-16,0.5142778383732108,0.0,0.0,0.0,3.863043309542987,-3.974662301408204e-15,1.449211612107058e-15,-5.561764377999581e-18,632.347213161663,632.3472131616625,632.3472131616619,632.3472131616634
0.24400000000000005,7.762076699726454e-18,4.0,0.05195490925701949,7.256868316368795e-14,-8.355642285892441e-15,-2.8341819079736055e-16,1.413882097366709e-22,4.0,0.11683517637697126,6.825342587251469e-22,1.3474707813065715e-16,6.8259709313888545e-16,0.529125704872796,0.0,0.0,0.0,3.8365714958222954,-3.5273749879962332e-15,1.5005374484091324e-15,6.2492826132716734e-18,631.7347859495476,631.7347859495471,631.7347859495467,631.734785949548
0.24800000000000005,1.9176004076021406e-11,4.000000000019176,0.05417480580558711,1.8773501501036241e-06,-1.8773284635666708e-06,-5.330072582424046e-07,1.4115741856753268e-22,4.0,0.11990910886493011,6.814201426341275e-22,4.993428671254497e-09,4.993433350752119e-09,0.54391276592829,0.0,0.0,0.0,3.8087912254554706,-1.9687883641787433e-06,1.968760500277134e-06,6.226367616635361e-07,631.0905467033391,631.0905466957306,631.0918125054379,631.0928876895177
0.25200000000000006,7.88724002467967e-11,4.000000000078876,0.0564533586380146,8.21618754953459e-06,-8.215904953906323e-06,-1.2530634916384699e-06,1.4092431522535571e-22,4.0,0.12301383743511432,6.802948648110655e-22,3.298973803208364e-08,3.299070200990831e-08,0.5586309596770169,0.0,0.0,0.0,3.779736776024291,-7.042134599745297e-06,7.041870541866177e-06,8.630265362090639e-07,630.4166498049889,630.4166497328082,630.4172271598667,630.421077034266
0.256,1.50220003478298e-10,4.00000000015023,0.05879025822605112,1.8179520220244862e-05,-1.8178484235775048e-05,-2.1130072632745256e-06,1.4068893584793674e-22,4.0,0.1261488807643086,6.791585997067471e-22,9.743458479750287e-08,9.743915480611214e-08,0.5732751311584217,0.0,0.0,0.0,3.7494488303187072,-1.2010269150416019e-05,1.200941336027246e-05,1.056005127325663e-06,629.7134587685659,629.7134585343729,629.7132373669799,629.719810492987
0.26,1.9081245202323641e-10,4.000000000190832,0.06118518059719426,3.102358843535022e-05,-3.1021129997714585e-05,-3.073537172087185e-06,1.4045131622135627e-22,4.0,0.1293137622138451,6.78011520074091e-22,1.9580269656575907e-07,1.95815710945811e-07,0.5878411389388708,0.0,0.0,0.0,3.7179606218632006,-1.653930531311133e-05,1.6537612610246014e-05,1.208817699748703e-06,628.981637400199,628.9816369364399,628.9806189842947,628.9896812006822
0.264,1.4715124200525361e-10,4.000000000147182,0.06363776536265418,4.604355517707739e-05,-4.603890128668855e-05,-4.101411688214496e-06,1.4021149178291082e-22,4.0,0.13250800979054747,6.768537969823042e-22,3.189058698286789e-07,3.18934182022743e-07,0.6023231210478919,0.0,0.0,0.0,3.685350506710515,-2.0606993697198133e-05,2.0604282430850443e-05,1.3269292992898975e-06,628.2229014778435,628.2229007341258,628.2211096962352,628.232414145641
0.268,-4.2370431796277586e-11,3.9999999999576628,0.06614763969382079,6.259281499626603e-05,-6.258515482608203e-05,-5.167940299930083e-06,1.3996949762402252e-22,4.0,0.13573115610797692,6.7568559983092735e-22,4.5879249235678715e-07,4.588436159397884e-07,0.616715093571086,0.0,0.0,0.0,3.6516494101683454,-2.4208165631288123e-05,2.4204250709853906e-05,1.4142912305972488e-06,627.4378683145524,627.4378672393207,627.435339735494,627.4486361016477
0.272,-4.451307689420842e-10,3.9999999995548876,0.06871439085805965,8.005741915792191e-05,-8.004596887931517e-05,-6.248764328938666e-06,1.397253684931264e-22,4.0,0.13898273834797734,6.745070963637732e-22,6.079394851341119e-07,6.080211297264782e-07,0.6310103554414991,0.0,0.0,0.0,3.6169444615914825,-2.7316764801200937e-05,2.7311614693303206e-05,1.4747856353739497e-06,626.6284665500029,626.6284651337006,626.6252562864624,626.6402792288294
0.276,-1.1317258195969076e-09,3.9999999988682444,0.07133758446074773,9.787045823362315e-05,-9.785451709870725e-05,-7.323586154660027e-06,1.394791387985353e-22,4.0,0.14226229822251724,6.733184526827557e-22,7.59270811220278e-07,7.593901817465943e-07,0.6452017892705724,0.0,0.0,0.0,3.5812871078903177,-2.9921520686116565e-05,2.9915093129688335e-05,1.5121562254895025e-06,625.7957982701777,625.7957965002195,625.7919756149312,625.8084527266288
0.28,-2.1737545675864964e-09,3.9999999978261176,0.07401675679938809,0.00011550855903132188,-0.00011548755934090301,-8.375362629491565e-06,1.3923084261128254e-22,4.0,0.14556938193582664,6.721198332616139e-22,9.061583302345644e-07,9.063215064921424e-07,0.6592824423561522,0.0,0.0,0.0,3.5447450714493365,-3.2012011675718814e-05,3.200439234751552e-05,1.5293712543930676e-06,624.9413506789606,624.9413485779552,624.936996699586,624.954648893517
0.28400000000000003,-3.641753539698022e-09,3.9999999963579502,0.07675142183024364,0.00013249453269866804,-0.0001324680804179122,-9.390417677213394e-06,1.389805136679428e-22,4.0,0.14890354014682664,6.709114009595284e-22,1.0424738392889687e-06,1.0426851329322903e-06,0.6732461544164249,0.0,0.0,0.0,3.5073729370418274,-3.358390571328882e-05,3.357520063288197e-05,1.5296641474093573e-06,624.0663085406824,624.0663061369186,624.0615152584327,624.0800600022901
0.28800000000000003,-5.603280932494828e-09,3.9999999943961613,0.07954109905385105,0.00014840846676796628,-0.00014837636696148995,-1.035763566946521e-05,1.387281853734311e-22,4.0,0.15226432793184935,6.696933170346334e-22,1.162656322699676e-06,1.162917778818108e-06,0.6870894636131541,0.0,0.0,0.0,3.4691694740327703,-3.4648957317551916e-05,3.463932545133491e-05,1.5154643288229013e-06,623.1705526537401,623.1705499902365,623.165416308718,623.1845764877473
0.29200000000000004,-8.12134139301216e-09,3.999999991877724,0.08238530380974839,0.00016288163067066402,-0.00016284390586901784,-1.1268216565510955e-05,1.384738908037801e-22,4.0,0.15565130474764624,6.684657411574239e-22,1.2617850796447417e-06,1.262096243140538e-06,0.7008121129421777,0.0,0.0,0.0,3.430153037940939,-3.521805431436562e-05,3.520772321539993e-05,1.4890203276721768e-06,622.2544215867962,622.2544187257274,622.2490423934461,622.2685457963282
0.29600000000000004,-1.125297431686813e-08,3.9999999887455755,0.08528351279250282,0.00017558747215374148,-0.00017554437794491795,-1.2115392350930423e-05,1.3821766270889596e-22,4.0,0.15906403439468267,6.672288314240591e-22,1.33554933387988e-06,1.3359071293236042e-06,0.7144099779444771,0.0,0.0,0.0,3.390412168041504,-3.529567666524397e-05,3.528489237058324e-05,1.4523445140272922e-06,621.3199059586027,621.3199029675351,621.3143892463656,621.3339649186878
0.30000000000000004,-1.5048024108404413e-08,3.9999999849498495,0.08823518835590685,0.00018624682406280445,-0.0001861988442410159,-1.4052235915694722e-05,1.379595335152929e-22,4.0,0.16250208498071644,6.659827443695635e-22,1.3802191979270077e-06,1.3806175985806327e-06,0.727877062448884,0.0,0.0,0.0,3.349987374688522,-3.489613410237061e-05,3.488516697809731e-05,2.7600365532299756e-06,620.3658818913224,620.3658788448683,620.3643207715478,620.3837044077528
0.30400000000000005,-1.954814429848916e-08,3.9999999804488717,0.09123979313642396,0.00019462766902596823,-0.00019457551670310549,-1.682168006943056e-05,1.3769953532880655e-22,4.0,0.1659650288846585,6.647276349809246e-22,1.3926619946683511e-06,1.3930919820284846e-06,0.7412101918592742,0.0,0.0,0.0,3.3088900112627293,-3.403833993726835e-05,3.402749030474222e-05,3.812178729611513e-06,619.3948880118689,619.3948849933272,619.3966680560665,619.415604718057
0.30800000000000005,-2.4786108867109192e-08,3.99999997520985,0.09429682483187522,0.0002005411627633516,-0.0002004857688154294,-1.9987703135230657e-05,1.374376999372862e-22,4.0,0.16945244272071341,6.6346365671009e-22,1.370361481380042e-06,1.3708111831916663e-06,0.754412426262917,0.0,0.0,0.0,3.267060902038463,-3.274246360819532e-05,3.2732046733606864e-05,4.389167898785403e-06,618.405769715092,618.405766812315,618.4096191741123,618.4278639864692
0.31200000000000006,-3.078488014541172e-08,3.9999999692098083,0.09740574634538943,0.00020384383586071142,-0.00020378632832769898,-2.341645127403625e-05,1.3717405881326634e-22,4.0,0.1729639073027977,6.621909614868639e-22,1.3114108521961284e-06,1.311865744370301e-06,0.7674839325938686,0.0,0.0,0.0,3.2245815907030577,-3.10306988707555e-05,3.1021038939520594e-05,4.826079423957156e-06,617.3998751320398,617.3998724358078,617.4055021572839,617.4228213301346
0.31600000000000006,-3.7556885358031354e-08,3.9999999624363096,0.10056594500825726,0.00020444444750638237,-0.00020438612306316136,-2.699769555186995e-05,1.3690864311661744e-22,4.0,0.1764990076092341,6.609096997317029e-22,1.2145556305753712e-06,1.2149988556847075e-06,0.7804157600166199,0.0,0.0,0.0,3.181617550729131,-2.8937918416777034e-05,2.8929327746038575e-05,5.145014460696017e-06,616.3810148736319,616.3810124718831,616.3881820824225,616.4043599992058
0.32,-4.510399068742513e-08,3.9999999548874836,0.10377679192633538,0.00020229696215663722,-0.0002022392514077801,-3.064089925455693e-05,1.3664148369717613e-22,4.0,0.18005733274771926,6.596200203684136e-22,1.0792274595286959e-06,1.0796402118192575e-06,0.7931954960587243,0.0,0.0,0.0,3.1382162826501547,-2.650178597487776e-05,2.6494559750779186e-05,5.364450280917428e-06,615.3502258319929,615.3502238083271,615.3587390856494,615.3735800492357
0.324,-5.341744005647282e-08,3.9999999465720872,0.10703765030960347,0.0001973981296325671,-0.00019734255767487328,-3.4270343123885196e-05,1.3637261109735503e-22,4.0,0.18363847592056373,6.583220708367504e-22,9.05527318742965e-07,9.058892608780995e-07,0.8058175140224797,0.0,0.0,0.0,3.094408961232647,-2.375970040614331e-05,2.375410193362428e-05,5.497978287440039e-06,614.308169792507,614.3081682220248,614.3178639942636,614.3311922008471
0.328,-6.247792317228859e-08,3.9999999375094375,0.110347875625435,0.00018978572462828285,-0.00018973386785377534,-3.782331591054293e-05,1.3610205555473228e-22,4.0,0.18724203439020093,6.570159971049171e-22,6.941822684051983e-07,6.944720993773047e-07,0.8182798558222132,0.0,0.0,0.0,3.050226763336109,-2.0751274777085056e-05,2.074753403944065e-05,5.557684615209954e-06,613.2555146860243,613.2555136348723,613.2662488444091,613.2779097484815
0.332,-7.225580243467537e-08,3.9999999277291853,0.11370681582725775,0.00017953646028733106,-0.00017948990062209328,-4.1248521856626795e-05,1.3582984700462102e-22,4.0,0.19086760944496445,6.5570194368197e-22,4.4652724574861203e-07,4.467234661960312e-07,0.8305806022037288,0.0,0.0,0.0,3.0057007095140564,-1.751828898254622e-05,1.7516600985127674e-05,5.5543292376228974e-06,612.1929307096771,612.1929302345243,612.2045835141016,612.2144451841493
0.336,-8.271148838082787e-08,3.9999999172709395,0.11711381163078755,0.00016676361012610738,-0.00016672388786634218,-4.450465952349184e-05,1.3555601508261892e-22,4.0,0.19451480636513077,6.543800536301257e-22,1.6448074656484904e-07,1.6456222011590777e-07,0.8427178933927468,0.0,0.0,0.0,2.9608615596681935,-1.4104241307097645e-05,1.4104743847769725e-05,5.497480731085513e-06,611.1210877636188,611.1210879053268,611.133553656272,611.1415078889662
0.34,-9.379595252600681e-08,3.9999999061837546,0.12056819682883503,0.00015161435460006858,-0.000151582920931265,-4.755915396449869e-05,1.3528058912713787e-22,4.0,0.19818323438922597,6.530504685769729e-22,-1.4948571027497916e-07,-1.495389065814491e-07,0.8546899408083501,0.0,0.0,0.0,2.915739725455841,-1.0553826309380563e-05,1.0556613397811477e-05,5.395637048201881e-06,610.0406532682782,610.040654055581,610.0538389950176,610.0598021593379
0.34400000000000003,-1.0545142865306312e-07,3.9999998945254274,0.12406930722834894,0.0001342627954392403,-0.00013424096850137376,-5.038646513656817e-05,1.3500359818191402e-22,4.0,0.201872506680594,6.517133287275892e-22,-4.923962415868252e-07,-4.926021843327745e-07,0.8664958954015954,0.0,0.0,0.0,2.870347760784629,-6.908458593637049e-06,6.9135476632565465e-06,5.255678436624571e-06,608.9518726253191,608.9518740654607,608.9656933932574,608.969604742973
0.34800000000000003,-1.176123615444227e-07,3.999999882361549,0.12761651071612645,0.0001148927422104841,-0.00011488167499585488,-5.296812866715941e-05,1.3472507099849831e-22,4.0,0.20558224029422512,6.503687728765638e-22,-8.609255342269313e-07,-8.612999413231015e-07,0.8781388245703907,0.0,0.0,0.0,2.8246371954068255,-3.1946379835863045e-06,3.20201100905489e-06,5.084821642061276e-06,607.8535241583033,607.8535262485456,607.8679089628262,607.8697223579372
0.35200000000000004,-1.302055484717351e-07,3.999999869765363,0.13120911986583386,9.373606008510915e-05,-9.373668449058738e-05,-5.5291784325129864e-05,1.3444503603872766e-22,4.0,0.20931205614384207,6.490169384199271e-22,-1.2513480400625877e-06,-1.2519034910765177e-06,0.8896169397486405,0.0,0.0,0.0,2.77873596015995,5.243842299388918e-07,-5.148192678110309e-07,4.889439060357985e-06,606.7486293904643,606.7486321070553,606.7635080272543,606.7632128852403
0.35600000000000004,-1.4315137344706382e-07,3.9999998568165296,0.1348464344991933,7.1049308711367e-05,-7.106229530515281e-05,-5.734970839255113e-05,1.3416352147717686e-22,4.0,0.21306157896924244,6.47657961366987e-22,-1.6594630754449637e-06,-1.660208367523236e-06,0.9009244840446593,0.0,0.0,0.0,2.7326874285171656,4.196555925848245e-06,-4.184972963123952e-06,4.6744393212544795e-06,605.6381922922881,605.6381955880527,605.6534941677592,605.6511093804123
0.36000000000000004,-1.5636493123980186e-07,3.999999843600001,0.13852775749132604,4.710283245795656e-05,-4.712855957023927e-05,-5.9137578805373123e-05,1.3388055520359148e-22,4.0,0.21683043730389512,6.46291976352073e-22,-2.080619490539177e-06,-2.081558920101918e-06,0.912057421486893,0.0,0.0,0.0,2.686503360766505,7.781233196249983e-06,-7.7678517702802e-06,4.44347893367084e-06,604.5224612606436,604.5224650751624,604.5381148677291,604.5336825332531
0.36400000000000005,-1.697571467264831e-07,3.999999830204901,0.14225240518078547,2.2172159614867148e-05,-2.2210691456012845e-05,-6.0655563163744826e-05,1.335961648253018e-22,4.0,0.220618263442789,6.449191166461892e-22,-2.509984281850541e-06,-2.5111171853757328e-06,0.9230172268821674,0.0,0.0,0.0,2.640174349512813,1.1246029375632273e-05,-1.123112910607432e-05,4.201625057483368e-06,603.4011712917959,603.4011755471703,603.4171108436452,603.4106917179298
0.36800000000000005,-1.8323559356017674e-07,3.9999998167237045,0.14601966390949164,-3.444716618003708e-06,3.3936572363929607e-06,-6.19069491141856e-05,1.3331037766961788e-22,4.0,0.22442469341053226,6.4353951416857685e-22,-2.9425418163484086e-06,-2.943862329281216e-06,0.9338027288910016,0.0,0.0,0.0,2.5937788175151955,1.4540623181773288e-05,-1.4524573890443815e-05,3.952529282426555e-06,602.2761897925317,602.2761943846172,602.292345777186,602.2840296961848
0.37200000000000005,-1.9670578188412522e-07,3.999999803250949,0.149828815823514,-2.944339149410178e-05,2.938043726393953e-05,-6.289731063647922e-05,1.3302322078620605e-22,4.0,0.2282493669296998,6.421532994981857e-22,-3.373092242812427e-06,-3.374588933093841e-06,0.944410564451071,0.0,0.0,0.0,2.547343836721623,1.7625856964330547e-05,-1.7609044834955058e-05,3.6989974086364004e-06,601.1481502722706,601.1481550916487,601.1644500810029,601.1543498057865
0.37600000000000006,-2.1007227710788823e-07,3.999999789882115,0.1536791282870685,-5.551261924720064e-05,5.543876558971157e-05,-6.363557162697097e-05,1.3273472094944687e-22,4.0,0.23209192738942785,6.407606018850574e-22,-3.79629526522365e-06,-3.7979508351004475e-06,0.9548375284390962,0.0,0.0,0.0,2.5009181528815625,2.0371348841280124e-05,-2.035420974880667e-05,3.449562614570303e-06,600.0182104174451,600.018215339803,600.0345695525897,600.0228733523392
0.38000000000000006,-2.2323990816698047e-07,3.9999997767124165,0.15756986879919094,-8.134380392762298e-05,8.126040792380996e-05,-6.412922873635483e-05,1.3244490466077463e-22,4.0,0.23595202181425315,6.3936154926161875e-22,-4.206777812959372e-06,-4.20856901627823e-06,0.9650820628696126,0.0,0.0,0.0,2.454520764481156,2.2855284625853103e-05,-2.2838289123591636e-05,3.1985845752131857e-06,598.886831948046,598.8868368383858,598.903170703904,598.8900229046205
0.384,-2.361150064220451e-07,3.9999997638355573,0.16150033103444114,-0.00010664657495738117,0.00010655534240028354,-6.439019202447314e-05,1.3215379815099867e-22,4.0,0.23982930083319517,6.379562682538879e-22,-4.599317148817772e-06,-4.601215125046195e-06,0.9751456354551229,0.0,0.0,0.0,2.408117870333794,2.5064581797898072e-05,-2.504827050071527e-05,2.951509610371169e-06,597.7531715300823,597.753176232448,597.7694226536995,597.754975893669
0.388,-2.486062996013953e-07,3.9999997513428416,0.16546977462539647,-0.00013112940144090237,0.00013103237091627556,-6.442940419500093e-05,1.3186142738260658e-22,4.0,0.24372341864907995,6.365448841925928e-22,-4.968884902161491e-06,-4.970855363856533e-06,0.9850287301611965,0.0,0.0,0.0,2.361797101309251,2.696764049749064e-05,-2.695252473275539e-05,2.7076805153628173e-06,596.6193648726745,596.6193692386628,596.6354495286794,596.6198756203706
0.392,-2.606260615964384e-07,3.999999739322019,0.16947747983664058,-0.00015452093586214885,0.00015442045451139808,-6.425906239449248e-05,1.3156781805204942e-22,4.0,0.24763403300810274,6.351275211242022e-22,-5.310692088439369e-06,-5.312695530388897e-06,0.9947297491701661,0.0,0.0,0.0,2.3155362654595586,2.855366785801551e-05,-2.8540303524682118e-05,2.4689965393136184e-06,595.4848633022395,595.4848671697044,595.5007049258716,595.4841828815651
0.396,-2.7209102749868664e-07,3.999999727856369,0.17352273219262643,-0.0001765669107877997,0.0001764656037193807,-6.38910374167859e-05,1.3127299559200907e-22,4.0,0.251560805169629,6.337043018218718e-22,-5.6202489992263615e-06,-5.622241421170749e-06,1.004250707161052,0.0,0.0,0.0,2.2693437643017464,2.981119815276213e-05,-2.9800152468919993e-05,2.23556267510545e-06,594.3498693753934,594.3498725779752,594.3653879558327,594.3481044615661
0.4,-2.829232653205028e-07,3.9999997170238295,0.17760483319157477,-0.00019703481451168706,0.00019693554970622935,-6.333865943149355e-05,1.309769851736479e-22,4.0,0.2555033998762308,6.322753477963039e-22,-5.893479080237008e-06,-5.895412420731927e-06,1.013594360762332,0.0,0.0,0.0,2.223206140329793,3.073493676076023e-05,-3.07267439483467e-05,2.0095573565189746e-06,593.2140451870199,593.2140475669894,593.2291654361545,593.2113113240357
0.404,-2.9305104136797124e-07,3.99999970689613,0.18172304383864782,-0.00021570540355343972,0.00021561123557387827,-6.26167730286343e-05,1.306798117088408e-22,4.0,0.2594614853239578,6.308407793065221e-22,-6.1266913837778015e-06,-6.128514409240993e-06,1.0227588566700987,0.0,0.0,0.0,2.177224079324585,3.1310214366805194e-05,-3.13054109702693e-05,1.7932841754564675e-06,592.0798689968242,592.0798703948589,592.0945179722538,592.0762937857872
0.40800000000000003,-3.0240951973432375e-07,3.9999996975380903,0.18587661875401032,-0.00023238107058545654,0.00023229518834035938,-6.173806710473108e-05,1.3038149985238985e-22,4.0,0.26343473313284044,6.294007153705625e-22,-6.316578780648092e-06,-6.318238027483078e-06,1.031739687652494,0.0,0.0,0.0,2.1314303869103006,3.153405541984778e-05,-3.153313556621734e-05,1.5848226737507147e-06,590.9481649943397,590.9481652625769,590.9622625100044,590.9438717244
0.41200000000000003,-3.109413345157243e-07,3.9999996890070495,0.19006483700955765,-0.00024689156366974934,0.00024681724460577653,-6.071582769496895e-05,1.3008207400422165e-22,4.0,0.2674228183176237,6.279552737760813e-22,-6.460279320969973e-06,-6.461720191071434e-06,1.0405364070228589,0.0,0.0,0.0,2.0857955400331107,3.1412293648340944e-05,-3.141572114902239e-05,1.3853805026402632e-06,589.8182136222441,589.8182126208405,589.831684500557,589.8133283427926
0.41600000000000004,-3.185971848900589e-07,3.99999968135227,0.1942869780079404,-0.0002590925211092863,0.00025903307246737155,-5.956318077824294e-05,1.2978155831156731e-22,4.0,0.27142541925873015,6.265045710908777e-22,-6.555464041518783e-06,-6.556631707326755e-06,1.0491522171871603,0.0,0.0,0.0,2.0403382409413755,3.094994312085961e-05,-3.095813633950501e-05,1.1953062378996787e-06,588.6904889647749,588.6904865663987,588.703260140364,588.6851380888927
0.42000000000000004,-3.253362751045043e-07,3.999999674614498,0.19854232190661186,-0.0002688667020454111,0.00026882539951835865,-5.829299845583331e-05,1.2947997667112562e-22,4.0,0.27544221767345,6.250487226733374e-22,-6.600355421901713e-06,-6.601195847195178e-06,1.0575879377780582,0.0,0.0,0.0,1.9950763711467958,3.0156319287900512e-05,-3.0169635540885363e-05,1.0148332011001674e-06,587.5654484756515,587.5654445701612,587.5774499186854,587.5597571659628
0.42400000000000004,-3.311266360671651e-07,3.999999668825641,0.20283015319763528,-0.0002761249002591357,0.0002761049161432158,-5.830128552418767e-05,1.2917735273120907e-22,4.0,0.27947289858735697,6.235878426827913e-22,-6.593734267710288e-06,-6.594195492196666e-06,1.0658441005947583,0.0,0.0,0.0,1.9500205727897537,2.9044447718972155e-05,-2.906317500489492e-05,2.460199459139001e-06,586.4408541098469,586.4408486068356,586.4570568267967,586.4399821300766
0.42800000000000005,-3.359452916206243e-07,3.9999996640086026,0.20714977249458955,-0.0002808055802295167,0.00028080995200362245,-5.925068301474805e-05,1.2887370989387317e-22,4.0,0.28351715030594793,6.221220440897953e-22,-6.53495221130946e-06,-6.5349855845125425e-06,1.073922793556781,0.0,0.0,0.0,1.9051574776192362,2.7630190045737426e-05,-2.7654583287820967e-05,3.5639757411783594e-06,585.3194465071026,585.3194393254175,585.3387107663342,585.3224345254221
0.43200000000000005,-3.3977842829441473e-07,3.9999996601771137,0.2115004853907449,-0.000282873702512265,0.000282905266471405,-6.0620372188512356e-05,1.2856907131702914e-22,4.0,0.28757466438650475,6.206514386863279e-22,-6.42391924066082e-06,-6.423480208586693e-06,1.0818265089776167,0.0,0.0,0.0,1.8604958649727865,2.592957459742259e-05,-2.5959797977849614e-05,4.098064681918611e-06,584.2018205912151,584.2018116760393,584.2222911125624,584.2069853218898
0.43600000000000005,-3.4262164722642427e-07,3.9999996573354806,0.21588157254788481,-0.0002823269954906375,0.0002823883014545251,-6.227770811234243e-05,1.2826345991653983e-22,4.0,0.291645135610177,6.191761370959094e-22,-6.261128602190424e-06,-6.2601778928767795e-06,1.0895540780155373,0.0,0.0,0.0,1.8161051092166165,2.396647696952412e-05,-2.400259151483683e-05,4.49455751696916e-06,583.0890605499378,583.0890498766789,583.110232878303,583.0960564872066
0.44000000000000006,-3.4447972237889967e-07,3.999999655478828,0.2202923160560606,-0.00027919194603388104,0.00027928519744988413,-6.411494224231225e-05,1.2795689836829937e-22,4.0,0.29572826195428326,6.176962487836405e-22,-6.047674833138527e-06,-6.046179786448364e-06,1.0971028896321724,0.0,0.0,0.0,1.7720019301535976,2.1767729230182773e-05,-2.1809704740153893e-05,4.77711041952236e-06,581.9815772169737,581.9815647879639,582.0030262141562,581.990123204881
0.44400000000000006,-3.4536640752004966e-07,3.9999996545932928,0.22473200176136834,-0.0002735228646380006,0.00027364986391599185,-6.604177563525099e-05,1.2764940911029656e-22,4.0,0.29982374456482985,6.162118820661626e-22,-5.7852441125985194e-06,-5.7831799503910364e-06,1.1044724605869185,0.0,0.0,0.0,1.7281983255731928,1.9360529506901634e-05,-1.940825170443715e-05,4.961695339882641e-06,580.8796776479325,580.879663490515,580.9010340523328,580.8895330926132
0.44800000000000006,-3.4530411139885255e-07,3.999999654656351,0.2291999256290633,-0.00026539888616100495,0.00026556098969347764,-6.798390446550908e-05,1.273410143446618e-22,4.0,0.30393128772924555,6.1472314412154e-22,-5.476063784928831e-06,-5.473414650551045e-06,1.1116643634490069,0.0,0.0,0.0,1.684693306821519,1.677207999559485e-05,-1.682533574749386e-05,5.063295394643661e-06,579.7833451117409,579.7833292828468,579.8042928800598,579.7943071925464
0.45200000000000007,-3.4432340989690416e-07,3.999999655637309,0.23369540981258785,-0.0002549173009624907,0.0002551153926397088,-6.987984159341552e-05,1.2703173603969827e-22,4.0,0.30805059884933,6.132301409990646e-22,-5.122820676658076e-06,-5.119580056716674e-06,1.1186824181660238,0.0,0.0,0.0,1.6414529971813192,1.402557067829228e-05,-1.4084064762506838e-05,5.093832413363821e-06,578.6917364158718,578.6917189972235,578.7120023102123,578.7036319210692
0.45600000000000007,-3.4246283578794485e-07,3.9999996574975114,0.23821777702993313,-0.0002422000223035146,0.00024243447242704375,-7.167924025812029e-05,1.2672159593189687e-22,4.0,0.3121813884144149,6.117329776289829e-22,-4.728620775904223e-06,-4.724792244907803e-06,1.1255301195339285,0.0,0.0,0.0,1.5984947350428087,1.1150042793819815e-05,-1.1213417562244075e-05,5.06379203552504e-06,577.6053006707172,577.6052817631781,577.624651750511,577.6179799112142
0.4600000000000001,-3.397685497427077e-07,3.9999996601906744,0.2427663312796761,-0.00022739987213196217,0.0002276704894214574,-7.334194383051289e-05,1.2641061552793553e-22,4.0,0.3163233699747358,6.1023175783214755e-22,-4.297027149495285e-06,-4.2926249760984694e-06,1.132206683029563,0.0,0.0,0.0,1.5558750238528107,8.185125120196478e-06,-8.252890277163068e-06,4.983003806692383e-06,576.5254846071366,576.525464351881,576.5437296014079,576.5388163525163
0.4640000000000001,-3.3629381058601043e-07,3.9999996636634183,0.2473403506253885,-0.00021070207648895956,0.00021100806201934853,-7.48365102912176e-05,1.2609881610666273e-22,4.0,0.3204762601150138,6.087265843295923e-22,-3.832185561514039e-06,-3.827235308422676e-06,1.1387075754642144,0.0,0.0,0.0,1.5136656535627624,5.176868076939857e-06,-5.248422007339931e-06,4.85998926554446e-06,575.4541361275058,575.4541146999533,575.4711235283005,575.4680016528356
0.4680000000000001,-3.320978492026908e-07,3.9999996678563927,0.2519391396471379,-0.00019230161573800296,0.00019264156306983188,-7.613921426622038e-05,1.2578621872106534e-22,4.0,0.3246397784282443,6.072175587520318e-22,-3.338706643762447e-06,-3.333245770876354e-06,1.145031230505387,0.0,0.0,0.0,1.4718328350044785,2.1544619701722825e-06,-2.2291605719209925e-06,4.702459825416019e-06,574.3904301629636,574.3904077522819,574.4060409882708,574.404725871141
0.4720000000000001,-3.272453194960096e-07,3.9999996727048295,0.25656200872242907,-0.0001724092849837739,0.00017278117537475375,-7.723288737111883e-05,1.2547284420022118e-22,4.0,0.32881364748969266,6.057047816492869e-22,-2.821496810597006e-06,-2.8155747359464955e-06,1.151180729773556,0.0,0.0,0.0,1.4303840281555553,-8.508836231769225e-07,7.737715349071524e-07,4.5170874522965294e-06,573.3345888612922,573.3345656839244,573.3487341667582,573.3492224726174
0.4760000000000001,-3.2180562009790503e-07,3.999999678139224,0.2612082624617996,-0.00015125424414590553,0.00015165544668868045,-7.810695182611559e-05,1.2515871315123593e-22,4.0,0.332997592831094,6.041883524996357e-22,-2.2856924315798666e-06,-2.2793701897974945e-06,1.157157028579566,0.0,0.0,0.0,1.389350022686791,-3.801888688644905e-06,3.723179063711639e-06,4.310851432317474e-06,572.2874312899773,572.2874075891544,572.3000551974392,572.302321070372
0.4800000000000001,-3.158520244022511e-07,3.9999996840862053,0.26587720698469547,-0.0001290782251514494,0.0001295055084969982,-7.875400357481335e-05,1.2484384596116508e-22,4.0,0.33719134291505654,6.026683697190902e-22,-1.7366982534356686e-06,-1.7300482395787447e-06,1.1629599922625655,0.0,0.0,0.0,1.348747069584265,-6.663962065282517e-06,6.584495668573672e-06,4.087009487017129e-06,571.2494159655109,571.2493919933302,571.2604832081754,571.264479704401
0.4840000000000001,-3.0946064721202265e-07,3.999999690469572,0.2705681754119661,-0.00010612167246124363,0.00010657123571776273,-7.91712736701476e-05,1.2452826279892046e-22,4.0,0.3413946291096666,6.011449306706014e-22,-1.1800389790997703e-06,-1.173144481236142e-06,1.168591803051576,0.0,0.0,0.0,1.308539677876949,-9.415056521968367e-06,9.335738090460764e-06,3.85065627418695e-06,570.2196745347952,570.2196505640403,570.2291727361265,570.2348392749894
0.488,-3.0270977277065965e-07,3.9999996972109653,0.27528050603644666,-8.263054151818763e-05,8.30980466642706e-05,-7.935943266209071e-05,1.2421198361716203e-22,4.0,0.3456071856632933,5.996181316731904e-22,-6.212314352965706e-07,-6.14185716852662e-07,1.1740565853427154,0.0,0.0,0.0,1.2687358420730783,-1.2028578613514734e-05,1.1950313963205785e-05,3.6056799265907393e-06,569.1984510331187,569.1984273383905,569.2063883513435,569.2136478456946
0.492,-2.956790127517912e-07,3.9999997042307154,0.2800135425438699,-5.8853463439809e-05,5.9334076703363806e-05,-7.932201754548257e-05,1.2389502815417448e-22,4.0,0.3498287496795927,5.98088068011008e-22,-6.575661859593615e-08,-5.86620430297882e-08,1.1793562842213052,0.0,0.0,0.0,1.2293429861353071,-1.4478128577253283e-05,1.4401889823856156e-05,3.3554404450714296e-06,568.1859770309402,568.1859539084254,568.1923805518435,568.2011394302483
0.496,-2.88448467017479e-07,3.999999711448679,0.2847666341787036,-3.503899572947189e-05,3.5527437295413924e-05,-7.906493298478521e-05,1.2357741593572922e-22,4.0,0.35405906109270807,5.965548339423234e-22,4.809503123805784e-07,4.87983562682447e-07,1.1844922571021106,0.0,0.0,0.0,1.190368067802739,-1.6739620409206123e-05,1.6666341692478226e-05,3.1028331344933678e-06,567.182474099464,567.1824518353793,567.187387771853,567.19753724077
0.5,-2.8109786571951794e-07,3.9999997187851006,0.2895391433276405,-1.1430314391723346e-05,1.1920912825545167e-05,-7.859441832634802e-05,1.2325916627693161e-22,4.0,0.3582978626426667,5.950185227084411e-22,1.0135725690183216e-06,1.0204276717506176e-06,1.1894666458529213,0.0,0.0,0.0,1.1518025186561436,-1.8794028598695904e-05,1.8724673148675848e-05,2.8484760849277357e-06,566.1877676499685,566.1877465408595,566.1912435145937,566.2026625668097
0.504,-2.7370567350879e-07,3.9999997261615077,0.2943304713341862,1.174641634331843e-05,-1.1259673742611338e-05,-7.791976039242376e-05,1.229402982840536e-22,4.0,0.3625448998509707,5.934792265425479e-22,1.5270661616391953e-06,1.5336208582107211e-06,1.1942849403332456,0.0,0.0,0.0,1.1135850016221152,-2.0635019453043263e-05,2.057052079883376e-05,2.596170537533933e-06,565.2003111326901,565.2002914675044,565.2024158027621,565.2149788953693
0.508,-2.663486465166398e-07,3.999999733501157,0.29913998276250986,3.4257874465538434e-05,-3.378125062334916e-05,-7.705252695904382e-05,1.2262083085635193e-22,4.0,0.3667999209963804,5.919370366784899e-22,2.0166402302505933e-06,2.0227685304563343e-06,1.1989483886281658,0.0,0.0,0.0,1.0758066863989748,-2.2233500579024055e-05,2.2174775912987884e-05,2.3489481019294107e-06,564.2225004504304,564.2224825146639,564.2233196456277,564.236882698391
0.512,-2.591009400829237e-07,3.9999997407299266,0.3039670419757341,5.587869505275428e-05,-5.541862376773566e-05,-7.600443847298745e-05,1.2230078268787183e-22,4.0,0.37106267709088936,5.903920433594802e-22,2.477699645804846e-06,2.4832736264987926e-06,1.2034547589690332,0.0,0.0,0.0,1.0384857195870998,-2.357181363959313e-05,2.3519715061941302e-05,2.1074486874918886e-06,563.2548559032733,563.2548399639196,563.2544833358339,563.2688906279536
0.516,-2.520333675915009e-07,3.9999997477770566,0.3088110209016077,7.639635193089541e-05,-7.59593573684121e-05,-7.478784741910154e-05,1.2198017226923673e-22,4.0,0.3753329218558889,5.888443358467376e-22,2.9058544330788734e-06,2.9107459493684268e-06,1.2078026865548122,0.0,0.0,0.0,1.0016245339397567,-2.4639364554991682e-05,2.4594683659211123e-05,1.872879267824622e-06,562.2974912854426,562.2974775922249,562.2960283872592,562.3111168324077
0.52,-2.452127402181715e-07,3.9999997545758106,0.3136712989457049,9.561319941323456e-05,-9.520581207566848e-05,-7.341553075009278e-05,1.2165901788942355e-22,4.0,0.37961041169852167,5.872940024280574e-22,3.297090556765269e-06,3.3011733507446643e-06,1.211994061013217,0.0,0.0,0.0,0.9652255371325731,-2.5428943909167324e-05,2.5392413967000805e-05,1.646231157588104e-06,561.3505203043794,561.3505090902739,561.348074528449,561.3636757202793
0.524,-2.387012624480399e-07,3.9999997610640796,0.3185472629410029,0.00011334835469713692,-0.00011297702517784473,-7.190050485777256e-05,1.213373376375241e-22,4.0,0.38389490568822165,5.85741130426314e-22,3.6478198561996385e-06,3.6509712822040914e-06,1.2160307495747893,0.0,0.0,0.0,0.9292910403058321,-2.5936481586875505e-05,2.5908752720857907e-05,1.4282978506141745e-06,560.4140546696178,560.414046143077,560.410737909254,560.426680026575
0.528,-2.3255598882082018e-07,3.999999767184925,0.3234383071135777,0.00012943937313313547,-0.0001291103847482128,-7.025586713417216e-05,1.2101514940449252e-22,4.0,0.3881861655334405,5.841858062078962e-22,3.954916337241543e-06,3.957019238627385e-06,1.2199146074364187,0.0,0.0,0.0,0.8938232265712849,-2.6161028626083707e-05,2.614265981722683e-05,1.2196984999189201e-06,559.4882031909868,559.4881975332879,559.4841302668609,559.5002399899781
0.532,-2.268283463263551e-07,3.9999997728870547,0.3283438330612468,0.00014374369910261095,-0.0001434630806127588,-6.84946611766307e-05,1.2069247088487875e-22,4.0,0.3924839555585575,5.826281151910759e-22,4.215747060658114e-06,4.216691664761084e-06,1.2236474819307324,0.0,0.0,0.0,0.8588241254411295,-2.6104710178044464e-05,2.609616745589478e-05,1.0208990372462774e-06,558.5730710288292,558.5730683933108,558.568358246135,558.5844626628028
0.536,-2.2156373975923194e-07,3.9999997781252183,0.33326325472129037,0.00015613983959481787,-0.00015591328773171444,-6.662897496512246e-05,1.2036931957854848e-22,4.0,0.39678804268097295,5.810681418543105e-22,4.428197021869374e-06,4.427882656394778e-06,1.2272317134921416,0.0,0.0,0.0,0.8242854877097576,-2.5772782637644457e-05,2.5774428041470433e-05,8.313106244851152e-07,557.6684956375759,557.6684961460236,557.663256355486,557.6791849230357
0.54,-2.168012388741239e-07,3.9999997828605176,0.33819600613851164,0.00016652826560074977,-0.00016636108327376464,-6.467163940931332e-05,1.2004571279238936e-22,4.0,0.40109819638838295,5.795059697444796e-22,4.590687380826926e-06,4.589024029229948e-06,1.230670915209188,0.0,0.0,0.0,0.7901829433541436,-2.5173431868756005e-05,2.51855465878354e-05,6.522901982532255e-07,556.7738862371751,556.7738899867695,556.7682363129062,556.7838227254393
