Time_s,X,Y,Z,Roll_deg,Pitch_deg,Yaw_deg,Ref_X,Ref_Y,Ref_Z,Ref_Yaw,vx,vy,vz,p,q,r,T_pert,tau_x,tau_y,tau_z,RPM_0,RPM_1,RPM_2,RPM_3
0.0040000000000000036,-6.51783449945208e-23,4.0,0.010006999594037988,-3.861262043247411e-18,-1.3963409037126566e-18,6.720055526330817e-20,1.7299786806106596e-06,0.00014140997861623788,7.200000000000012e-05,0.0,5.628567488317738e-19,800.0,2.0013999188075973,0.0,0.0,0.0,-10.19,1.0,0.02015933994626746,-7.850087496102184e-20,0.0,405.8159775546229,397.1632752027097,0.0
0.008000000000000007,2.266138898402832e-15,3.9999999999998948,0.010010999365572752,2.753621058617219e-10,5.933774366759276e-12,-2.1463845234482816e-11,5.1691140184321494e-06,0.0004225279253460886,0.00021513340800000038,0.0,2.5177051799329437e-13,444.44444444443275,1.1123332628414166,0.0,0.0,0.0,-0.03433847629815168,1.0,0.021379867862558653,2.5073165384161487e-11,331.4749522949112,679.628890804713,674.1860518005908,342.40946388237114
0.01200000000000001,4.5004783623695496e-14,3.9999999999976428,0.010014999140559245,5.4366288654349455e-09,1.0388367459070402e-10,-1.302393218025081e-11,1.0296772324705777e-05,0.0008416672243261066,0.00042854147030131276,0.0,4.499979655271747e-12,-2.356972610872852e-10,0.0009999432198527086,0.0,0.0,0.0,0.11268126187465838,1.0,0.022614502753413764,-8.976280035242754e-12,337.5832070745056,682.9404990909188,677.2101668003713,348.9362934890044
0.016000000000000014,2.062298547287902e-13,3.9999999999889084,0.0100189989287832,2.5453797167698318e-08,4.733846323112459e-10,1.2875446083291003e-12,1.7092506728111093e-05,0.0013971565303145263,0.0007113732083620786,0.0,2.0619983126108007e-11,-1.108997023862846e-09,0.0009999449067942677,0.0,0.0,0.0,0.26021499046045254,1.0,0.023863279072385224,-1.6180855693772037e-11,343.6012134369257,686.2488540737185,680.2300950179048,355.3678394374549
0.020000000000000018,5.463168385450596e-13,3.9999999999716946,0.010022998736944134,6.490368472079696e-08,1.252807001798193e-09,1.0806416573975464e-11,2.6655572590094813e-05,0.002087387512635777,0.0010627853561306145,0.0,5.32116805331404e-11,-2.764592286862631e-09,0.0009999484870400915,0.0,0.0,0.0,0.40825151784656905,1.0,0.0381718970053828,-1.117010058502985e-11,346.302360986812,691.1819610214701,681.5984987777616,364.8031179263086
0.02400000000000002,1.118278406935543e-12,3.9999999999454743,0.010026998567738608,1.2499652517565053e-07,2.5636469469369206e-09,2.4818420201461406e-11,3.895241766278297e-05,0.0029107184228585018,0.0014819422978531074,0.0,1.0119396473733065e-10,-4.87718589775105e-09,0.0009999535265191734,0.0,0.0,0.0,0.5567797706481601,1.0,0.04023889846056458,-1.6810418808760444e-11,352.01247243794006,694.5735045883696,684.5173255968836,371.1888533655359
0.027999999999999997,2.027625479464741e-12,3.9999999999104983,0.010030998421503167,2.0515624865472342e-07,4.6477176679195625e-09,3.74019655173417e-11,5.394979390922437e-05,0.0038655224219351064,0.001968016006352204,0.0,1.6758608493662687e-10,-7.089746744784817e-09,0.000999959137375061,0.0,0.0,0.0,0.705788787546259,1.0,0.04232927405929198,-1.5718864230552173e-11,357.64545022692147,697.9615254629146,687.4310557157322,377.4905331490589
0.032,4.241418371065574e-12,3.9999997628172363,0.010035709449638703,0.0005435830181027167,9.780288562630005e-09,6.253769785147562e-11,7.161475504978932e-05,0.0049501874598553925,0.002520185981773086,0.0,3.446521885392343e-10,-2.3712510152087227e-05,0.0010710802023696842,0.0009482822293791004,5.472663373779687e-09,3.21462432781568e-11,0.8538244240498485,1.0,0.04444306879808154,-3.0901135557106356e-11,363.14632526562787,701.3157622505618,690.3089466266935,383.6568908754611
0.036000000000000004,7.48395650411872e-12,3.9999967357777466,0.010048788769436177,0.007479978952595822,1.729905995137706e-08,9.372963454104662e-11,9.191465412714718e-05,0.0061631161562118635,0.003137639190793574,0.0,5.950650727147331e-10,-0.00032630526986462006,0.0019790545444919715,0.013054575349661224,1.8595396882481507e-08,8.582840890638155e-11,0.9867563168423237,1.0,0.04658036651754813,-3.9012259921346344e-11,367.9598966868847,704.3434195020609,692.8532844542893,389.16380111894097
0.04000000000000001,1.1457112317857583e-11,3.999987470489249,0.010080559738901089,0.028697506297215552,2.6452810558052832e-08,1.202876674092276e-10,0.00011481714108968965,0.007502725681670217,0.0038195700062949476,0.0,8.542985802768325e-10,-0.001251682613420393,0.004756502511461333,0.05008613979154156,3.457171571261417e-08,1.2744629433892e-10,1.0989185300171298,1.0,0.04874121087117172,-3.4886512357344175e-11,371.89011606070034,706.9315122584325,694.9485208617955,393.828610622138
0.04400000000000001,1.6139381659507235e-11,3.999968898838764,0.010140130666573863,0.07116175252905378,3.715945157192816e-08,1.4411147210054955e-10,0.00014029016039326386,0.008967447640338314,0.004565180147490079,0.0,1.031951352359595e-09,-0.0029853947008479384,0.009962238959768745,0.11949128768905451,4.1589450688844615e-08,9.255508287002185e-11,1.1924373441337142,1.0,0.05092565427224913,-3.2791457439401545e-11,375.04765748214174,709.1287055233795,696.6433331446281,397.7591388334054
0.048000000000000015,2.1485748270104112e-11,3.9999383126779873,0.010235372802305244,0.1409053172301716,4.928293847632188e-08,1.741907467045759e-10,0.0001683019486210825,0.010555727953027123,0.005373678620505558,0.0,1.1988475910328645e-09,-0.00545140509286184,0.017371459183804172,0.2182688373281331,4.818905249207348e-08,5.908390072886859e-11,1.2695225157113632,1.0,0.05313375657532035,-4.108717843738933e-11,377.53749435619045,710.984078824504,697.9869252689756,401.0575667405237
0.05200000000000002,2.752429179003292e-11,3.999893282085168,0.010373069683833204,0.24314944084053752,6.282739259568032e-08,2.1833057473473686e-10,0.00019882122373945653,0.01226602501139091,0.006244281659414513,0.0,1.3575266340690983e-09,-0.008552115203302828,0.026695304365076455,0.3425625797696096,5.446165995581662e-08,2.324920565074561e-11,1.3321202134393835,1.0,0.05536780586049145,-5.875944084971865e-11,379.44725836738496,712.5405183711828,699.0217521791487,403.81035369832864
0.05600000000000002,3.427700632823787e-11,3.9998315826627118,0.010559036658210274,0.3824032191515204,7.774451057489174e-08,2.796710485634732e-10,0.000231816797211795,0.014096813043787473,0.007176212667716822,0.0,1.5129921648450393e-09,-0.012199653023342505,0.03767429551933303,0.48890763024728834,6.056146088267947e-08,-3.046394012671639e-11,1.3819687912763474,1.0,0.057623528758479425,-8.068028080671832e-11,380.8533917454291,713.8350734024843,699.7860344855004,406.0902896803715
0.06,4.172972196172444e-11,3.9997511543851,0.010798152008116346,0.5624952098395027,9.392322310463025e-08,3.75668546822502e-10,0.0002672577656172051,0.01604658025015924,0.008168702160263459,0.0,1.6632789463742475e-09,-0.01631518726444344,0.05007595794007001,0.6541994318901261,6.641020937152963e-08,-1.0196970460599062e-10,1.4207743805623865,1.0,0.0599030812349516,-1.237035276204935e-10,381.8263161175284,714.9043237841987,700.3160169377423,407.96691454236446
0.064,4.994806561014038e-11,3.9996500231196452,0.011094508020520373,0.7866965325936034,1.113801046087948e-07,5.141524061906548e-10,0.0003051135083416279,0.018113828688799103,0.009220987705621773,0.0,1.8090334876558367e-09,-0.02082826279560241,0.06369264317497446,0.8356646914106044,7.200207154138567e-08,-2.018662934741612e-10,1.4499664756174144,1.0,0.06220651799026033,-1.7730250856474148e-10,382.4239878554367,715.7784889110076,700.6420585370043,409.4968329397118
0.068,5.896652423395966e-11,3.9995262525217234,0.011451482662793184,1.0577830947187132,1.3006647559022698e-07,7.12511178601874e-10,0.00034535368528649683,0.020297074163976043,0.010332313868878385,0.0,1.954299947050237e-09,-0.025677489862211855,0.07834349590251957,1.0308879136830602,7.749699904235593e-08,-3.3082035799342874e-10,1.470854248607484,1.0,0.06453389639584092,-2.5296836252077423e-10,382.6981771672033,716.4850083852406,700.791753828624,410.7305417960905
0.07200000000000001,6.88342416707128e-11,3.9993778946814396,0.011871825992690774,1.378108987925626,1.4993439580044174e-07,9.845344786236139e-10,0.00038794823459479665,0.022594846114414507,0.011501932154876639,0.0,2.097503774012126e-09,-0.030810427915731835,0.0938740784814733,1.2378064556639365,8.279223859195465e-08,-5.01947261702977e-10,1.4845943639329358,1.0,0.06688527192370328,-3.4721517150072686e-10,382.6937643707054,717.0479719599368,700.7893437908248,411.7117978278316
0.07600000000000001,7.959477376450412e-11,3.9992029515734355,0.012357725575206788,1.7496637529067318,1.7092423921480268e-07,1.350943046422183e-09,0.000432867370394391,0.025005687502621145,0.012729100951885338,0.0,2.2390544810421944e-09,-0.03618154811764165,0.11015024392901662,1.4546288684701885,8.789648546391818e-08,-7.176959181257865e-10,1.4922308311196502,1.0,0.06926070069790904,-4.687109749246871e-10,382.45064510329905,717.4890013745453,700.6566081743056,412.47942618759566
0.08000000000000002,9.131174756538733e-11,3.9989993379054853,0.012910876554099998,2.174133508359848,1.9300295498918113e-07,1.8329715722410206e-09,0.00048008158055849563,0.02752815470505276,0.014013085475695665,0.0,2.3775967870205663e-09,-0.04175222085752677,0.12705814116039288,1.6798347472638828,9.27621468662487e-08,-9.756730495868654e-10,1.4946834740421662,1.0,0.07166023818592795,-6.189135973581415e-10,382.0035616443127,717.8270653222777,700.4126692159604,413.0671919853873
0.08400000000000002,1.0406355229200313e-10,3.998764851716823,0.013532536675001285,2.652950931644356,2.161627947934615e-07,2.456397156371719e-09,0.0005295616244831705,0.030160817403119364,0.015353157714143143,0.0,2.5170146205553373e-09,-0.047490023105263214,0.14450218868017875,1.9121478113263979,9.752792572226442e-08,-1.2815062239175968e-09,1.492776239244996,1.0,0.0740839400986148,-8.040093285375651e-10,381.383375637022,718.0790942207979,700.074613612655,413.5050111737376
0.08800000000000002,1.1792655649810692e-10,3.9984971504462323,0.014223571607294842,3.187338355833508,2.4036981209342295e-07,3.2450276142053343e-09,0.000583054818225798,0.03290729457326466,0.016748596372051543,0.0,2.657895195208347e-09,-0.05336796832363615,0.16240281970390713,2.1505057235147396,1.0219619785327441e-07,-1.6421242572500123e-09,1.487255131551986,1.0,0.09723083432827628,-1.0227660943610144e-09,375.90293241369125,720.739152221379,697.1041523403123,418.1073228895884
0.09200000000000003,1.3296841443567477e-10,3.9981937320133065,0.014984490824657117,3.7783443062907422,2.655622314230991e-07,4.223624454977548e-09,0.0006405110782335882,0.03576612156864559,0.018198686816595647,0.0,2.7995753891476296e-09,-0.059363663480867954,0.1806940039091874,2.394026982631144,1.0671511896969116e-07,-2.06571813260389e-09,1.4788059313236348,1.0,0.10095623178611979,-1.277287119035038e-09,374.7184810707194,721.0130468059895,696.4661684090402,418.5792883589578
0.096,1.4945107366201666e-10,3.9978519188639674,0.01581547839821,4.426876979317945,2.922686515529496e-07,5.515855872229138e-09,0.0007018807792859981,0.03873584727358745,0.019702721023079815,0.0,2.9574308258295993e-09,-0.06545872704612674,0.19932155574234595,2.641988298037363,1.1199343881118079e-07,-2.457029859164215e-09,1.4680633761271635,1.0,0.10472044258080143,-1.6841410993330214e-09,373.43153182364944,721.2449807743969,695.7745979519618,418.97867222990027
0.1,1.680320663267005e-10,3.9974688478838507,0.016716410876512655,5.133728635753707,3.2142471283427316e-07,7.14362154210536e-09,0.0007671147507812556,0.041815033993450185,0.02125999752112935,0.0,3.1891181789680914e-09,-0.07163812087684636,0.21824117086427114,2.8937983564081327,1.1979663213446517e-07,-3.00192170492869e-09,1.4556363870081928,1.0,0.10852355456418358,-2.1295464241073973e-09,372.0649320067739,721.4473466759831,695.0420808814107,419.32693437076716
0.10400000000000001,1.8873126630017748e-10,3.9970414601070026,0.017686876758065823,5.899602327821942,3.527848892188409e-07,9.16270318085639e-09,0.000836164273051072,0.045002257345332815,0.022869821341291532,0.0,3.4866310272049383e-09,-0.07788976857470664,0.23741732938160115,3.1489831360831855,1.296714140782864e-07,-3.744580773133362e-09,1.4421042668464572,1.0,0.11236567147599846,-2.654005369847248e-09,370.64063154824606,721.6319202408785,694.2806755224693,419.64440929935466
0.10800000000000001,2.1160642128027878e-10,3.9965664946908337,0.01872618594736272,6.725131973105575,3.8616968091611693e-07,1.1630470789016152e-08,0.000908981073703351,0.04829610614961043,0.02453150396204348,0.0,3.784669201286996e-09,-0.08420415698518127,0.25682213939938137,3.4071704370732308,1.391774826168686e-07,-4.621476953342416e-09,1.4280364084603012,1.0,0.11624687648335306,-3.261691199532136e-09,369.1804960857976,721.810259808097,693.5022819847445,419.9510101051529
0.11200000000000002,2.3671717356345204e-10,3.996040484699557,0.019833375110985704,7.610900453847531,4.2140241762795776e-07,1.460670467969881e-08,0.0009855173239926797,0.05169518232229732,0.026244363257203772,0.0,4.067994863618293e-09,-0.09057402406141395,0.2764344373990188,3.6680778383594848,1.4791417205031855e-07,-5.5614124539202985e-09,1.4140003143569655,1.0,0.12016726039990765,-3.957806660424482e-09,367.7066455656457,721.993874380422,692.7188109732492,420.26652474604543
0.11600000000000002,2.6410883152020095e-10,3.99545975359888,0.02100721086034079,8.55745738467204,4.5829289163982287e-07,1.8156861802460506e-08,0.0010657256352184028,0.055198100768230375,0.02800772344374488,0.0,4.335327205976856e-09,-0.0969940804594455,0.29623898692069156,3.9315019697328224,1.5589321362047057e-07,-6.542844226772804e-09,1.4005658371181642,1.0,0.1241269137030919,-4.751473231204509e-09,366.24164538252023,722.1943086722663,691.9422763454218,420.61076276816107
0.12000000000000002,2.9386275492309844e-10,3.9948204157713088,0.02224618380533299,9.565331021851291,4.967226916214456e-07,2.235302224642542e-08,0.0011495590551500797,0.05880348927506658,0.02982091503000352,0.0,4.588246529570304e-09,-0.10346070967366598,0.3162256023098631,4.1973067978276735,1.632114168568174e-07,-7.554415325709137e-09,1.388323605764156,1.0,0.12812592585289573,-5.6531557265907434e-09,364.80925546672563,722.4235141729312,691.1851854311036,421.0041862160314
0.124,3.260625876778202e-10,3.9941183779576686,0.023548500539727076,10.635039962161109,5.365976039030955e-07,2.728054973195772e-08,0.0012369710644801206,0.06250998840808883,0.031683274764285965,0.0,4.830181991679682e-09,-0.10997168776532049,0.3363883261973503,4.465412635766611,1.7007289073573863e-07,-8.57422306639506e-09,1.3778894132715114,1.0,0.1321643871406462,-6.681376468360306e-09,363.434616521404,722.693933780945,690.4606320510687,421.4680404802852
0.128,8.802264475535254e-08,3.9933494286283637,0.0249120888581061,11.767117544896186,7.610805313227541e-07,-7.326508217981045e-05,0.0013279155733034106,0.06631625140581415,0.03359414558386552,0.0,8.80858507911953e-06,-0.11651716001400184,0.3567246975772501,4.735812063280198,-2.497781495151137e-05,-0.00012544136459657977,1.3698776186414492,1.0,0.13522065496993757,8.561593988830911e-05,362.17017683907744,722.7879251679932,690.0227661020518,422.0002237112488
0.132,7.612373913466957e-07,3.9925095603067065,0.026334654593656553,12.962182692828899,2.2982708772646476e-06,-0.0006439187083965578,0.0014223469176237124,0.07022094407639817,0.0355528765643691,0.0,7.667392092208447e-05,-0.1230468534570129,0.3772349979409772,5.008674182589025,-0.00023772401125147003,-0.0010984337193653522,1.3647962155813032,0.8754670332374694,0.13346113797050702,0.0006696272784349445,389.50552536951614,706.7127050378496,675.1987208427696,447.3925558833575
0.136,2.6266494779769697e-06,3.9915947050179237,0.027813586210878656,14.220887190672595,6.771909581593188e-06,-0.0022528104803329133,0.0015202198558866664,0.07422274469483044,0.03755882286955032,0.0,0.00026484136665518796,-0.12949887701769883,0.39791732972265836,5.284231215026916,-0.0008913891479655923,-0.0038167344161993493,1.3633540045617103,0.7417826023482663,0.1300486499584895,0.0019059314373147513,415.9781989888716,688.124653811988,660.0467931141686,474.1591878831002
0.14,6.345154604350956e-06,3.9906011587784955,0.029345235181609794,15.543317323789157,1.6271189151204994e-05,-0.005523886154601121,0.0016214895655391832,0.0783203439009145,0.03961134570144606,0.0,0.0006131916862470458,-0.13580620663347825,0.41868721876308357,5.561634189636763,-0.0022557183096813737,-0.008898563637113647,1.3677304927225324,0.6027668620271405,0.12551842735049218,0.003913848625474075,440.7178802250718,667.2605491060328,645.2012905155831,501.7972350786581
0.14400000000000002,1.2624936203436384e-05,3.9895261348464555,0.030924299189735934,16.928428821092865,3.3406669259229794e-05,-0.011172067969037065,0.0017261116396150406,0.08251244459802713,0.0417098122509138,0.0,0.001137252056026734,-0.14187564974855715,0.43930198495277295,5.837925671865528,-0.004593777180431424,-0.016635366831480557,1.3813901452241835,0.4596896103800574,0.11989425254084175,0.0068253910220072754,463.61062837941256,643.9635718358785,631.1255515316053,530.291040769435
0.14800000000000002,2.2156468301752018e-05,3.988367915503469,0.03254393145137341,18.374063316833332,6.119957077888251e-05,-0.01996162085289954,0.0018340474543140114,0.08679748363646578,0.0438535956485469,0.0,0.001848657982566515,-0.14757372780816355,0.4593885048421281,6.108469359262638,-0.008205721529858233,-0.027278726572500838,1.4076283903109232,0.3138794617261653,0.11394410170694128,0.010727721654042429,484.4804533512439,618.1999751064285,618.1572199648326,559.6520250749221
0.15200000000000002,3.515319765082864e-05,3.987126858129433,0.03419682810755987,19.87784050156344,0.00010174616711507819,-0.032299622070376476,0.0019452533590592891,0.09117419149472915,0.04604207491596505,0.0,0.0027054771157596323,-0.1526557116589576,0.4786139572892244,6.369899346195363,-0.01317683164956474,-0.04029877000207441,1.4475831255612561,0.16570092805641612,0.11290257338949712,0.015235191333190335,503.35381684044455,591.0889042945879,605.1202191830517,589.8927563423425
0.15600000000000003,5.1206037570333696e-05,3.9858060035423133,0.03587559714552071,21.43701242761261,0.0005231051397750782,-0.04776771021160554,0.002059686109357747,0.09564131058549645,0.04827463491747721,0.0,0.003599916280495665,-0.1567183848524422,0.49671949649482866,6.620360296915538,-0.0184251846784924,-0.05391432185677466,1.5016582040727855,0.01570549238653962,0.11848797728614129,0.01940052079252364,521.7454037894887,564.3298726518117,590.3855288747343,619.6605347019512
0.16000000000000003,6.983914890272631e-05,3.984407700447354,0.03757328198666899,23.04719707476485,0.0034100223263352964,-0.06432804784114003,0.0021773028634837362,0.10019759515769036,0.05055066631211419,0.0,0.004424641730810481,-0.15952135526800243,0.5136077692971798,6.85630165221159,-0.018936440848821037,-0.06507657962197926,1.5691977747354964,-0.13404944747891978,0.122716261391622,0.021314945202195134,543.8492926019655,540.2462929172751,572.2712131929867,644.9720522159247
0.16400000000000003,9.071854207012295e-05,3.982934339313159,0.03928256584819179,24.70280071746449,0.011441547664809298,-0.07910171775846483,0.002298061179188178,0.10484181119928918,0.052869565506028296,0.0,0.005144603183869502,-0.16115244635024606,0.5292487302287415,7.072198559055333,-0.008347789885453934,-0.07126429433404184,1.6511469801806893,-0.2818849046206091,0.12238135367156436,0.019912346487405863,571.196957041318,520.8578264289847,549.4624685763044,664.2588732602203
0.16800000000000004,0.00011290670607462031,3.9813880107298707,0.04099640084231927,26.397337596980925,0.027365119117560833,-0.08922459653610923,0.0024219190104327656,0.10957273634088252,0.055230734605257216,0.0,0.0056768105503070005,-0.16181762253003634,0.5436507892529848,7.26280361500736,0.017392605345622557,-0.07181694154011595,1.7471857927125753,-0.42640841921956496,0.1257901594984688,0.015091663776970564,601.8337961599093,508.52283896310234,520.0129216429723,678.7704582825162
0.17200000000000004,0.00013493053220878302,3.979766414567675,0.04271108085111898,28.120908582686198,0.05224145575574537,-0.09348667080312074,0.002548834704149092,0.11438915975996537,0.05763358136884959,0.0,0.005883142195673482,-0.16192873775823927,0.5572972273854944,7.419780349482093,0.05533362976294608,-0.069065155548484,1.8507492752839028,-0.5632177552901418,0.13444326833711578,0.008667224370024401,631.7122252742575,501.28105798805177,486.4484218258107,690.7110596745608
0.17600000000000005,0.00015680710390489024,3.978064635244401,0.04442450509279117,29.861661665732022,0.08594470738354701,-0.09131586543201724,0.002678766997022523,0.11928988208596478,0.06007751916234959,0.0,0.005774541240267608,-0.16204255710852844,0.5709973403126288,7.53274452994152,0.09941876255562734,-0.06558380299839484,1.9586901793032188,-0.6893758172638376,0.12650982909893854,0.0013341448078858557,662.3658048291917,494.70802267916366,453.88500153519533,698.0025445489349
0.18,0.00017861010230636065,3.9762776339572126,0.04613457301364002,31.60750160020982,0.12856652748758474,-0.0820743102528741,0.002811675012300628,0.12427371530599392,0.0625619669116377,0.0,0.005520180109547691,-0.16257739369570667,0.5853512673418454,7.594374542345605,0.14531133726777393,-0.06253996151130037,2.071067764694054,-0.8038000962326743,0.1172085587308092,-0.007008374268549104,691.7984924109655,491.8847068060904,419.4442442860561,702.3960431837897
0.184,0.0002004452244510235,3.974400309245539,0.04783916729196658,33.34640336343376,0.18022585587463136,-0.06510671819472828,0.0029475182566260044,0.12933948267132866,0.06508634905712558,0.0,0.005166941775766996,-0.1636589224466523,0.6004812255184532,7.603434107668912,0.19310601133656496,-0.06015660377022396,2.187975868356572,-0.9057490438143043,0.10673349042748205,-0.016407365187103284,720.1096506534578,493.12903887099486,382.63406904692476,703.8196781899289
0.188,0.00022245392248576023,3.9724275341629145,0.04953615065318364,35.06675461835509,0.24101203825762094,-0.039881680354842595,0.0030862566168932876,0.13448601860460013,0.06765009550830155,0.0,0.004710229581921152,-0.16537080365805804,0.6164468279246564,7.560590085439552,0.24297547180576323,-0.05876292391243593,2.3095154152169703,-0.9948774230632813,0.09503292838630534,-0.026745566233403392,747.251463551459,498.24921009216723,343.10837801939323,702.397506324751
0.192,0.00024481555179931073,3.9703541951515295,0.05122334831972123,36.75687357152239,0.3110121848909128,-0.005946628152085435,0.003227850357130205,0.13971216860769947,0.0702526415986251,0.0,0.004145423795194629,-0.16779542278318776,0.6332985555001929,7.466610145240206,0.2946875743817016,-0.05871311630685744,2.4358236735452525,-1.0,0.08204001178344053,-0.03795327728287323,765.3017516630667,518.9516068962798,319.8234461542581,689.3572460019877
0.196,0.00026775059118265576,3.968175213510729,0.05289858231255838,38.405617633957924,0.3902550329970191,0.0370361362678434,0.0033722794605010324,0.1450182298956105,0.07289342804076722,0.0,0.003468210227419852,-0.17101504010460836,0.6510783067808472,7.32253045338166,0.34790715306802933,-0.060369324402381776,2.5669695801354924,-1.0,0.06796401819662481,-0.04991550315808751,783.4623958109969,540.912208158265,294.4187753692747,674.3570888472022
0.2,0.00029152456080842057,3.9658855216645743,0.054559768394600826,40.00332864629278,0.47860472078742844,0.08924059865034391,0.0035195047032004416,0.15040305251470912,0.07557190088219416,0.0,0.002675195257315247,-0.1751081307017324,0.6698313977095816,7.1318842731892005,0.4019658285310559,-0.06386845653041909,2.7028255134773564,-1.0,0.05246808421602129,-0.06245550083814873,802.1087310071501,562.8591436421784,265.3377616764983,658.1325882365852
0.20400000000000001,0.00031645018028390355,3.9634801107246536,0.056204896861387445,41.54205778612188,0.5758311352934947,0.15054344696216201,0.0036694872314477524,0.1558654974754068,0.07828751146109222,0.0,0.0017650065163332927,-0.1801425263042715,0.6896025672928832,6.9008334122391615,0.45585450058227056,-0.06947212226799351,2.8432999360233073,-1.0,0.035810159377516845,-0.07523376771649085,820.8010372764107,584.2988690958339,232.43411541104635,641.1074951545496
0.20800000000000002,0.0003428880464318605,3.960954070258728,0.05783201382409051,43.015240281353,0.6816244333492721,0.22057887482198005,0.0038221885584453726,0.16140443666158574,0.08103971636263091,0.0,0.000739057362775215,-0.1861735651137763,0.7104258011731769,6.636274013430517,0.5084475485922048,-0.07746810362406295,2.9883370064377037,-1.0,0.01804052960291605,-0.08796260364724709,839.2168511251756,604.8565324328607,195.09605460315896,623.6436072307282
0.21200000000000002,0.00037124605892776874,3.9583026433443678,0.05943919023235928,44.41745229084574,0.7955721754873984,0.2987965610519235,0.003977570561360527,0.1670187527407295,0.08382797737556208,0.0,-0.00039828418325341,-0.19324769073292672,0.732312772964828,6.344033318028567,0.5587125922433934,-0.08805206287814182,3.1379420575401404,-1.0,-0.0007449754289492599,-0.1004120546326355,857.1192856986147,624.2960234517993,151.38909178828055,606.0636012808338
0.21600000000000003,0.00040197757344298,3.9555212638496795,0.06102451544549121,45.74419753535259,0.917303561674865,0.3843833708581385,0.004135595478330101,0.17270733907474362,0.08665176144915256,0.0,-0.0016397596942713563,-0.20140621066914308,0.7552544080395419,6.028875422637048,0.6057487722626593,-0.10137417287906705,3.29213276179077,-1.0,-0.020597199557892187,-0.11225308608143442,874.2012489274159,642.2443351015344,95.94213932265144,588.8609624905966
0.22000000000000003,0.0004355790132604122,3.952605580516483,0.06258610220678099,46.99164812164729,1.0464861106237382,0.4763466992944328,0.004296225905488429,0.17846909963146165,0.08951054065044778,0.0,-0.002975123895968424,-0.21068877637845826,0.7792238872369153,5.694555752434587,0.6488395738045474,-0.11766413179809972,3.450916192541176,-1.0,-0.04155868488005368,-0.12324317300672921,890.2652493535946,658.4814163850583,0.0,572.4508413247557
0.22400000000000003,0.00047258627102918596,3.9495514793343456,0.06412209691151796,48.156515445073644,1.182823910919421,0.5736156586859655,0.00445942479401787,0.1843029488968311,0.09240379212186405,0.0,-0.004391374087769932,-0.22113625080438112,0.8041792448619182,5.343953275000442,0.6875163481113635,-0.13708215577874805,3.6142779211450287,-1.0,-0.0636570362813933,-0.13325055441434586,905.2348494277243,672.9483420480353,0.0,557.1148460418319
0.22800000000000004,0.0005135689338664667,3.9463551470954794,0.06563064915211593,49.23586600763638,1.3262179761926884,0.6750578592235132,0.004625155447221982,0.1902078117877746,0.09533099803910693,0.0,-0.0058734844276678135,-0.2327931823976639,0.8300586433083652,4.979205335321612,0.7216858848195656,-0.15969579847800958,3.7822643365532773,-1.0,-0.08708179826102415,-0.14215978239491311,919.0672299747322,685.5804399244863,0.0,543.1094824147153
0.23200000000000004,0.000559144900677806,3.9430126769145093,0.06711029617913367,50.227475812159454,1.4761777006542687,0.7792728292753024,0.004793394543572987,0.19618179012825043,0.09829164556941349,0.0,-0.007403173205830079,-0.24570673832452022,0.8568361326123763,4.602663874054406,0.7505843728951415,-0.1852262613969761,3.9541415368902744,-1.0,-0.11143035064623806,-0.14961148676559421,931.4117262187785,696.0402377860474,0.0,531.2039601183354
0.23600000000000004,0.0006099878629683173,3.9395198618099374,0.06856014822860934,51.1300323393728,1.6317991260736295,0.8842993590115904,0.004964105925145654,0.20222383946964398,0.10128522683011586,0.0,-0.008954630048279249,-0.2599210846255657,0.8845532102141744,4.217483078504143,0.7722262175161546,-0.21320999795715173,4.128787216299458,-1.0,-0.1366236096621586,-0.1548933223456794,941.6110070899365,703.4860417194096,0.0,522.7705581278695
0.24000000000000005,0.0006668155713980368,3.9358723826591984,0.06997971028671865,51.94278351224718,1.791990979401784,0.9878171846200247,0.005137253778907585,0.2083329254461679,0.10431123884752393,0.0,-0.010491409613982115,-0.27547397109114147,0.913283792009979,3.8271463784502933,0.7840809657340554,-0.24321940279380944,4.305422610458926,-1.0,-0.1621637803780963,-0.1575053803771746,949.1958144693949,707.4118787802324,0.0,518.9209207218997
0.244,0.0007303754995517536,3.932065967297781,0.07136875149141095,52.665250835023855,1.9556175050080677,1.0873458712966535,0.005312802633869772,0.21450802369110544,0.10736918351612454,0.0,-0.01196788567128714,-0.2924011255550513,0.943044508984368,3.4339454745013063,0.7846585054315051,-0.2750240601836607,4.483521496193991,-1.0,-0.18780978255239497,-0.15716517298800353,953.9280534459921,707.5299838583327,0.0,520.2785355823214
0.248,0.0008014287114735701,3.9280965272940636,0.0727272093008982,53.29699940882652,2.121596619437778,1.1804217893852247,0.005490717358259039,0.22074811975369896,0.11045856755809541,0.0,-0.013332306607588523,-0.31074143181697117,0.9737923515225135,3.038964872568073,0.7735166621637009,-0.30835532171057495,4.662743793154747,-1.0,-0.21339911425660593,-0.15379019811863798,955.7513517470273,703.7479660308767,81.16333154910691,526.9633919147163
0.252,0.0008807334834343813,3.9239602657481076,0.07405512902616625,53.83747669152965,2.2888823335004544,1.264787333436593,0.005670963156712179,0.22705220901667822,0.11357890248313054,0.0,-0.014529671261123797,-0.3305404873653694,1.0054350899696698,2.6423485670187294,0.7510345461192557,-0.34274322086311304,4.84286684560195,-0.9503072804018233,-0.23873576693280593,-0.14751950957177565,950.299425537764,702.3274869403645,190.38567064172452,530.5569444462595
0.256,0.0009690342843041178,3.919653674952075,0.07535270740875287,54.28607735342639,2.4563563342185413,1.3384262327828698,0.005853505567491682,0.23341929661442518,0.11672970454857585,0.0,-0.015504129908541362,-0.3518510318927903,1.0378519418724932,2.2438601088705483,0.7179728623857453,-0.3774007856170277,5.023576187379236,-0.8796659101454759,-0.26354780046948967,-0.13854171189069728,940.2371053656074,700.0256069621103,272.7470210223692,535.4780818497874
0.26,0.0010670456718195253,3.9151736275437132,0.07662026494556781,54.64256291542352,2.6230221938812353,1.3994898867809193,0.006038310459722844,0.23984839735176908,0.11991049471987207,0.0,-0.016200253471374534,-0.3747296247361791,1.0709001654670571,1.8439795359728202,0.6752595649473401,-0.4116703947014793,5.204608760533155,-0.8025276273235553,-0.28771583299873565,-0.12696912675497182,926.8541119163717,695.2012950098181,343.94215628997836,543.8075979287339
0.264,0.0011754386097726707,3.910517445350338,0.07785821576469233,54.90732915406729,2.7879443636883847,1.4464173782671776,0.006225344030652124,0.2463385356234082,0.12312079863130282,0.0,-0.01656358472400449,-0.3992315558332785,1.104414256620959,1.444496809151906,0.623992843921674,-0.44516580498893105,5.385758766764654,-0.7265490358122566,-0.31107135071805037,-0.11306102655120602,910.9695280802703,687.2033045722127,407.59551617147963,556.1735185214295
0.268,0.001294834766426399,3.9056828493540987,0.07906712577690216,55.081668237710545,2.9502902128658652,1.4778624144206611,0.006414572802926591,0.2528887453339532,0.12636014654704567,0.0,-0.016541631939639454,-0.42540399884709884,1.1382164376492443,1.0485133365052106,0.5654023567171651,-0.4777260984831882,5.566699469722247,-0.6459922079517116,-0.3335794732125313,-0.09700304327802092,892.0771152548297,676.8980983665565,467.4810614503568,571.1496853705477
0.272,0.0014258076360881015,3.9006678576409883,0.08024778267541126,55.16753092735825,3.109141078830609,1.4926340424694085,0.006605963621894301,0.25949806981858775,0.1296280733225239,0.0,-0.01608352162365969,-0.45328194558104923,1.172143403270433,0.6593855850066159,0.5004286483605235,-0.508998674832931,5.746957293842867,-0.5616514351914865,-0.35506518471806625,-0.07892027468173557,870.1657153369454,664.2596628684447,524.4997335364396,588.4727412570802
0.276,0.0015688777621469699,3.8954707597768796,0.08140122183860372,55.16766270592564,3.2634031412041735,1.4897486606020827,0.006799483652925453,0.2661655617643412,0.1329241183660568,0.0,-0.015139353830431935,-0.48288495184984254,1.2060529072271844,0.2803945716630757,0.4296282862259505,-0.5385154340088785,5.9259990869813075,-0.47452636954186905,-0.37517434323140497,-0.05900487109600089,845.264889760381,649.3245517157575,578.9803741557179,607.8322692902749
0.28,0.001724509908102282,3.8900900766975877,0.08252875396260247,55.08567299602326,3.4119432559842067,1.468283609858599,0.0069951003787541675,0.2728902831319701,0.13624782560080612,0.0,-0.013660261159106532,-0.5142134286967222,1.239818109419106,-0.08499827043032884,0.35334719504486156,-0.565811752324205,6.103227782345105,-0.38575375254121486,-0.3937166155617344,-0.037286400860558955,817.2235567158731,631.8298449737657,631.3424228199776,629.1651966292271
0.28400000000000003,0.0018931158756196383,3.8845244628359676,0.0836320136139354,54.92558214402688,3.553370424384767,1.4273431975030146,0.007192781596840745,0.27967130507844273,0.1395987434270168,0.0,-0.011597004014585745,-0.547248151654544,1.27333351446897,-0.43382977850236537,0.2715688871922948,-0.5904844175028184,6.27793905823089,-0.2960029224483275,-0.410305598752956,-0.01375718033780661,785.7145219944804,611.4877258767539,681.9357961160273,652.4123518176276
0.28800000000000003,0.002075039260259148,3.8787728103989463,0.08471288821463901,54.69225712570788,3.6860752879467515,1.3662413620048868,0.007392558667012975,0.2865055698591481,0.1429764246845496,0.0,-0.008900307290219525,-0.5819491215717124,1.3065029216112125,-0.7632557328027783,0.1841930156039852,-0.6120405369635333,6.449562452679329,-0.20648291177498723,-0.4236363872424621,0.011376047738059121,750.5307035682774,588.3238664110677,730.5614266844659,677.4051924694949
0.29200000000000004,0.002270551004313495,3.8728342207484547,0.08577352038992792,54.39131542861398,3.8082424487752533,1.2844646796003854,0.0075943992470713035,0.2933921925265433,0.14638042661570336,0.0,-0.005522561675384392,-0.6182530531747671,1.3392329539521033,-1.0701896197470904,0.09125465735489181,-0.6295414776200823,6.617514735190763,-0.1183518056915338,-0.4346810314148598,0.037941194583473135,711.5939865299936,561.9275550810008,777.3546717087266,703.7450121112074
0.29600000000000004,0.0024798403273131307,3.8667080252382635,0.08681627284111444,54.029161674552725,3.917931156461993,1.181680881875753,0.007798271308636215,0.30033029686757207,0.1498103108283251,0.0,-0.0014198710849979833,-0.6560691456343639,1.3714377662486583,-1.3512241385752586,-0.007062505178613172,-0.6424439972313295,6.781275885899512,-0.03286569815045498,-0.4423092998927809,0.06574916831200882,668.5120971888279,532.1078803561317,822.1588783548084,731.3207212667126
0.30000000000000004,0.002703012456909054,3.8603937187564283,0.08784374364384016,53.61268608888712,4.013065270235923,1.0576941983578025,0.008004143134535414,0.30731901533039446,0.15326564325920558,0.0,0.003447915442840539,-0.6952811384557301,1.4030532563419413,-1.603588524949781,-0.1106521020266327,-0.650195818033918,6.940287874914848,0.049013126690418185,-0.4461326448591325,0.09465562832829172,620.7012103534292,498.3997177764385,864.9866268136263,759.9666347902703
0.30400000000000005,0.00294008204549226,3.8538909373670616,0.08885875009157838,53.14906240787583,4.091583246478213,0.9123569330195347,0.008211983316211157,0.3143574889516843,0.15674599413775817,0.0,0.009117247557753928,-0.7357504890276786,1.4340415490437768,-1.82541026499615,-0.21948026571024432,-0.6527289023884313,7.09401801100905,0.12652035781135473,-0.4458734142077667,0.12461393528345371,567.1016168737505,459.9335098359216,905.9634809754123,789.6161315028165
0.30800000000000005,0.0031909745561435605,3.8471993300131797,0.08986438476519337,52.6451685961652,4.151190293166467,0.7456422018394172,0.008421760751147585,0.3214448672844896,0.16025093794997916,0.0,0.015622488529794984,-0.7773251415578745,1.4643994328594405,-2.016440376812807,-0.33371341165124313,-0.6497861801059632,7.241812871249065,0.1995437357836003,-0.4410499964681194,0.1554905170770738,506.03613977024,415.73688195086146,945.1367685553665,820.0622660529814
0.312,0.00345547858673964,3.8403190327484458,0.0908636333892256,52.108618306780876,4.189571968553815,0.5580786730345639,0.00863344464031791,0.3285803083266522,0.16378005340268725,0.0,0.0229908252809683,-0.8198408356411514,1.4940975878419038,-2.1759501942640744,-0.4529002340677658,-0.640779280223787,7.383785872941493,0.2667819557698765,-0.43084058807502634,0.18663899721812074,435.82385787073304,365.2388704751632,981.9362810536908,850.7422766574706
0.316,0.003733261295319911,3.833250360838359,0.09185955437090505,51.547115171426505,4.204521652812131,0.35039877713945217,0.00884700448565132,0.33576297844978237,0.1673329233880404,0.0,0.031238557378839855,-0.8631194368554385,1.5231052302337802,-2.302981974696048,-0.576196431602411,-0.6248250241451314,7.519689511348778,0.3276321056207529,-0.4152627583919708,0.2,395.37829448498445,355.1365753287079,1000.1986218939916,862.7616620690424
0.32,0.004023852428556629,3.825993907387404,0.0928551499583237,50.968501799693435,4.193952831866754,0.12372072667971445,0.009062410087519424,0.342992052328784,0.17090913494832732,0.0,0.04036858580592217,-0.9069682639414935,1.5514064632068911,-2.396616469567742,-0.7024736092740004,-0.6018447438384945,7.649535499386511,0.3814225241172971,-0.39399909457364624,0.2,383.65030092350514,377.95902350059635,1004.8879402919812,861.7132876941599
0.324,0.004326659142853788,3.8185501868703375,0.09385361324381225,50.38082239023486,4.15636339464463,-0.12070539055274188,0.009279930398513547,0.3502652139258898,0.17450827924103268,0.0,0.050371348959376706,-0.9511847324084883,1.5790582497539198,-2.4565233017031134,-0.8304391143955279,-0.5722224242599289,7.772836090572941,0.4273934581320904,-0.3641417814060932,0.2,371.11492150398607,399.40712376192647,1008.0587488565927,862.1942241844837
0.328,0.0046409942400979405,3.8109190860424405,0.09485876231456167,49.791785157386,4.090672902215518,-0.38173478407527184,0.009499532211392983,0.3575816723546649,0.1781299515041729,0.0,0.061227881453411535,-0.9955578941772434,1.6062433981000066,-2.4829185937950653,-0.9589045828144747,-0.5372792283643513,7.888216385230656,0.46539349534050445,-0.33303517723841247,0.2,359.432462577895,418.10183780623845,1010.3190631278395,863.4611852891634
0.332,0.004966049123078604,3.8031001141222016,0.0958748220842913,49.20847527539213,3.996053037174781,-0.658259485356784,0.009721182642469841,0.36494064466062603,0.1817737510219013,0.0,0.07291604687867899,-1.0398775878692326,1.6332367645573982,-2.4774981647578445,-1.0872387141583946,-0.4984399359244078,7.994724379399669,0.4956240217982152,-0.2972028762161946,0.2,347.73864510757363,435.0956778919309,1011.3822552992067,865.820612930934
0.336,0.005300866733695894,3.795092645261228,0.09690619879139373,48.63748231834281,3.8720280227953476,-0.9490632441985279,0.009944849128910237,0.3723413557542438,0.18543928109038016,0.0,0.08541145296433565,-1.0839440154138746,1.660282730394631,-2.442722161106731,-1.2147748845289548,-0.4565527054068516,8.091852801047684,0.518175266395693,-0.256551772554306,0.2,335.9631931714273,450.5997283833518,1011.2445210967205,869.2553634149605
0.34,0.005644324651015529,3.7868960695950395,0.09795731484367375,48.08486370193877,3.7185075579601863,-1.2527760375256882,0.010170499426056294,0.379783038344467,0.189126148983918,0.0,0.09868424493145937,-1.1275704960531647,1.6875572788981532,-2.381026375215222,-1.3403255388161488,-0.4122487947731058,8.179423823060535,0.5332094381802684,-0.2111443350512866,0.2,324.0626674955294,464.77600302123716,1009.9219632812984,873.7276231294745
0.34400000000000003,0.005995125652829281,3.778509857281774,0.09903251163671237,47.556158195969196,3.5358811470410942,-1.5677712971885278,0.010398101604768848,0.38726493287276315,0.19283396592136998,0.0,0.1126950215125371,-1.1705828404058165,1.7151970184630034,-2.294799570384209,-1.4621920164554396,-0.36603796299972624,8.25745637395702,0.5409051286208247,-0.16124951421991432,0.2,312.04859546183815,477.7269979783938,1007.4484672869705,879.1780150669182
0.34800000000000003,0.006351795490266263,3.7699336237032526,0.10013594347840914,47.056232969166196,3.324949731792065,-1.8922512589111167,0.010627624048790668,0.39478628744767225,0.19656234703279934,0.0,0.12739288914766314,-1.212821075834891,1.7433116149994305,-2.186659060027743,-1.5784787332489718,-0.3183402704970497,8.326187285845029,0.5416511393118328,-0.1071626237612594,0.2,299.8920193520598,489.5734944631008,1003.8776942692748,885.5258271723026
0.35200000000000004,0.006712686015910503,3.7611671353157416,0.1012715264018963,46.58926803422034,3.086937535957384,-2.224237656607373,0.010859035452130057,0.4023463577798703,0.2003109113263984,0.0,0.14271478259991413,-1.2541415498876023,1.771991420209039,-2.0594986530817145,-1.6873376565996854,-0.26950447145599143,8.385963279321174,0.5358969636556941,-0.04927886573988002,0.2,287.576230614562,500.413423215948,999.2757911192211,892.6760676308938
0.35600000000000004,0.007075983352116104,3.752210301636459,0.10244290227256837,46.158756407342715,2.823456709641287,-2.561613122121314,0.011092304816464685,0.40994440711773794,0.2040792816556665,0.0,0.15858571176372713,-1.2944185348375226,1.801314638909916,-1.9162970939100634,-1.7870192497803241,-0.21982901809653935,8.437211556014113,0.5241359798897752,0.011959867965041726,0.2,275.08642695218765,510.33186587455043,993.7158162999499,900.5270778518345
0.36000000000000004,0.007439721440684241,3.7430631725598253,0.10365340143757831,45.76751425609005,2.536335335131407,-2.9022761724152697,0.011327401448565491,0.4175797061834309,0.20786708468684378,0.0,0.17492112488274753,-1.333544247424354,1.8313500224498693,-1.7599548327577121,-1.8762073649075517,-0.16955133000242192,8.480443901469641,0.5068942561708419,0.07621843406325102,0.2,262.3635848243856,519.4276968685368,987.2643269886194,908.9873032449253
0.36400000000000005,0.007801789500060007,3.7337258691707222,0.10490607459709682,45.41769339128963,2.228046791237605,-3.2437019989649456,0.011564413774814772,0.4252486667370064,0.2116739508665982,0.0,0.1916238130691725,-1.3714288653808324,1.86216447698679,-1.5933035683213432,-1.9529894875215408,-0.11887952653134033,8.516117389861625,0.4847275918910069,0.1440914299618573,0.2,249.00107953620528,527.9438992450438,979.9071237248671,918.050822733814
0.36800000000000005,0.008159953868709404,3.724198582458449,0.1062036650176783,45.11080902089789,1.9013972046943157,-3.5832412921042867,0.011803310274439,0.43295060875803004,0.2154995143899644,0.0,0.20858115002753602,-1.4080001205894401,1.893823052188872,-1.4190523105778055,-2.015177034406526,-0.0679812604231869,8.544754445272453,0.45820330540428206,0.2122516015123087,0.2,235.93238198530844,535.4784489355504,971.9767978341727,927.3464015697858
0.37200000000000005,0.00851187632686485,3.714481543677524,0.10754861202856628,44.84770627205716,1.5596798710314856,-3.917956548041409,0.01204405973708369,0.4406848591989796,0.21934341316853215,0.0,0.2256611158094503,-1.4432034944224177,1.9263869760843728,-1.2398477296918426,-2.0604710883426827,-0.017024365243358052,8.56688023897914,0.4279702829432848,0.28117899204981284,0.2,222.80735938606713,542.2658570681426,963.4822670587406,936.8598006588323
0.376,0.008855141858372698,3.7045750083169513,0.10894304944975522,44.62865082243716,1.2064047012750847,-4.244847829501373,0.012286631260211938,0.44845075192580003,0.22320528879888296,0.0,0.24271649508199009,-1.4770013054754936,1.9599107372430236,-1.0581692633316595,-2.087120731940531,0.03386931715755136,8.583032864799629,0.3946168092926001,0.35020915699484617,0.2,209.6842622253571,548.3362510552336,954.5297978772998,946.4787292376623
0.38,0.009187281555202842,3.6944792342814066,0.11038881069084339,44.45323282006827,0.8455174571359853,-4.560615385117387,0.012530994246523115,0.4562476276589229,0.22708478653127287,0.0,0.2595828728945826,-1.5093730582119103,1.994443165446281,-0.8764544734530662,-2.0933314969426857,0.08458332960282491,8.593749851454476,0.35888280381159715,0.41843960847231937,0.2,196.6746925645417,553.7021110864302,945.2644140410886,956.0602156523418
0.384,0.009505804463861308,3.6841944639045745,0.1118874401683576,44.32047010827581,0.48118456186210234,-4.8618317397738515,0.012777118401391516,0.4640748339147461,0.23098155523855896,0.0,0.27607900755038867,-1.5403151745521488,2.0300268366359706,-0.697060903736221,-2.0773814292702424,0.1350214056693566,8.599555177293897,0.3214341272096415,0.4850646593935893,0.2,183.90995954796088,558.3758934876188,935.8205063391956,965.4819922985612
0.388,0.009808229405528134,3.673720909090419,0.11344020527394176,44.22885441367122,0.11772160104280238,-5.144968747287914,0.01302497373032488,0.47193172494757196,0.23489524738536904,0.0,0.2920070262673099,-1.5698403664263263,2.0666980689179213,-0.5221028038296917,-2.0379818879910894,0.18509341498355153,8.600957789016821,0.28292252621044744,0.5493187573090688,0.2,171.54533218782373,562.3706503329788,926.3324882620389,974.6310360492047
0.392,0.010092117874765247,3.6630587385312543,0.11504811088042893,44.17639747559283,-0.24046612065067585,-5.406414745418261,0.013274530536442583,0.47981766169199935,0.23882551899751153,0.0,0.3071558494942774,-1.5979758521863525,2.104486727660304,-0.35343332371585817,-1.9743028415135373,0.23473144332339838,8.59844607009463,0.24398291077771234,0.6104538044557477,0.2,159.7795536486518,565.6961508096578,916.9367474616852,983.4010513763596
0.396,0.010355107774376747,3.652208066991055,0.11671191618447793,44.16068303670797,-0.5889445053359252,-5.642495221534082,0.013525696870447832,0.4877286283874186,0.2427720296316244,0.0,0.3213022741697482,-1.6247623635578943,2.1434159593955218,-0.1927081338306173,-1.8857714530338636,0.2838786329467028,8.592482636818339,0.20522369050087852,0.6670174026764909,0.2,149.28816898065273,568.2480855141803,907.8392143717102,991.6298658399721
0.4,0.010594947531346554,3.6411689464964554,0.11843215368362099,44.1789241901575,-0.9233119034430682,-5.849498219305043,0.013778444376017952,0.4956640398796168,0.24673444234506117,0.0,0.33421215286370604,-1.650253068680037,2.183501909279118,-0.041376876596241056,-1.7720903135206947,0.3324874136379021,8.583499470069377,0.16721726314433202,0.7197327246284605,0.2,139.60490346365964,570.2437166384984,899.0415176570558,999.3501692872234
0.404,0.010809530125282333,3.6299413589853824,0.12020915049907575,44.22802510468909,-1.2392640836588102,-6.023708258223017,0.014032744980183963,0.5036233171562189,0.25071242366601226,0.0,0.34564189012771707,-1.6745123978693335,2.2247533920757627,0.09932163573729068,-1.6332617418221047,0.3805188421795218,8.571892550031816,0.1304912395565513,0.7672703343849202,0.2,131.47994546293177,571.5781393427588,890.7386989381183,1006.4204397448475
0.40800000000000003,0.010996926642818086,3.618525209350167,0.12204305312291669,44.30467874800087,-1.532675344277806,-6.161465890911484,0.014288570890940966,0.51160588729383,0.25470564356386,0.0,0.35534044471734244,-1.6976145805401832,2.267171752625119,0.22841605952115862,-1.4696569066931553,0.4279387817392757,8.55801422701761,0.09548240215246137,0.8090596181061409,0.2,125.35017069384081,572.244831771616,883.048855729893,1012.7736751442272
0.41200000000000003,0.011155418736859992,3.6069203169198065,0.1239338576983824,44.40551539912034,-1.7997249312095236,-6.259267975141497,0.01454589459487708,0.5196111834055932,0.25871377541976526,0.0,0.3630533113678595,-1.7196406456069333,2.310751820506071,0.34533750169443844,-1.2821781044835807,0.4747304907817179,8.542161203236237,0.06247086180376739,0.8446691615141431,0.2,121.66078730177253,572.2309273405009,876.0630667191042,1018.3673553248324
0.41600000000000004,0.011283528958976883,3.595126424979056,0.125881417715392,44.52704329078377,-2.0368067706543287,-6.313681508133104,0.014804688854820816,0.5276386445891585,0.2627364959974845,0.0,0.36852466065897654,-1.7406768492817857,2.3554794343922696,0.4496946270081791,-1.071921565566806,0.5208851741913247,8.524619403853528,0.031812682507721846,0.8735749333952737,0.2,120.7904321738497,571.5183691228136,869.8902805986812,1023.1439098964584
0.42000000000000004,0.011380049820330565,3.583143201369218,0.12788546632154532,44.66571021113482,-2.2405662958016537,-6.321382899783464,0.015064926707506724,0.5356877158750618,0.2667734854144152,0.0,0.3714975363390388,-1.7608146511224032,2.401328511310858,0.5410826591798032,-0.8399385366223063,0.566397104959153,8.505634069423994,0.003802777490786169,0.8952939271015325,0.2,122.96013412792814,570.082399540428,864.6295850306966,1027.0529701183352
0.42400000000000004,0.011444071366308093,3.570970240889598,0.1299456387770132,44.817975150846856,-2.4079431352980767,-6.279207899535571,0.015326581461259202,0.5437578481755087,0.27082442711286786,0.0,0.37171396152457903,-1.7801509003864666,2.448259947066888,0.6191890144496969,-0.5874106002369519,0.6112580396765199,8.485408752654621,-0.021340991430128492,0.9093967313650168,0.2,128.180940915406,567.8906758393188,860.3659968300215,1030.0531591653892
0.42800000000000005,0.0114750070335339,3.558607070613627,0.13206149306337223,44.98037910829673,-2.5362076907447637,-6.184201638952259,0.015589626693694314,0.5518484982335617,0.274889007831563,0.0,0.3689176814667459,-1.7987863689688754,2.496220924889858,0.6839011677563585,-0.31580482331121423,0.6554683050475978,8.464108349123384,-0.04348173789803042,0.9155069418296202,0.144943690336603,345.2630496030644,647.8820079528624,796.3050250066003,982.1498261135673
0.43200000000000005,0.011472619110727257,3.5460531749835864,0.13423251510519324,45.14962980962361,-2.622818802390313,-6.033817249338503,0.015854036249439502,0.5599591285727277,0.27896691757735187,0.0,0.3628580509234004,-1.8168237359780222,2.5451411468385565,0.7353152497416355,-0.026823680694125634,0.6986407662439758,8.441889668837366,-0.06258469895584913,0.9130805172776426,0.07678375462868228,496.8455179805811,734.8332213572779,711.3293989278837,917.7438041128822
0.43600000000000005,0.011437094394047375,3.5333085745389963,0.13645768640874822,45.322965482055,-2.664346899617428,-5.826329836404661,0.016119784237871037,0.5680892074469409,0.28305784959715846,0.0,0.35329800418110563,-1.8343527855080342,2.594861744813428,0.7742144896972939,0.27851452696077067,0.7381855491913265,8.419789351256526,-0.079049004343426,0.8997152362402674,0.004324366639478827,619.5135770870374,816.4806576145536,610.214420837585,842.4333196352443
0.44000000000000006,0.011369173994568106,3.5203747062052617,0.13873468063033745,45.498443352935205,-2.656775103935854,-5.55978080199738,0.0163868450308691,0.5762382087909415,0.2871615003501419,0.0,0.34000875407248055,-1.8514354159322575,2.6450231170584395,0.8025328209247464,0.6008977438543417,0.7709923108624241,8.400490743306289,-0.09364502230413649,0.872596467336409,-0.07278229295263844,728.9467872237062,894.3321305882735,482.7142507610813,752.3492045103457
0.44400000000000006,0.01127015638459433,3.507254179063482,0.14105998914630613,45.674602129097266,-2.595871090379451,-5.232443520572429,0.016655193260590347,0.5844056121710435,0.2912775694800769,0.0,0.32276318572169105,-1.8681138944780717,2.695115062700523,0.8224587855116511,0.9415130723835299,0.7948298089375874,8.386464092184314,-0.10680363616911168,0.8306610069794284,-0.1543497930803153,830.3875264272245,969.0313447422519,297.4318752948538,641.5325585973337
0.44800000000000006,0.011141892395516974,3.493950700110671,0.14342894347009935,45.85001215626409,-2.4772472339218314,-4.843178460303753,0.016924803817257826,0.592590902736292,0.2954057597879514,0.0,0.30134346327054684,-1.8844387395014075,2.744606683734321,0.8347656874247751,1.3001584060382103,0.8080373879585153,8.380171897310188,-0.11846234036349243,0.7729799407741849,-0.2,885.8621975485346,1005.152775365165,113.00068017465898,565.6905472616268
0.45200000000000007,0.010986790241173147,3.4804692538498765,0.14583548175681088,46.02257231513859,-2.296298334494785,-4.391218725240912,0.017195703349257636,0.6007881096505415,0.2995457772047791,0.0,0.27555995688239987,-1.9004922511270776,2.7929336079357885,0.8376943596932016,1.675874894401407,0.8085046450554729,8.384587578545025,-0.1277387575541461,0.699015906392089,-0.2,893.9940873717438,998.0564996436403,155.06650418980615,555.8665290572795
0.45600000000000007,0.010807635953631487,3.46681492734021,0.14827329955625898,46.189128951715986,-2.049043978004935,-3.8757969406207904,0.017467866636502637,0.608996794818155,0.30369733076462546,0.0,0.2452499055050626,-1.9164154087279157,2.8396128693497915,0.8271115124564602,2.0673090683705104,0.795755400678307,8.400393569744573,-0.1332581397595749,0.6095701194821938,-0.2,903.3562961005742,990.057618294103,197.40954519599302,543.127214217381
0.4600000000000001,0.010607244079395265,3.452989703336972,0.1507391788286487,46.34790076056747,-1.7344420881733926,-3.297765333846724,0.017741268716051545,0.6172165249874262,0.30786013257784617,0.0,0.21029447657776795,-1.9323838219889524,2.8847268138034723,0.8016581314324156,2.467944820899498,0.7721298716761477,8.421523815454576,-0.13640317728007664,0.5120336318401572,-0.2,913.2472542647889,981.5712047362991,236.3356454986517,528.5253581122319
0.4640000000000001,0.010388566950784812,3.4389926492826235,0.1532328547717607,46.498780745921344,-1.3539163282815474,-2.6599692262575596,0.01801588487992185,0.6254468717080489,0.3120338978045354,0.0,0.17066887554439794,-1.9485452077069918,2.9289000325235577,0.7647058263645022,2.865899494999844,0.7408703964793171,8.442084202519677,-0.13900177101814018,0.4078264959801359,-0.2,923.5947103609533,972.4597420578684,271.96612012887607,512.2797893176312
0.4680000000000001,0.010154911460423119,3.424821294510123,0.1557556532758191,46.64270160915633,-0.9107801727557987,-1.966857924273959,0.018291690672919796,0.6336874112889251,0.3162183446281834,0.0,0.12648345979064896,-1.9649817354764736,2.9727848019536056,0.7217241872051109,3.2480123501313423,0.7040535670101243,8.45885182448089,-0.1422551828619009,0.29651982198395643,-0.2,934.4833795484071,962.5106118097113,305.0840472481036,494.2677439652679
0.4720000000000001,0.009910046011118428,3.410472587371417,0.15830953663365774,46.78086598923214,-0.40926127909336296,-1.2235499252856996,0.018568661890487302,0.641937724756307,0.320413194229541,0.0,0.07796161172275219,-1.9817391128256552,3.0166313800655407,0.6757328754439242,3.605382472916432,0.6630455856505372,8.47048984982371,-0.146537549618672,0.17777068492582193,-0.2,945.9392228436584,951.6120798485216,336.3661394306141,474.25246249599985
0.4760000000000001,0.0096582361848242,3.395943388183094,0.16089663250592018,46.9145697721488,0.14547442824051998,-0.4359403321105322,0.0188467745765657,0.6501973978122714,0.32461817076069005,0.0,0.025412389564610387,-1.9988509376363663,3.0604127597624813,0.6279195213785499,3.9320942703190207,0.6188417185118245,8.476597166305655,-0.15203597939981198,0.0520634619640884,-0.2,957.9090309370664,939.7521293479666,366.1090515598342,452.0829046116069
0.48,0.009404224920494354,3.3812307636155623,0.16351894711307438,47.04490773949204,0.7478704768025215,0.3898363267510962,0.019126005021476156,0.6584660207935251,0.3288330013193178,0.0,-0.0307944095327058,-2.016353853819225,3.1039501729517474,0.5785006910777887,4.224202329429805,0.5722575163625725,8.4773495044183,-0.15860113774009704,-0.08008116653851166,-0.2,970.3169378254945,926.9589095654964,394.58636100427833,427.50485105385815
0.484,0.009153195954350756,3.366332156764697,0.1661782130117278,47.17273333038584,1.3916921654000107,1.247053457660142,0.019406329759816682,0.6667431886305379,0.33305741592319466,0.0,-0.09023008095904066,-2.0342922643590713,3.1469931413014534,0.5272744876374013,4.47843741501398,0.5239197606573405,8.473235439428588,-0.16602371520754766,-0.217573211665549,-0.2,983.0397469047003,913.3236049175068,421.8914318983267,400.28213187204403
0.488,0.008910706939133328,3.351245429699779,0.16887585146157558,47.29854189390621,2.0704781537714734,2.1288274944328887,0.019687725568375527,0.6750285008069984,0.3372911474848517,0.0,-0.15241665383060465,-2.0527211623096155,3.1892714643630486,0.47388021090149773,4.69218181638556,0.4743558982941386,8.46482868116715,-0.17394216467447443,-0.3594237921498947,-0.2,995.9569913371033,898.9466712476839,448.13665537348896,369.99999805741936
0.492,0.0086826241615651,3.335968933473431,0.1716129141771607,47.42244350186388,2.7771573790668045,3.0276727700848998,0.019970169464060966,0.6833215613195947,0.34153393178645947,0.0,-0.21682063980368219,-2.0717051707762835,3.2305264335206956,0.41795660384426475,4.862782408028716,0.4239889512729217,8.452831113430056,-0.1819390503906888,-0.504146937063835,-0.2,1008.908833476927,883.9890742424309,473.32550258637923,336.13643117103
0.496,0.008475040785586209,3.32050145160838,0.17439014150958299,47.5441260503432,3.5045214422232,3.9359441822940555,0.020253638701847237,0.6916219786381147,0.3457855074549036,0.0,-0.28286082328858875,-2.091317344226087,3.2705349817110294,0.3592142713143963,4.987940874776749,0.37316826246224283,8.437838355443658,-0.1895275797489427,-0.6505216027876102,-0.2,1021.7584723334647,868.6002686794174,497.50877103315986,297.71267925892613
0.5,0.008294197694556717,3.304842249694617,0.17720791869429856,47.66282773721009,4.244800647774225,4.845357329553936,0.020538110772736567,0.699929365665864,0.350045615937058,0.0,-0.3499016938655472,-2.1116366428077376,3.309121427235044,0.2974850706361961,5.065210724186918,0.32218784840833326,8.420544784522855,-0.19615973396907888,-0.7967844547663736,-0.2,1034.3270056474537,853.00232121422,520.6449618002983,253.11094893686928
0.504,0.008146399988656659,3.2889909766906515,0.18006637324699282,47.77735195758232,4.990184534613066,5.7474648405088065,0.020823821350632682,0.7082362409131052,0.3543140014752529,0.0,-0.417263780251138,-2.1327452924106423,3.3461702223827485,0.23274870335948178,5.092527144399763,0.27126518157653134,8.401458469535367,-0.20127360492509205,-0.9386174682529667,-0.2,1046.2298464953292,837.6945020322785,542.2851755598508,199.86688798310317
0.508,0.008037922584276273,3.2729477497294295,0.18296528847352342,47.886073345628695,5.732283622894023,6.63305438963323,0.021110745287870696,0.7165423114736957,0.35859041108293627,0.0,-0.4842173489351692,-2.154725587085113,3.3816247873025995,0.16520920229920708,5.067484996633827,0.22057431200840508,8.381271266232812,-0.20428377146436671,-1.0,-0.2,1051.2388094713424,830.6895940064685,550.9463649014897,171.1646962503443
0.512,0.007974927402575669,3.2567130413033265,0.18590420959907214,47.9869857657355,6.462593026867497,7.492637089461601,0.021398857694876768,0.7248472879853352,0.3628745945205285,0.0,-0.5499875820438164,-2.1776557857306784,3.415494777181975,0.09531200913533926,4.987758780449984,0.17027563377283944,8.360470651582025,-0.20463039886401696,-1.0,-0.2,1050.9778595079717,830.28739764172,550.3397660447531,169.55465160149896
0.516,0.007963410768505295,3.240287478670783,0.18888264418386008,48.07771761147857,7.173244066991889,8.31730796222559,0.021688133937967025,0.7331508845974565,0.3671663042714669,0.0,-0.613776901835198,-2.201605849166653,3.4478875750331874,0.02345162126278739,4.85378583474255,0.1205847528155282,8.339144984985502,-0.20174407901859598,-1.0,-0.2,1050.4443884908865,830.2113516348604,550.2250301385023,166.21591986250863
0.52,0.008009172146152545,3.223671674958887,0.19190024362054497,48.155594975625796,7.857729473222171,9.099526549156861,0.021978549637163707,0.7414528189393758,0.37146529551844026,0.0,-0.6748285005874146,-2.2266376489828064,3.4790117770353746,-0.050331229911837506,4.670537340952329,0.07169507463047461,8.317015514156658,-0.19510252202645922,-1.0,-0.2,1049.591222821361,830.510825097949,550.6767890627043,160.73597521210817
0.524,0.008117755729965101,3.206866272123166,0.19495677114720683,48.21781883601696,8.51088659154196,9.83308154349281,0.022270080664028368,0.7497528120886993,0.37577132611981123,0.0,-0.7324803391594893,-2.2528088602906076,3.5091281826479226,-0.12621323215887115,4.445943247404888,0.02366837821755996,8.293863858434399,-0.18436780489232305,-1.0,-0.2,1048.3867640665017,831.216599730761,551.7406375059772,152.6732647636054
