Time_s,X,Y,Z,Roll_deg,Pitch_deg,Yaw_deg,Ref_X,Ref_Y,Ref_Z,Ref_Yaw,vx,vy,vz,p,q,r,T_pert,tau_x,tau_y,tau_z,RPM_0,RPM_1,RPM_2,RPM_3
0.0040000000000000036,3.3827230054016896e-22,2.0,0.010006999594037988,-2.096004393768565e-18,1.4202641527917514e-18,1.8284134537641468e-20,1.5272028043124417e-22,2.0,7.200000000000012e-05,0.0,6.963764715863389e-20,400.0,2.0013999188075973,0.0,0.0,0.0,-10.19,2.447572233571506e-18,-3.820715253651001e-18,-2.1358760407350176e-20,0.0,0.0,0.0,0.0
0.008000000000000007,4.552282744262172e-22,2.0,0.010010999365392528,-3.9742976152504245e-18,1.555125810157944e-18,4.923508923666757e-20,1.5272028043124417e-22,2.0,0.00021513340800000038,0.0,5.167453590219433e-20,222.22222222222223,1.1123332628213918,0.0,0.0,0.0,-0.034338475932384316,2.338136884187137e-18,3.8681629371237174e-19,-3.690769123334608e-20,534.6826504237879,534.682650423788,534.6826504237879,534.682650423788
0.01200000000000001,5.768180219232025e-22,2.0,0.010014999136747069,-7.049250044454533e-18,1.6822562535139107e-18,5.686613133727711e-20,1.5272028043124417e-22,2.0,0.00042854147030131276,0.0,3.3513730638870576e-20,-7.823693341691388e-23,0.0009999428386350817,0.0,0.0,0.0,0.11268126925151128,3.866731337669837e-18,-4.1295640121455735e-19,-1.0940728800818433e-20,538.6882899209492,538.6882899209493,538.6882899209492,538.6882899209492
0.016000000000000014,8.144519626877759e-22,2.0,0.010018998908101609,-8.94569126201972e-18,3.2360841309661703e-18,8.046855887848943e-20,1.5272028043124417e-22,2.0,0.0007113732083620786,0.0,5.3828504878686694e-20,-1.196876209393498e-22,0.0009999428386350817,0.0,0.0,0.0,0.2602150248187503,2.7057394625489304e-18,-3.3930259101148446e-18,-2.991515769812684e-20,542.6782129140881,542.6782129140882,542.6782129140881,542.6782129140882
0.020000000000000018,4.912879854921056e-22,2.0,0.010022998683089314,-9.726418065680016e-18,1.5062052663597896e-18,6.160001306332111e-20,1.5272028043124417e-22,2.0,0.0010627853561306145,0.0,-1.9552949464491823e-21,-1.5311632533132484e-22,0.0009999432019515767,0.0,0.0,0.0,0.40825158583157517,1.5388120160320974e-18,8.119887181843958e-18,1.8722845718855713e-20,546.6524638205162,546.6524638205163,546.6524638205162,546.6524638205162
0.023999999999999994,5.4641907089192795e-22,2.0,0.010026998472380344,-1.1185617741650143e-17,3.6659355288312006e-19,2.2212165538231606e-19,1.5272028043124417e-22,2.0,0.001481942297853104,0.0,-1.5189620518667853e-21,-1.7729332707238765e-22,0.0009999449956004866,0.0,0.0,0.0,0.556779856597203,2.3912650407030293e-18,-2.9251504924843923e-18,-1.900627582474745e-19,550.6110873355534,550.6110873355535,550.6110873355534,550.6110873355534
0.027999999999999997,6.756399687635964e-22,2.0,0.010030998282437862,-1.1669387978322839e-17,6.779948688088446e-19,4.5562229815561185e-19,1.5272028043124417e-22,2.0,0.001968016006352204,0.0,-3.1527807155578937e-21,-1.9019307233056974e-22,0.0009999488011993782,0.0,0.0,0.0,0.7057888792909827,1.3598170536370127e-18,-1.3115174789005233e-18,-2.8192081313940707e-19,554.5541291899066,554.5541291899067,554.5541291899066,554.5541291899066
0.032,6.094703962471698e-22,2.0,0.010034998115758953,-1.1109097300238065e-17,4.613887422501943e-19,7.01000141460379e-19,1.5272028043124417e-22,2.0,0.002520185981773086,0.0,1.9948705049265488e-20,-1.9538270274101654e-22,0.0009999540338081689,0.0,0.0,0.0,0.8552678100175246,1.8186142569947895e-19,2.3598708571019742e-18,-3.054153577256863e-19,558.4816354989777,558.4816354989777,558.4816354989777,558.4816354989777
0.036000000000000004,5.735842050089752e-22,2.0,0.01003899797268743,-1.2487330711561883e-17,9.578168207596327e-19,6.283321417787058e-19,1.5272028043124417e-22,2.0,0.0031376391907935734,0.0,-1.2912383028942087e-20,-2.036286975781309e-22,0.0009999598090806167,0.0,0.0,0.0,1.0052059146321466,2.4149804134206696e-18,-9.250436543984992e-19,5.598753651781261e-20,562.3936526534923,562.3936526534923,562.3936526534923,562.3936526534923
0.04000000000000001,5.201692842610366e-22,2.0,0.01004299785228055,-1.388380458796927e-17,8.262951324884114e-19,5.101787286025578e-19,1.5272028043124417e-22,2.0,0.0038195700062949468,0.0,-1.9284695003863433e-20,-2.176211426260402e-22,0.0009999656140685306,0.0,0.0,0.0,1.1555925696301248,2.539245066865132e-18,3.062099264242676e-19,1.1206180813196777e-19,566.2902273456218,566.2902273456219,566.2902273456218,566.2902273456219
0.04400000000000001,6.207492943540575e-22,2.0,0.010046997752822556,-1.484493554550793e-17,8.994386159847483e-19,7.484302515884424e-19,1.5272028043124417e-22,2.0,0.004565180147490077,0.0,1.1126004791246456e-20,-2.373268261891609e-22,0.0009999711530076297,0.0,0.0,0.0,1.306417261870407,2.136067957359583e-18,-1.9077517526763844e-18,-2.99459373399138e-19,570.1714065642218,570.1714065642219,570.1714065642218,570.1714065642218
0.048000000000000015,1.053178178247618e-21,2.0,0.010050997672383283,-1.5476994724931782e-17,1.0116434828889129e-18,9.771800141491494e-19,1.5272028043124417e-22,2.0,0.0053736786205055564,0.0,5.548468327430364e-20,-2.5547792487962196e-22,0.0009999762624906053,0.0,0.0,0.0,1.4576695875099714,1.827888316221786e-18,-4.160911159279629e-18,-2.981954392173782e-19,574.0372375702382,574.0372375702383,574.0372375702382,574.0372375702382
0.05200000000000002,1.0712439378307304e-21,2.0,0.01005499760906424,-1.551840403722197e-17,1.1717600566645745e-18,1.0239881227319572e-18,1.5272028043124417e-22,2.0,0.006244281659414512,0.0,5.008089542880521e-20,-2.65826241572964e-22,0.0009999809006098342,0.0,0.0,0.0,1.6093392516699268,1.192194018113744e-18,4.1878870149275225e-18,-9.512023835887954e-20,577.8877678916938,577.8877678916938,577.8877678916938,577.8877678916938
0.05600000000000002,1.0904855656075086e-21,2.0,0.010058997561049136,-1.563715755408171e-17,5.629967553695178e-19,9.031072179746315e-19,1.5272028043124417e-22,2.0,0.007176212667716821,0.0,3.462387965312881e-20,-2.7061859404995467e-22,0.0009999850691637044,0.0,0.0,0.0,1.7614160678817055,1.2961769082691186e-18,5.747215826398226e-19,9.877346643817911e-20,581.7230453134133,581.7230453134134,581.7230453134133,581.7230453134133
0.060000000000000026,1.1294348379841798e-21,2.0,0.010062997526541495,-1.5801959502249267e-17,6.616446486545571e-19,8.439877559809573e-19,1.5272028043124417e-22,2.0,0.008168702160263464,0.0,1.0086010136536505e-20,-2.73251901788384e-22,0.000999988785426592,0.0,0.0,0.0,1.91388995737916,1.3689865958903758e-18,-4.274938592769132e-19,3.152704512455082e-20,585.5431178633687,585.5431178633689,585.5431178633687,585.5431178633688
0.06400000000000003,1.0719629228733234e-21,2.0,0.010066997504022153,-1.580355767152483e-17,4.857365192492734e-19,8.276262159005813e-19,1.5272028043124417e-22,2.0,0.00922098770562178,0.0,-5.365989247395732e-23,-2.745456118692915e-22,0.0009999920775721413,0.0,0.0,0.0,2.0667509475232184,1.2007096530758788e-18,1.2220177113976967e-18,-1.6052255080872745e-20,589.3480337780926,589.3480337780927,589.3480337780926,589.3480337780926
0.06800000000000003,1.137322031580169e-21,2.0,0.010070997492223066,-1.5825246087547207e-17,5.150870676219355e-19,7.511745702130812e-19,1.5272028043124417e-22,2.0,0.010332313868878392,0.0,7.90563903155391e-22,-2.758277190109913e-22,0.0009999949998309304,0.0,0.0,0.0,2.219989171448624,1.2353119362555278e-18,-1.4801650454457667e-18,5.475656858416748e-20,593.1378414995983,593.1378414995984,593.1378414995983,593.1378414995984
0.07200000000000004,1.0617196124787235e-21,2.0,0.010075040288404925,-1.5764837706285944e-17,2.7427853038870627e-18,3.8993324302726085e-19,1.5272028043124417e-22,2.0,0.011501932154876646,0.0,-8.823034069244288e-22,-2.7706361618726825e-22,0.0010042774552604383,0.0,0.0,0.0,2.3735080072921346,1.1519760577298287e-18,-1.0787044433336263e-18,3.9052285903522445e-19,596.9104618862691,596.9104618862692,596.9104618862691,596.9104618862691
0.07599999999999998,3.5441376859020055e-22,2.0,0.010081427985097135,-2.7310089410420095e-18,7.297347624318455e-17,-3.9705039569235085e-18,1.5272028043124417e-22,2.0,0.012729100951885328,0.0,-7.107241860970457e-20,-2.5603229797366544e-22,0.0012430488247868257,0.0,0.0,0.0,2.522711156112981,-1.3990632152031264e-17,-7.48056960940085e-17,5.07702253953316e-18,600.5543184087772,600.5543184087774,600.5543184087772,600.5543184087774
0.07999999999999999,-1.027194280310994e-21,2.0,0.010095408206720127,3.986317989010055e-17,2.233859197297219e-16,-1.145271768703109e-17,1.5272028043124417e-22,2.0,0.014013085475695655,0.0,-2.1558039443222463e-19,4.084780573329651e-22,0.002241071675629022,0.0,0.0,0.0,2.6615376614487123,-4.9398599774791445e-17,-1.7225819077209275e-16,8.903081949421605e-18,603.9250103961483,603.9250103961483,603.9250103961483,603.9250103961483
0.08399999999999999,-3.124043049219843e-21,2.0,0.010121904066422957,1.4268087929386977e-16,4.957261249940816e-16,-2.3805124415142643e-17,1.5272028043124417e-22,2.0,0.015353157714143133,0.0,-4.158456706194403e-19,5.355934419364427e-21,0.004428953151185133,0.0,0.0,0.0,2.7904693551464104,-1.2266406551529894e-16,-3.2401940625113024e-16,1.4900280817731413e-17,607.0386947861786,607.0386947861784,607.0386947861786,607.0386947861786
0.088,-4.6007432146414646e-21,2.0,0.010165449605382217,2.905815331524719e-16,8.31627429607806e-16,-4.042251317666711e-17,1.5272028043124417e-22,2.0,0.016748596372051533,0.0,-5.121133675082057e-19,2.3287900089248934e-20,0.007829691288710472,0.0,0.0,0.0,2.9101295225139028,-1.8243942018397592e-16,-4.321438522893125e-16,2.0391345734751322e-17,609.9142509078551,609.914250907855,609.9142509078551,609.9142509078551
0.092,-4.092341959572352e-21,2.0,0.010230162958106245,4.654494904304598e-16,1.1989308364688687e-15,-5.83151648531934e-17,1.5272028043124417e-22,2.0,0.018198686816595637,0.0,-3.955064305374767e-19,6.716227286970164e-20,0.012336466400201737,0.0,0.0,0.0,3.0212083955474274,-2.242466757601451e-16,-5.087576884328611e-16,2.2566239957075245e-17,612.5715086705441,612.5715086705441,612.5715086705441,612.5715086705441
0.096,-2.0368847461588968e-22,2.0,0.010319768465010558,6.499391173105442e-16,1.5776923571641805e-15,-7.898471327277104e-17,1.5272028043124417e-22,2.0,0.019702721023079815,0.0,1.1623967347911348e-21,1.4852197872829984e-19,0.017848957453348545,0.0,0.0,0.0,3.1243646698835263,-2.4776504183416983e-16,-5.660026741950632e-16,2.6548895485460665e-17,615.0289583398283,615.0289583398281,615.0289583398283,615.0289583398281
0.1,7.921117932789317e-21,2.0,0.010437598263001878,8.72821889439186e-16,2.009237187027211e-15,-9.966446755572364e-17,1.5272028043124417e-22,2.0,0.02125999752112935,0.0,5.840682076333224e-19,2.815003202809987e-19,0.02426800459502353,0.0,0.0,0.0,3.220266450312963,-3.0566754276062687e-16,-6.674821796075707e-16,2.7415089892899495e-17,617.3048120809356,617.3048120809354,617.3048120809356,617.3048120809354
0.10400000000000001,2.182307775846989e-20,2.0,0.010586692335027084,1.1304162101464317e-15,2.483615789105977e-15,-1.2122472072434048e-16,1.5272028043124417e-22,2.0,0.022869821341291532,0.0,1.336244663302119e-18,4.847841676641696e-19,0.03150525182599451,0.0,0.0,0.0,3.3093913767035055,-3.620519398595087e-16,-7.700190925093522e-16,2.9299786974469325e-17,619.4123472275348,619.4123472275347,619.4123472275348,619.4123472275347
0.10800000000000001,4.321022647563056e-20,2.0,0.010769832203593448,1.4215881265278234e-15,2.993424944261323e-15,-1.4160138590789414e-16,1.5272028043124417e-22,2.0,0.02453150396204348,0.0,2.28428924441168e-18,7.812717736650749e-19,0.03948720323602526,0.0,0.0,0.0,3.392158105540283,-4.196656762091697e-16,-8.70493912149057e-16,2.881096550456924e-17,621.363128682913,621.3631286829127,621.363128682913,621.3631286829128
0.11200000000000002,7.386553704535001e-20,2.0,0.010989577306338504,1.7448777761886979e-15,3.5394146557281786e-15,-1.5912038938478248e-16,1.5272028043124417e-22,2.0,0.026244363257203772,0.0,3.4701746543917845e-18,1.1942178874177121e-18,0.0481518503159032,0.0,0.0,0.0,3.4689197927544475,-4.780740759340957e-16,-9.770408812455814e-16,2.631938183500086e-17,623.1669152774863,623.1669152774859,623.1669152774862,623.166915277486
0.11600000000000002,1.1579719697816996e-19,2.0,0.011248315597070558,2.091820810989578e-15,4.116093090570655e-15,-1.7721847398509263e-16,1.5272028043124417e-22,2.0,0.02800772344374488,0.0,4.8938750765101136e-18,1.7432359356085902e-18,0.057447244915986864,0.0,0.0,0.0,3.539934063351178,-5.290203676642732e-16,-1.084292283598231e-15,2.7726335514234805e-17,624.8310090525405,624.8310090525401,624.8310090525404,624.8310090525404
0.12000000000000002,1.7134423581918927e-19,2.0,0.011548233832468014,2.4405997486161328e-15,4.698656909062267e-15,-1.9653648227501002e-16,1.5272028043124417e-22,2.0,0.02982091503000352,0.0,6.602970243105926e-18,2.440011464817824e-18,0.06732587636402633,0.0,0.0,0.0,3.605524397453635,-5.563493650041324e-16,-1.1707961877358774e-15,2.9906937066157316e-17,626.3640750173734,626.364075017373,626.3640750173732,626.3640750173732
0.12400000000000003,2.4335555220285996e-19,2.0,0.011891332914924342,2.7394955096959597e-15,5.219111687849894e-15,-2.134723578512137e-16,1.5272028043124417e-22,2.0,0.03168327476428598,0.0,8.694297857907282e-18,3.2707742881822605e-18,0.07774018445785083,0.0,0.0,0.0,3.665989635311609,-5.236533548727077e-16,-1.1868265848464654e-15,2.793120979013796e-17,627.7740338395547,627.7740338395544,627.7740338395547,627.7740338395545
0.12800000000000003,3.3439824606539683e-19,2.0,0.01227944508169438,2.9260439328685694e-15,5.624620041175024e-15,-2.250309266121302e-16,1.5272028043124417e-22,2.0,0.03359414558386553,0.0,1.1281622665799348e-17,4.171140418384995e-18,0.088644704796656,0.0,0.0,0.0,3.7215997410222936,-4.1481345857201326e-16,-1.1366373847336448e-15,2.236000984938304e-17,629.0679884911762,629.0679884911758,629.067988491176,629.0679884911759
0.13200000000000003,4.46253456926576e-19,2.0,0.012714249015623508,2.992478646740247e-15,5.904819296290161e-15,-2.336085739121111e-16,1.5272028043124417e-22,2.0,0.03555287656436911,0.0,1.4392858714570998e-17,5.037068314618601e-18,0.0999981517284346,0.0,0.0,0.0,3.772599472611874,-2.8935217669203778e-16,-1.0600715830727063e-15,1.9368164361076918e-17,630.2523320639413,630.252332063941,630.2523320639413,630.252332063941
0.13600000000000004,5.799512662694802e-19,2.0,0.013197283138734096,2.9646672542927785e-15,6.080059049144554e-15,-2.349172674196301e-16,1.5272028043124417e-22,2.0,0.03755882286955033,0.0,1.7923518425816626e-17,5.7857173244649084e-18,0.11176291167122702,0.0,0.0,0.0,3.819211588059144,-1.859300526433821e-16,-9.919849590833759e-16,1.1245411648724087e-17,631.3328407578852,631.3328407578849,631.3328407578852,631.3328407578849
0.14000000000000004,7.371833865569332e-19,2.0,0.013729950834217906,2.8695809783980738e-15,6.066783651603856e-15,-2.317742863595458e-16,1.5272028043124417e-22,2.0,0.039611345701446074,0.0,2.1920330573652036e-17,6.3821002246113734e-18,0.12390395390643372,0.0,0.0,0.0,3.8616528027116255,-1.0753891098371798e-16,-8.282221956826259e-16,6.115291297038815e-18,632.3150584519897,632.3150584519894,632.3150584519897,632.3150584519896
0.144,9.184512130932476e-19,2.0,0.014313520582515227,2.7164675504080894e-15,5.839145263426734e-15,-2.293505373891546e-16,1.5272028043124417e-22,2.0,0.04170981225091379,0.0,2.6485563709033036e-17,6.8159769474958736e-18,0.1363874269627594,0.0,0.0,0.0,3.900143944508855,-3.527984595850062e-17,-6.093247866549308e-16,6.842588091211004e-18,633.2045420549828,633.2045420549827,633.2045420549828,633.2045420549827
0.148,1.1230121117265653e-18,2.0,0.014949178303584672,2.5215653039044853e-15,5.415586173668093e-15,-2.279165575493172e-16,1.5272028043124417e-22,2.0,0.043853595648546885,0.0,3.160961582050702e-17,7.07956710471458e-18,0.14918464569324744,0.0,0.0,0.0,3.934803996078636,2.2092118526116856e-17,-3.8349398172925826e-16,7.915279703554938e-18,634.0044260281444,634.0044260281444,634.0044260281444,634.0044260281443
0.152,1.3489698564532763e-18,2.0,0.01563800539703362,2.2977664543457528e-15,4.854122971863684e-15,-2.2561158058424073e-16,1.5272028043124417e-22,2.0,0.046042074915965035,0.0,3.706075383220381e-17,7.167735997365913e-18,0.1622708892955306,0.0,0.0,0.0,3.9657992231064942,6.74031113339158e-17,-1.9808002603867274e-16,6.8548450813129705e-18,634.7188794695625,634.7188794695626,634.7188794695625,634.7188794695625
0.156,1.5942816412827914e-18,2.0,0.016380971834910954,2.0495655399706405e-15,4.168801962997437e-15,-2.1900836542426318e-16,1.5272028043124417e-22,2.0,0.048274634917477195,0.0,4.269453707780264e-17,7.085861580465553e-18,0.1756203565850569,0.0,0.0,0.0,3.993313324402452,1.0959794556837758e-16,-1.635826302180807e-17,1.7549240780545345e-18,635.352418329372,635.3524183293721,635.352418329372,635.352418329372
0.16,1.8563344751410523e-18,2.0,0.017178964227896307,1.786947351542628e-15,3.381799236493236e-15,-2.1387115249074082e-16,1.5272028043124417e-22,2.0,0.050550666312114176,0.0,4.839908420140282e-17,6.830383433841562e-18,0.1892080835587043,0.0,0.0,0.0,4.017476672689051,1.4197516416065614e-16,1.5639298711421262e-16,3.2115869021564388e-18,635.9082822939646,635.9082822939647,635.9082822939647,635.9082822939647
0.164,2.132189366827187e-18,2.0,0.018032802260475905,1.5014228989410186e-15,2.505314246478571e-15,-2.0942229092552977e-16,1.5272028043124417e-22,2.0,0.05286956550602828,0.0,5.412232322441899e-17,6.3987815997563156e-18,0.20301379545884896,0.0,0.0,0.0,4.038389024799298,1.854344810113874e-16,3.280467579018253e-16,3.819670677974041e-18,636.3889670204192,636.3889670204194,636.3889670204193,636.3889670204194
0.168,2.4185789789379718e-18,2.0,0.018943246942040762,1.2018302390186985e-15,1.5489020146769842e-15,-2.057337480347687e-16,1.5272028043124417e-22,2.0,0.0552307346052572,0.0,5.978101811557213e-17,5.778294288321017e-18,0.21702091773707285,0.0,0.0,0.0,4.056135606980891,2.2033903090640825e-16,5.012640414131986e-16,4.539778980683501e-18,636.7965997492755,636.7965997492757,636.7965997492755,636.7965997492756
0.17200000000000001,2.7124395236654222e-18,2.0,0.019910971817002195,8.829668230018179e-16,4.691286456995157e-16,-2.0579049205665605e-16,1.5272028043124417e-22,2.0,0.05763358136884958,0.0,6.546493845244311e-17,4.947792703606611e-18,0.23121193139738622,0.0,0.0,0.0,4.070862026631039,2.62489938069837e-16,7.314513012941041e-16,8.777765820755467e-18,637.1346624099795,637.1346624099798,637.1346624099795,637.1346624099797
0.17600000000000002,3.0092866571085255e-18,2.0,0.020936572511205086,5.375135718629532e-16,-6.823887112940593e-16,-2.06440569842603e-16,1.5272028043124417e-22,2.0,0.060077519162349574,0.0,7.112329401245217e-17,3.888929866434268e-18,0.24556676548332726,0.0,0.0,0.0,4.082697385535813,3.1472795959870247e-16,9.294776860591867e-16,9.487570459715593e-18,637.4062273421147,637.4062273421151,637.4062273421148,637.406227342115
0.18000000000000002,3.3046662460338386e-18,2.0,0.022020582243276743,2.0752972033646911e-16,-1.8908320615812547e-15,-2.111618108074535e-16,1.5272028043124417e-22,2.0,0.06256196691163772,0.0,7.663675976439604e-17,2.607610950750748e-18,0.2600671433843172,0.0,0.0,0.0,4.091741869184945,3.199114980269476e-16,1.11918154339557e-15,1.42844393815137e-17,637.6136770567365,637.613677056737,637.6136770567366,637.6136770567368
0.18400000000000002,3.5933846203108094e-18,2.0,0.023163479304638072,-6.926676942864616e-17,-3.0918963948516495e-15,-2.211788895210274e-16,1.5272028043124417e-22,2.0,0.0650863490571256,0.0,8.175959860035292e-17,1.208358995085164e-18,0.27469761708786977,0.0,0.0,0.0,4.098082551543907,2.8022308807475137e-16,1.2508213175345579e-15,2.0679426524238455e-17,637.7590705238874,637.759070523888,637.7590705238875,637.7590705238879
0.18800000000000003,3.87043047260002e-18,2.0,0.02436569001557334,-2.877045767885527e-16,-4.244366067313581e-15,-2.3408354342844176e-16,1.5272028043124417e-22,2.0,0.06765009550830156,0.0,8.626527191041257e-17,-1.4915747702827938e-19,0.2894444626488316,0.0,0.0,0.0,4.1018023375099535,2.310521219143153e-16,1.3369148009938419e-15,2.4479345648463102e-17,637.8443507424217,637.8443507424223,637.8443507424219,637.8443507424222
0.19200000000000003,4.130988606822963e-18,2.0,0.025627578669191152,-4.345336399867176e-16,-5.312000250239684e-15,-2.552856314035221e-16,1.5272028043124417e-22,2.0,0.07025264159862511,0.0,8.991796708373962e-17,-1.3370262179839386e-18,0.30429371188111787,0.0,0.0,0.0,4.103006276453596,1.625704226074631e-16,1.3801931450119933e-15,3.471830944183483e-17,637.8719499355996,637.8719499356,637.8719499355998,637.8719499356001
0.19600000000000004,4.3711629518545816e-18,2.0,0.026949459713563526,-4.55813832887505e-16,-6.321170739790398e-15,-2.8645518039060783e-16,1.5272028043124417e-22,2.0,0.07289342804076723,0.0,9.268366301064445e-17,-2.192293974733897e-18,0.3192313107275222,0.0,0.0,0.0,4.101776749576622,2.630682077955857e-17,1.4427289076142147e-15,4.7250328315924726e-17,637.8437641496198,637.8437641496203,637.8437641496199,637.8437641496204
0.20000000000000004,4.586550898912445e-18,2.0,0.028331594181854148,-3.4780527095371374e-16,-7.223930905041577e-15,-3.210170429487111e-16,1.5272028043124417e-22,2.0,0.07557190088219418,0.0,9.450768080801458e-17,-2.4883453727959335e-18,0.33424405574171284,0.0,0.0,0.0,4.098205050019623,-1.2289443857291054e-16,1.4554201029853158e-15,5.251300732098181e-17,637.7618791188789,637.7618791188794,637.761879118879,637.7618791188795
0.20400000000000004,4.7735281893424895e-18,2.0,0.029774193863486433,-1.4372787064429072e-16,-8.012903265439568e-15,-3.599158548463658e-16,1.5272028043124417e-22,2.0,0.07828751146109224,0.0,9.52937528170069e-17,-2.065905925100013e-18,0.3493191219335105,0.0,0.0,0.0,4.092375785607876,-2.422202012171999e-16,1.4478120591812836e-15,5.902088246354898e-17,637.628214413907,637.6282144139074,637.6282144139071,637.6282144139076
0.20800000000000005,4.928883992636899e-18,2.0,0.03127742502305706,1.5780849596050103e-16,-8.678482671267745e-15,-4.04403124597511e-16,1.5272028043124417e-22,2.0,0.08103971636263092,0.0,9.4943301611531e-17,-9.21761774939099e-19,0.364444406066923,0.0,0.0,0.0,4.084367663238792,-3.6988114922681913e-16,1.4203915636237265e-15,6.71715221966401e-17,637.4445429183437,637.444542918344,637.4445429183438,637.4445429183443
0.212,5.050407344646684e-18,2.0,0.032841412182572215,5.495787958722571e-16,-9.263517967517313e-15,-4.523594261060246e-16,1.5272028043124417e-22,2.0,0.08382797737556205,0.0,9.358530867429222e-17,9.67709919059164e-19,0.3796087713716312,0.0,0.0,0.0,4.074253241304838,-4.959801795478685e-16,1.4265497703520131e-15,7.30789229651814e-17,637.212486411879,637.2124864118794,637.2124864118791,637.2124864118797
0.216,5.135625095583924e-18,2.0,0.0344662334875131,9.797393516818916e-16,-9.749439183703795e-15,-4.953196362909008e-16,1.5272028043124417e-22,2.0,0.08665176144915253,0.0,9.129541087645523e-17,3.5651924237193575e-18,0.3948011832151044,0.0,0.0,0.0,4.062115889359392,-5.679835858823362e-16,1.4113595394298111e-15,6.924351897509999e-17,636.9339059559725,636.9339059559728,636.9339059559725,636.9339059559732
0.22,5.1821731738026814e-18,2.0,0.036151919889799405,1.3810669500636435e-15,-1.0093306516531057e-14,-5.314681222583661e-16,1.5272028043124417e-22,2.0,0.08951054065044775,0.0,8.800690432056025e-17,6.6462006269919655e-18,0.41001020065176624,0.0,0.0,0.0,4.048042188887053,-5.644137937124962e-16,1.3409619856057537e-15,6.308501226081803e-17,636.6107291670685,636.6107291670688,636.6107291670685,636.610729167069
0.224,5.188532062035507e-18,2.0,0.03789846763946791,1.7454604729497464e-15,-1.0284091845520556e-14,-5.677479615346275e-16,1.5272028043124417e-22,2.0,0.092403792121864,0.0,8.348033779848144e-17,9.873019686207854e-18,0.42522516305937286,0.0,0.0,0.0,4.032094948608253,-5.496925770224109e-16,1.2409701855001785e-15,6.475993032908551e-17,636.2443315735312,636.2443315735314,636.2443315735312,636.2443315735318
0.228,5.153646385673397e-18,2.0,0.0397058349416547,2.0721966354471806e-15,-1.0298150550293525e-14,-5.996046315245608e-16,1.5272028043124417e-22,2.0,0.09533099803910688,0.0,7.759176318476708e-17,1.3056960536781827e-17,0.4404367050084145,0.0,0.0,0.0,4.014344942508638,-5.318555121060541e-16,1.0995545547548191e-15,6.112237240042893e-17,635.8362660475846,635.8362660475848,635.8362660475846,635.836266047585
0.232,5.0775306076247754e-18,2.0,0.04157394597905393,2.346473162803094e-15,-1.0151745769296197e-14,-6.266006102769155e-16,1.5272028043124417e-22,2.0,0.09829164556941344,0.0,7.031808010107219e-17,1.610968311510951e-17,0.4556358128032699,0.0,0.0,0.0,3.994856067541856,-4.943863566619412e-16,9.541571781987146e-16,5.679431409806237e-17,635.3879227830882,635.3879227830885,635.3879227830882,635.3879227830887
0.23600000000000002,4.9610554131598996e-18,2.0,0.04350269626902546,2.5727212710162563e-15,-9.881784728951358e-15,-6.492453870490811e-16,1.5272028043124417e-22,2.0,0.10128522683011582,0.0,6.180253001706373e-17,1.8951965655449688e-17,0.47081433500230707,0.0,0.0,0.0,3.973682506185192,-4.586958425415339e-16,8.314930782578643e-16,5.2863708864903e-17,634.9004643228691,634.9004643228692,634.9004643228691,634.9004643228694
0.24000000000000002,4.8059535271709835e-18,2.0,0.04549193731213661,2.7545923602953732e-15,-9.559277523851863e-15,-6.724756671620369e-16,1.5272028043124417e-22,2.0,0.10431123884752388,0.0,5.248957077760143e-17,2.1528843918717294e-17,0.48596344601027974,0.0,0.0,0.0,3.950910583498315,-4.2414284048302762e-16,7.730365394692615e-16,5.45228626354413e-17,634.3757902864264,634.3757902864266,634.3757902864264,634.3757902864269
0.24400000000000002,4.613660039776873e-18,2.0,0.04754149198531069,2.899518822970607e-15,-9.19969330099997e-15,-6.938974407015389e-16,1.5272028043124417e-22,2.0,0.10736918351612454,0.0,4.278447767839817e-17,2.384901187874044e-17,0.5010742290612165,0.0,0.0,0.0,3.926596859348026,-3.9536124788128493e-16,7.315253603746995e-16,5.341109869251968e-17,633.8151131071223,633.8151131071224,633.8151131071224,633.8151131071227
0.24800000000000003,4.38570726688454e-18,2.0,0.049651171546172934,3.0200412195912658e-15,-8.813380830736546e-15,-7.140921642311149e-16,1.5272028043124417e-22,2.0,0.11045856755809541,0.0,3.2927144224067307e-17,2.5930179896512673e-17,0.5161405480532635,0.0,0.0,0.0,3.9007643672185597,-3.787984906551143e-16,6.976389502403988e-16,5.290580038374248e-17,633.2188690392587,633.218869039259,633.2188690392588,633.2188690392592
0.252,4.123752278171413e-18,2.0,0.051820732758527666,3.133134746498887e-15,-8.410599309227098e-15,-7.336650487153554e-16,1.5272028043124417e-22,2.0,0.11357890248313054,0.0,2.2995452028222518e-17,2.785840939147366e-17,0.531154635506543,0.0,0.0,0.0,3.8735235966930004,-3.804735527113186e-16,6.715398250682915e-16,5.305850741918384e-17,632.5895114850001,632.5895114850003,632.5895114850002,632.5895114850006
0.256,3.829527780463062e-18,2.0,0.054049900175510215,3.264699042422555e-15,-8.002459647035676e-15,-7.542521608341625e-16,1.5272028043124417e-22,2.0,0.11672970454857585,0.0,1.3122407681092428e-17,2.978390628926389e-17,0.5461069747339745,0.0,0.0,0.0,3.844941621243296,-4.1196341240925247e-16,6.553587179684616e-16,5.509823078058039e-17,631.9284935353206,631.9284935353209,631.9284935353207,631.9284935353211
0.26,3.504581127507723e-18,2.0,0.05633837573995183,3.4043952977289873e-15,-7.579469095915517e-15,-7.753558885306779e-16,1.5272028043124417e-22,2.0,0.11991049471987207,0.0,3.3408562073058115e-18,3.184020927626651e-17,0.560989219774001,0.0,0.0,0.0,3.8150671273028576,-4.3273523336436483e-16,6.28746388664095e-16,5.659974927423027e-17,631.2368435276243,631.2368435276244,631.2368435276243,631.2368435276246
0.264,3.149938237294685e-18,2.0,0.058685850308621806,3.547023462347307e-15,-7.076635073284442e-15,-7.938694120183325e-16,1.5272028043124417e-22,2.0,0.12312079863130282,0.0,-6.5741102918195515e-18,3.405797901594487e-17,0.5757966332232577,0.0,0.0,0.0,3.783926203148929,-4.480883964458421e-16,5.302829232145617e-16,5.4494698192433294e-17,630.5150656704103,630.5150656704104,630.5150656704103,630.5150656704106
0.268,2.767088058357895e-18,2.0,0.06109198864472455,3.712548254896199e-15,-6.451679734678211e-15,-8.117896017419275e-16,1.5272028043124417e-22,2.0,0.12636014654704567,0.0,-1.7102717309118372e-17,3.6443526197742353e-17,0.5905245809802049,0.0,0.0,0.0,3.751575817565572,-4.870550723998535e-16,3.7094041495273865e-16,5.461723792274841e-17,629.7643791167991,629.7643791167992,629.7643791167991,629.7643791167993
0.272,2.3585653929736777e-18,2.0,0.0635564247981168,3.903928769264901e-15,-5.7215529321684874e-15,-8.293197783163976e-16,1.5272028043124417e-22,2.0,0.12962807332252388,0.0,-2.8578645674424796e-17,3.9078467963546036e-17,0.605166669124877,0.0,0.0,0.0,3.718083215703076,-5.311584619888634e-16,2.097084772009303e-16,5.4954175153939936e-17,628.9862436387697,628.9862436387698,628.9862436387697,628.9862436387699
0.276,1.9266760568597364e-18,2.0,0.06607875140930865,4.1122993838182275e-15,-4.839001377846531e-15,-8.471822533744919e-16,1.5272028043124417e-22,2.0,0.13292411836605678,0.0,-4.1102167501388946e-17,4.2030040906859663e-17,0.6197143298795886,0.0,0.0,0.0,3.6835383976447784,-5.668108623754873e-16,-1.3349224682118491e-17,5.612009523345722e-17,628.1826521826301,628.1826521826301,628.1826521826301,628.1826521826304
0.28,1.4754258124390269e-18,2.0,0.0686585391248819,4.342835243802525e-15,-3.874972204854392e-15,-8.639038983694364e-16,1.5272028043124417e-22,2.0,0.1362478256008061,0.0,-5.4567365446590094e-17,4.530551733935943e-17,0.6341594736715652,0.0,0.0,0.0,3.6479933473265187,-6.09813741007138e-16,-1.8586703926617313e-16,5.558006050582303e-17,627.3547185637152,627.354718563715,627.3547185637152,627.3547185637153
0.28400000000000003,1.0087780472683308e-18,2.0,0.07129533881073002,4.592582630846074e-15,-2.857517455669807e-15,-8.783795148396755e-16,1.5272028043124417e-22,2.0,0.13959874342701678,0.0,-6.868344407466868e-17,4.8904943860450135e-17,0.648496063428118,0.0,0.0,0.0,3.6114963251961685,-6.510441234597391e-16,-3.3431036809243605e-16,5.370330044773341e-17,626.5034726546074,626.5034726546073,626.5034726546074,626.5034726546075
0.28800000000000003,5.299139380134614e-19,2.0,0.07398868743472548,4.863760198575595e-15,-1.7187591957246412e-15,-8.882317209517081e-16,1.5272028043124417e-22,2.0,0.14297642468454957,0.0,-8.32343642461418e-17,5.284224278209845e-17,0.6627197173137424,0.0,0.0,0.0,3.5740843499815407,-6.963533859892286e-16,-5.602264809189266e-16,4.8958163902904856e-17,625.6296845053931,625.6296845053929,625.629684505393,625.6296845053931
0.29200000000000004,4.351175311906718e-20,2.0,0.07673812218072128,5.125330963501866e-15,-5.0207259466705e-16,-8.888846151494542e-16,1.5272028043124417e-22,2.0,0.14638042661570333,0.0,-9.837696455928655e-17,5.706889072053873e-17,0.6768280867679916,0.0,0.0,0.0,3.535766304999384,-7.070745216592788e-16,-7.643915128222172e-16,3.867848646043573e-17,624.733467449531,624.7334674495307,624.7334674495308,624.733467449531
0.29600000000000004,-4.465352384819337e-19,2.0,0.07954316036957533,5.3421844695476785e-15,8.600904389567431e-16,-8.835739950881721e-16,1.5272028043124417e-22,2.0,0.14981031082832508,0.0,-1.1435789191541325e-16,6.13158193372257e-17,0.6908187799925913,0.0,0.0,0.0,3.496591882845994,-6.76321715194812e-16,-1.0481474279631428e-15,3.180102458586479e-17,623.8158896189808,623.8158896189805,623.8158896189807,623.8158896189807
0.30000000000000004,-9.348737289741161e-19,2.0,0.08240329344105216,5.53355352445595e-15,2.334507534506016e-15,-8.716708954022082e-16,1.5272028043124417e-22,2.0,0.15326564325920555,0.0,-1.3119188077588853e-16,6.532991522372259e-17,0.7046870182455172,0.0,0.0,0.0,3.4566236882031065,-6.651212014748881e-16,-1.3241171727477152e-15,2.3943579868949875e-17,622.8783262832777,622.8783262832773,622.8783262832776,622.8783262832775
0.30400000000000005,-1.415666720589793e-18,2.0,0.08531797944973568,5.6942801678096266e-15,3.884255127738648e-15,-8.560723930458281e-16,1.5272028043124417e-22,2.0,0.15674599413775814,0.0,-1.4877195079213428e-16,6.902627401646891e-17,0.7184258101383165,0.0,0.0,0.0,3.4159404450536774,-6.462884838592961e-16,-1.5757079261606202e-15,1.9198839728085155e-17,621.9225379753767,621.9225379753761,621.9225379753766,621.9225379753764
0.30800000000000005,-1.883348242395976e-18,2.0,0.08828667548108841,5.824327531512111e-15,5.5256088787772795e-15,-8.355846941705935e-16,1.5272028043124417e-22,2.0,0.16025093794997913,0.0,-1.6679040500960354e-16,7.243581719273648e-17,0.7320301634828149,0.0,0.0,0.0,3.3745562168730077,-6.2542952174795935e-16,-1.854274825382468e-15,1.2906725491593206e-17,620.9487717090553,620.9487717090549,620.9487717090553,620.948771709055
0.31200000000000006,-2.3312636916527055e-18,2.0,0.09130880800662895,5.880810660432909e-15,7.197190802068688e-15,-8.049808487908637e-16,1.5272028043124417e-22,2.0,0.16378005340268728,0.0,-1.8499058523607808e-16,7.539062587673117e-17,0.7454957908416784,0.0,0.0,0.0,3.332545326270073,-5.5248527648263675e-16,-2.086030520234558e-15,3.06510681552679e-19,619.9586957418176,619.9586957418169,619.9586957418173,619.958695741817
0.31600000000000006,-2.7527671820251045e-18,2.0,0.09438381264827163,5.85337009143375e-15,8.852045031517114e-15,-7.700851874336024e-16,1.5272028043124417e-22,2.0,0.16733292338804043,0.0,-2.028159251772123e-16,7.755668424728203e-17,0.7588200612872742,0.0,0.0,0.0,3.28990243254834,-4.624528862862525e-16,-2.2718693408874465e-15,-5.907503152822631e-18,618.9521056364616,618.9521056364608,618.9521056364614,618.9521056364608
0.32000000000000006,-3.142057744511128e-18,2.0,0.09751113101788114,5.781493459395133e-15,1.0519684689308163e-14,-7.351121037870398e-16,1.5272028043124417e-22,2.0,0.17090913494832735,0.0,-2.1991692299051568e-16,7.879837828380099e-17,0.7720034216974689,0.0,0.0,0.0,3.2466283800421163,-4.1277342792382634e-16,-2.488227603728927e-15,-7.377110689601008e-18,617.928940669528,617.9289406695273,617.9289406695278,617.9289406695274
0.32400000000000007,-3.492425654606114e-18,2.0,0.10069016186960958,5.644888484890907e-15,1.2138421527586866e-14,-6.964215344061545e-16,1.5272028043124417e-22,2.0,0.1745082792410327,0.0,-2.360220218372281e-16,7.915245779873608e-17,0.7850425905861839,0.0,0.0,0.0,3.2028230212482542,-3.3630919472489746e-16,-2.6504704763475915e-15,-1.3104508723015344e-17,616.8914851981641,616.8914851981633,616.891485198164,616.8914851981634
0.32800000000000007,-3.798067127622662e-18,2.0,0.10392026849394082,5.464596242988182e-15,1.3717482724014058e-14,-6.57362330837101e-16,1.5272028043124417e-22,2.0,0.17812995150417293,0.0,-2.5091609698739893e-16,7.871116310583299e-17,0.797929993263824,0.0,0.0,0.0,3.1585726301714487,-2.798936606716921e-16,-2.816880294014091e-15,-1.50752716354232e-17,615.8417154607616,615.8417154607608,615.8417154607615,615.8417154607608
0.3320000000000001,-4.053191916156023e-18,2.0,0.10720080827912665,5.2517010356382014e-15,1.524797560931361e-14,-6.170974562190779e-16,1.5272028043124417e-22,2.0,0.18177375102190133,0.0,-2.6439079439293687e-16,7.752126277884337e-17,0.8106585999487894,0.0,0.0,0.0,3.1139046771281214,-2.333083183922793e-16,-2.976653017274828e-15,-1.8041690114596508e-17,614.7802217467521,614.7802217467513,614.780221746752,614.7802217467512
0.3360000000000001,-4.2524672964742046e-18,2.0,0.11053110107910032,5.007289696613e-15,1.6744301237333384e-14,-5.789418018338017e-16,1.5272028043124417e-22,2.0,0.1854392810903802,0.0,-2.7653664420327165e-16,7.571349935219587e-17,0.823223208462713,0.0,0.0,0.0,3.0689110791158742,-1.8561401010904798e-16,-3.151266713279947e-15,-1.7188111145090963e-17,613.7091332512027,613.7091332512019,613.7091332512026,613.7091332512018
0.3400000000000001,-4.389810268867958e-18,2.0,0.11391048078237856,4.754279473872469e-15,1.8129955552366044e-14,-5.407189310225994e-16,1.5272028043124417e-22,2.0,0.18912614898391802,0.0,-2.870681432463507e-16,7.341923756811743e-17,0.8356202852810787,0.0,0.0,0.0,3.0235803500418577,-1.623551355565265e-16,-3.249321983345485e-15,-1.8793006749550378e-17,612.6281254970817,612.6281254970809,612.6281254970817,612.6281254970808
0.3440000000000001,-4.4601541050846755e-18,2.0,0.11733827424131736,4.4841533820006746e-15,1.9391567973339232e-14,-5.012089200958641e-16,1.5272028043124417e-22,2.0,0.19283396592137,0.0,-2.954951407672515e-16,7.074155918068281e-17,0.8478497210478804,0.0,0.0,0.0,2.97794337955305,-1.2838605469103575e-16,-3.3193802328870186e-15,-2.1828394712345825e-17,611.5378844760523,611.5378844760514,611.5378844760522,611.5378844760514
0.3480000000000001,-4.45916233183216e-18,2.0,0.12081380809697925,4.211333955236505e-15,2.0539091308264485e-14,-4.6017044139696e-16,1.5272028043124417e-22,2.0,0.19656234703279937,0.0,-3.014504220288261e-16,6.776455678092817e-17,0.8599111101790541,0.0,0.0,0.0,2.932017489640681,-1.0989962697409872e-16,-3.390261130682654e-15,-2.5201303973422105e-17,610.4387756435361,610.4387756435352,610.438775643536,610.4387756435351
0.3520000000000001,-4.382923647092474e-18,2.0,0.12433640637725675,3.946533422831562e-15,2.157840910355296e-14,-4.2131077479683533e-16,1.5272028043124417e-22,2.0,0.20031091132639842,0.0,-3.050337372283157e-16,6.459055474619024e-17,0.8718038231464874,0.0,0.0,0.0,2.88582494238232,-1.035475758724787e-16,-3.4608465683375143e-15,-2.4309152945205484e-17,609.3312852425496,609.3312852425487,609.3312852425495,609.3312852425486
0.3560000000000001,-4.228610150796934e-18,2.0,0.12790536215297602,3.690499358961852e-15,2.2578575392588918e-14,-3.8283874590572917e-16,1.5272028043124417e-22,2.0,0.20407928165566652,0.0,-3.067037100665821e-16,6.136500067679454e-17,0.8835248207637315,0.0,0.0,0.0,2.8394456657576157,-9.843197672695782e-17,-3.59728319357159e-15,-2.5422620722762298e-17,608.2172890600513,608.2172890600502,608.2172890600511,608.2172890600501
0.3600000000000001,-3.992297922967476e-18,2.0,0.13152000164132538,3.447294507191568e-15,2.347899016588955e-14,-3.4558188982401775e-16,1.5272028043124417e-22,2.0,0.2078670846868438,0.0,-3.0673768602794024e-16,5.81635512496159e-17,0.8950731601692686,0.0,0.0,0.0,2.7928305334584715,-9.848130127670875e-17,-3.677421846846781e-15,-2.555616484764168e-17,607.0955680430201,607.0955680430192,607.09556804302,607.0955680430191
0.3640000000000001,-3.669552358542192e-18,2.0,0.13517961866124534,3.2039971312247256e-15,2.4136954373478778e-14,-3.1028627258551325e-16,1.5272028043124417e-22,2.0,0.21167395086659824,0.0,-3.043712296533284e-16,5.4992059326099246e-17,0.9064488090696903,0.0,0.0,0.0,2.746062443548743,-8.414899867517189e-17,-3.595344380748805e-15,-2.4770887983016855e-17,605.968079667343,605.9680796673421,605.9680796673429,605.9680796673418
0.3680000000000001,-3.2573148375413904e-18,2.0,0.13888350070668265,2.9558187792620784e-15,2.446813165267222e-14,-2.758229413275972e-16,1.5272028043124417e-22,2.0,0.21549951438996442,0.0,-2.978822603978534e-16,5.176554518684739e-17,0.9176485362039688,0.0,0.0,0.0,2.699172467593997,-6.404888514419641e-17,-3.3878003130557974e-15,-2.522633590390693e-17,604.8355428565121,604.8355428565112,604.835542856512,604.8355428565111
0.3720000000000001,-2.7541731096501964e-18,2.0,0.14263091837827102,2.697941624012178e-15,2.443770256779344e-14,-2.4153442540334024e-16,1.5272028043124417e-22,2.0,0.21934341316853218,0.0,-2.859727943275357e-16,4.8344292134011346e-17,0.9286685962700852,0.0,0.0,0.0,2.6522133836851323,-3.781580471295083e-17,-3.1023898900300173e-15,-2.6418043159921345e-17,603.6992075473229,603.6992075473222,603.6992075473229,603.699207547322
0.3760000000000001,-2.1602459569790008e-18,2.0,0.14642113389409586,2.470317947546754e-15,2.4035548930450726e-14,-2.115156423927088e-16,1.5272028043124417e-22,2.0,0.22320528879888304,0.0,-2.68079470318204e-16,4.4837969607378936e-17,0.9395062640762953,0.0,0.0,0.0,2.6052212915980606,-5.739303897384325e-17,-2.7653403673322113e-15,-2.2821454463691885e-17,602.55992828288,602.5599282828794,602.5599282828799,602.5599282828791
0.38,-1.4777611244966508e-18,2.0,0.1502534368934662,2.2685162601895987e-15,2.3328819906218532e-14,-1.8245882733430539e-16,1.5272028043124417e-22,2.0,0.22708478653127284,0.0,-2.4441840006939765e-16,4.1511550311909735e-17,0.950162172095806,0.0,0.0,0.0,2.558159949419423,-7.370537251560134e-17,-2.457935540047235e-15,-2.29156250318699e-17,601.4168071798848,601.4168071798842,601.4168071798848,601.4168071798841
0.384,-7.094873060766763e-19,2.0,0.15412713047781343,2.060789807914349e-15,2.2326023908878687e-14,-1.502429328069942e-16,1.5272028043124417e-22,2.0,0.23098155523855893,0.0,-2.156317269545566e-16,3.842240970276188e-17,0.9606409334914773,0.0,0.0,0.0,2.5110206261477805,-5.457087761376425e-17,-2.1325773959629315e-15,-2.778635769720435e-17,600.2696096063431,600.2696096063427,600.269609606343,600.2696096063424
0.388,1.4045493381277625e-19,2.0,0.1580414871404406,1.86073672303982e-15,2.1066193539336914e-14,-1.1801278563904526e-16,1.5272028043124417e-22,2.0,0.234895247385369,0.0,-1.824307621919434e-16,3.537334143422513e-17,0.9709420209328246,0.0,0.0,0.0,2.4638836572195477,-5.0765192450117354e-17,-1.8153532780853387e-15,-2.9115406398654416e-17,599.1202728395543,599.120272839554,599.1202728395542,599.1202728395538
0.392,1.0675963536688137e-18,2.0,0.16199576209392505,1.6746526655046594e-15,1.9531154012292558e-14,-9.063074840519387e-17,1.5272028043124417e-22,2.0,0.23882551899751148,0.0,-1.4516049833796218e-16,3.232774773843997e-17,0.9810606937030952,0.0,0.0,0.0,2.416803359567254,-5.4696213018142157e-17,-1.4524625140348942e-15,-2.4767282076201768e-17,597.9701127713968,597.9701127713964,597.9701127713967,597.9701127713963
0.396,2.066565312467975e-18,2.0,0.165989204147828,1.5338821436412025e-15,1.7702798492745194e-14,-6.45311004066632e-17,1.5272028043124417e-22,2.0,0.24277202963162434,0.0,-1.0384474294839613e-16,2.950551765371869e-17,0.9909932522280229,0.0,0.0,0.0,2.3698125780458628,-9.605455546085052e-17,-1.0357444295046474e-15,-2.4387316008678208e-17,596.8199293537708,596.8199293537706,596.8199293537707,596.8199293537706
0.4,3.1303272635231567e-18,2.0,0.17002108497686083,1.4273861823385823e-15,1.562984696709051e-14,-3.5709894890475685e-17,1.5272028043124417e-22,2.0,0.24673444234506112,0.0,-5.859838262922072e-17,2.7195801049137288e-17,1.0007401669857696,0.0,0.0,0.0,2.322885014489466,-1.2752269973860961e-16,-6.32102393476126e-16,-2.863375596259899e-17,595.6690768920286,595.6690768920284,595.6690768920284,595.6690768920283
0.404,4.2511967972690106e-18,2.0,0.17409067457297586,1.31937848034934e-15,1.3342581024994004e-14,-6.32694043456019e-18,1.5272028043124417e-22,2.0,0.2507124236660122,0.0,-9.956638311915785e-18,2.5358110786478153e-17,1.010304185176833,0.0,0.0,0.0,2.276043514733909,-1.1947144825109383e-16,-2.33472800956208e-16,-3.0470965976568494e-17,594.5181133997345,594.5181133997345,594.5181133997344,594.5181133997344
0.40800000000000003,5.42026715409283e-18,2.0,0.17819724176109258,1.2530552588588714e-15,1.0919578156528994e-14,2.2429424095807597e-17,1.5272028043124417e-22,2.0,0.25470564356385994,0.0,4.110560683390688e-17,2.3878875798164988e-17,1.0196856438373758,0.0,0.0,0.0,2.2293099836502672,-1.6168304362834837e-16,1.0913415630400512e-16,-3.094512682040307e-17,593.3675780310825,593.3675780310825,593.3675780310824,593.3675780310824
0.41200000000000003,6.629104219047309e-18,2.0,0.18234005464358305,1.1926177993493278e-15,8.346470034785653e-15,5.2033031350351484e-17,1.5272028043124417e-22,2.0,0.2587137754197652,0.0,9.372268057173399e-17,2.268555285513708e-17,1.028884277387876,0.0,0.0,0.0,2.1827055128319537,-1.6489549695722844e-16,4.803900782892519e-16,-3.3117235030327315e-17,592.2179940489655,592.2179940489656,592.2179940489652,592.2179940489655
0.41600000000000004,7.868305364416551e-18,2.0,0.18651838102702842,1.1166602890445358e-15,5.663877407210304e-15,8.152499291989952e-17,1.5272028043124417e-22,2.0,0.26273649599748444,0.0,1.473899860238596e-16,2.166648935306094e-17,1.0378999313122583,0.0,0.0,0.0,2.1362504019526716,-1.4347197829603252e-16,8.337070124667933e-16,-3.420606718378033e-17,591.0698691926438,591.069869192644,591.0698691926436,591.0698691926439
0.42000000000000004,9.128334458089229e-18,2.0,0.19073148883204158,1.0591089765868929e-15,2.889515246126308e-15,1.1074712155153672e-16,1.5272028043124417e-22,2.0,0.26677348541441515,0.0,2.0175288142238501e-16,2.0642007399601482e-17,1.0467325567509287,0.0,0.0,0.0,2.0899641790778194,-1.605509130276272e-16,1.1843567500829534e-15,-3.5107586007934114e-17,589.9236960196381,589.9236960196386,589.9236960196379,589.9236960196383
0.42400000000000004,1.0399763668639912e-17,2.0,0.19497864648695826,9.974574509211899e-16,7.168294642907215e-18,1.3831417998242207e-16,1.5272028043124417e-22,2.0,0.2708244271128678,0.0,2.5643980550063664e-16,1.9620041392688163e-17,1.0553822063164104,0.0,0.0,0.0,2.04386561988879,-1.5256686351867478e-16,1.5682627307001711e-15,-3.4381888542427347e-17,588.7799522209381,588.7799522209386,588.7799522209378,588.7799522209384
0.42800000000000005,1.167148448825609e-17,2.0,0.19925912330611226,9.45741924850564e-16,-2.861602259671779e-15,1.671082884232336e-16,1.5272028043124417e-22,2.0,0.27488900783156295,0.0,3.1088071681958026e-16,1.8685955347495062e-17,1.0638490301025567,0.0,0.0,0.0,1.9979727659716424,-1.6064993123264725e-16,1.8466361799577883e-15,-3.695692526756039e-17,587.6391009133517,587.6391009133523,587.6391009133516,587.6391009133522
0.43200000000000005,1.2933044667035842e-17,2.0,0.20357218985333625,9.025006137968907e-16,-5.658768007915853e-15,1.9877739075440425e-16,1.5272028043124417e-22,2.0,0.2789669175773518,0.0,3.637378655289807e-16,1.7844032975837633e-17,1.0721332718683974,0.0,0.0,0.0,1.9523029422981986,-1.6766936871181276e-16,2.0596908468054786e-15,-4.150941786415028e-17,586.5015909122736,586.5015909122743,586.5015909122735,586.5015909122742
0.43600000000000005,1.4175290998451098e-17,2.0,0.20791711829126566,8.588210114653253e-16,-8.42384766514861e-15,2.316015757893626e-16,1.5272028043124417e-22,2.0,0.2830578495971584,0.0,4.1407113894874077e-16,1.7111691578379914e-17,1.0802352653786622,0.0,0.0,0.0,1.9068727740068927,-1.6483068265224693e-16,2.309459474599024e-15,-4.4173049646721676e-17,585.3678569876588,585.3678569876596,585.3678569876587,585.3678569876595
0.44000000000000006,1.538881420899453e-17,2.0,0.21229318271696895,8.224817107233712e-16,-1.1149782584793335e-14,2.665112266560048e-16,1.5272028043124417e-22,2.0,0.2871615003501418,0.0,4.619477146662788e-16,1.6445323354923115e-17,1.0881554308856038,0.0,0.0,0.0,1.8616982025774913,-1.7101484597003268e-16,2.561432759851657e-15,-4.797323901726011e-17,584.238320105681,584.2383201056819,584.2383201056808,584.2383201056816
0.44400000000000006,1.656463648152254e-17,2.0,0.21669965948438094,7.868726660846968e-16,-1.3850941644342843e-14,3.015165992298486e-16,1.5272028043124417e-22,2.0,0.2912775694800768,0.0,5.075707714289961e-16,1.582407760901823e-17,1.0958942717389566,0.0,0.0,0.0,1.8167945014758016,-1.6995682264884616e-16,2.832484228654363e-15,-4.953716570386406e-17,583.1133876581214,583.1133876581223,583.1133876581213,583.1133876581221
0.44800000000000006,1.769403049044375e-17,2.0,0.22113583390826383,7.471847725225388e-16,-1.6548723486194867e-14,3.365172209234799e-16,1.5272028043124417e-22,2.0,0.29540575978795136,0.0,5.511972489262096e-16,1.5218952645452856e-17,1.1034530105415634,0.0,0.0,0.0,1.7721633140233486,-1.6330812843199025e-16,3.1336946170391003e-15,-5.0990098998009356e-17,581.9931276323716,581.9931276323726,581.9931276323715,581.9931276323724
0.45200000000000007,1.8767469315208985e-17,2.0,0.22560099802899553,7.108154239923176e-16,-1.9176584053982663e-14,3.708335380260626e-16,1.5272028043124417e-22,2.0,0.29954577720477904,0.0,5.927641724518956e-16,1.458211718462332e-17,1.1108333327307236,0.0,0.0,0.0,1.7278105814226503,-1.6499098204413532e-16,3.3760127659510997e-15,-5.1651454518099715e-17,580.877716618287,580.8777166182881,580.8777166182867,580.8777166182879
0.45600000000000007,1.9775765204562454e-17,2.0,0.23009441606135536,7.213909270405446e-16,-2.1676069527972686e-14,3.967662011142029e-16,1.5272028043124417e-22,2.0,0.3036973307646254,0.0,6.314493377431638e-16,1.4136466536617802e-17,1.1180338998566657,0.0,0.0,0.0,1.6838121994219513,-2.1781922653147282e-16,3.5518467112762366e-15,-4.329304839703224e-17,579.7690967667871,579.7690967667883,579.7690967667869,579.7690967667882
0.4600000000000001,2.0710983528545885e-17,2.0,0.23461537700163398,7.929337049907115e-16,-2.4066711462003783e-14,4.1457791680549293e-16,1.5272028043124417e-22,2.0,0.3078601325778461,0.0,6.664805832901479e-16,1.439690238975037e-17,1.125053732527101,0.0,0.0,0.0,1.6401382302011174,-2.9023949241358044e-16,3.737407233756032e-15,-3.489907577636911e-17,578.6665506121363,578.6665506121374,578.6665506121361,578.6665506121374
0.4640000000000001,2.1565245378528287e-17,2.0,0.2391631733999345,8.7669368433129965e-16,-2.6328865617113292e-14,4.2163976974642093e-16,1.5272028043124417e-22,2.0,0.31203389780453533,0.0,6.976848862792962e-16,1.554704678784135e-17,1.131895356560647,0.0,0.0,0.0,1.5968010737793417,-3.0995175129133386e-16,3.9012647545575e-15,-2.310188557213991e-17,577.5704268678221,577.5704268678234,577.5704268678219,577.5704268678232
0.4680000000000001,2.233102222185815e-17,2.0,0.24373710166909046,9.712180291477328e-16,-2.8431038670080933e-14,4.222333700511441e-16,1.5272028043124417e-22,2.0,0.3162183446281833,0.0,7.248738411827318e-16,1.726843980256482e-17,1.1385603686117214,0.0,0.0,0.0,1.5538124353807314,-3.2886140331368836e-16,4.024813192963295e-15,-1.586536208474879e-17,576.4810590691021,576.4810590691035,576.4810590691021,576.4810590691034
0.4720000000000001,2.3000861745203646e-17,2.0,0.2483364623360179,1.0635782978215962e-15,-3.0293008974988336e-14,4.186743381104e-16,1.5272028043124417e-22,2.0,0.32041319422954095,0.0,7.472900490766361e-16,1.91695432021882e-17,1.1450497488088822,0.0,0.0,0.0,1.5111834319941824,-3.334761785107415e-16,4.051928467492235e-15,-1.1068283555716483e-17,575.3987680982334,575.3987680982345,575.3987680982333,575.3987680982347
0.4760000000000001,2.3568786262440617e-17,2.0,0.2529605602811573,1.1644585798028245e-15,-3.1903964097538506e-14,4.1298400287300265e-16,1.5272028043124417e-22,2.0,0.32461817076069,0.0,7.640505297400372e-16,2.1174027168132013e-17,1.1513645402666306,0.0,0.0,0.0,1.4689246081124914,-3.504836060557317e-16,4.041788125196903e-15,-8.461667961018135e-18,574.3238624265827,574.3238624265839,574.3238624265825,574.3238624265839
0.4800000000000001,2.4030143027170886e-17,2.0,0.25760870496640575,1.284548160102581e-15,-3.3296322575133236e-14,4.041148805428974e-16,1.5272028043124417e-22,2.0,0.32883300131931786,0.0,7.74827475405207e-16,2.334844278788883e-17,1.157505845254017,0.0,0.0,0.0,1.4270459510418294,-3.806263044458247e-16,4.044596305045876e-15,-4.543510221919498e-18,573.2566383490988,573.2566383491,573.2566383490987,573.2566383491001
0.4840000000000001,2.4380827588479964e-17,2.0,0.26228021661451906,1.4079820260711805e-15,-3.4479581927601295e-14,3.9182326802334273e-16,1.5272028043124417e-22,2.0,0.3330574159231947,0.0,7.801157876201848e-16,2.5784976991464248e-17,1.1634754185987695,0.0,0.0,0.0,1.385544804612855,-3.9364032932469075e-16,4.043696634493165e-15,-2.0951832030284733e-19,572.1970709698336,572.1970709698347,572.1970709698335,572.1970709698348
0.4880000000000001,2.461689161863053e-17,2.0,0.26697444162877354,1.524458698483895e-15,-3.5409285338838156e-14,3.7863452853737977e-16,1.5272028043124417e-22,2.0,0.3372911474848518,0.0,7.800461640865645e-16,2.839561333310385e-17,1.169277186290657,0.0,0.0,0.0,1.3443869184969686,-3.949398464640377e-16,3.980788296621542e-15,1.315846578563283e-18,571.1443260333416,571.1443260333428,571.1443260333415,571.1443260333428
0.4920000000000001,2.4734603333432274e-17,2.0,0.2716907222440993,1.6217530228148727e-15,-3.59815320848179e-14,3.6473773005930523e-16,1.5272028043124417e-22,2.0,0.3415339317864595,0.0,7.737934720295002e-16,3.0894845043054325e-17,1.1749141883599936,0.0,0.0,0.0,1.303598844134537,-3.815692212714247e-16,3.782488575823234e-15,2.6581098540358197e-18,570.0991223454434,570.0991223454445,570.0991223454433,570.0991223454446
0.4960000000000001,2.473155584152798e-17,2.0,0.2764283805437962,1.6943050383873459e-15,-3.6114535855723217e-14,3.5248650002155767e-16,1.5272028043124417e-22,2.0,0.34578550745490366,0.0,7.597948624805685e-16,3.305389262473662e-17,1.1803850357659909,0.0,0.0,0.0,1.2632397466535945,-3.6046223966121563e-16,3.454251022558115e-15,1.2810094699551912e-18,569.0630217341665,569.0630217341675,569.0630217341663,569.0630217341676
0.5000000000000001,2.4607519753235373e-17,2.0,0.2811867436085869,1.7760947997583551e-15,-3.580520018397659e-14,3.4225897437273045e-16,1.5272028043124417e-22,2.0,0.3500456159370581,0.0,7.368544359399539e-16,3.491711800084738e-17,1.185687620417153,0.0,0.0,0.0,1.2233184353370237,-3.773935816854194e-16,3.0710889320180184e-15,-6.045305349933489e-19,568.036300779065,568.0363007790659,568.0363007790648,568.0363007790659
0.5040000000000001,2.436306548018605e-17,2.0,0.2859651511881094,1.8671286507964595e-15,-3.4989823462114464e-14,3.334451912680198e-16,1.5272028043124417e-22,2.0,0.35431400147525294,0.0,7.042931432564583e-16,3.675931057007792e-17,1.1908229772808754,0.0,0.0,0.0,1.1838280325042998,-3.9502113064649656e-16,2.5759817061607664e-15,-1.8599244504650433e-18,567.0188330703857,567.0188330703864,567.0188330703855,567.0188330703866
0.5080000000000001,2.4000875072046634e-17,2.0,0.2907629645412345,1.9519075190958832e-15,-3.365971031746103e-14,3.2625251809962315e-16,1.5272028043124417e-22,2.0,0.3585904110829363,0.0,6.617656230972172e-16,3.8707910266594925e-17,1.19579487666292,0.0,0.0,0.0,1.144743356377429,-3.952455970422731e-16,2.0125105451475516e-15,-3.4149937710903923e-18,566.0100179633105,566.0100179633112,566.0100179633104,566.0100179633112
0.512,2.3526185221773952e-17,2.0,0.2955795285270573,2.025250241775335e-15,-3.1897488039368545e-14,3.206975829482845e-16,1.5272028043124417e-22,2.0,0.36287459452052845,0.0,6.095120795849683e-16,4.0617865697842865e-17,1.2006047465528638,0.0,0.0,0.0,1.106115517329783,-3.8905130794883784e-16,1.4794212774260727e-15,-5.055553166761669e-18,565.0112245268626,565.0112245268631,565.0112245268626,565.0112245268632
0.516,2.294502145948197e-17,2.0,0.30041418294082206,2.0741982786696413e-15,-2.9723007950157243e-14,3.1354696359885143e-16,1.5272028043124417e-22,2.0,0.36716630427146685,0.0,5.486535023435964e-16,4.230295572260237e-17,1.205250978268646,0.0,0.0,0.0,1.0679731826607575,-3.6699408380887617e-16,9.271447258949138e-16,-2.9858271001047994e-18,564.0232492020349,564.0232492020352,564.0232492020348,564.0232492020352
0.52,2.226403233641228e-17,2.0,0.3052662711370141,2.07105605483844e-15,-2.7093623846387895e-14,3.057239168589014e-16,1.5272028043124417e-22,2.0,0.3714652955184402,0.0,4.799359965193392e-16,4.3442362674051494e-17,1.2097327656253154,0.0,0.0,0.0,1.0303277206135042,-3.10961845269442e-16,2.849629033062952e-16,-1.9285878437247645e-18,563.0464441696093,563.0464441696095,563.0464441696092,563.0464441696095
0.524,2.1492227388000436e-17,2.0,0.31013516367134225,2.023204842223785e-15,-2.4067956920927455e-14,3.006034241157579e-16,1.5272028043124417e-22,2.0,0.3757713261198112,0.0,4.035940707880273e-16,4.3703527360792495e-17,1.2140526750029355,0.0,0.0,0.0,0.9931424440225156,-2.5998470782400724e-16,-3.529706124608206e-16,-4.785702348833032e-18,562.0799132631215,562.0799132631214,562.0799132631214,562.0799132631215
0.528,2.064023522118214e-17,2.0,0.31502023786396816,1.9557601193789527e-15,-2.0741975976724444e-14,2.9864746582468436e-16,1.5272028043124417e-22,2.0,0.3800841565862254,0.0,3.207112128467308e-16,4.3050643832261675e-17,1.2182150542461023,0.0,0.0,0.0,0.9564213147233591,-2.352450151790509e-16,-9.327611313009334e-16,-8.29310116458362e-18,561.123812815247,561.1238128152468,561.1238128152469,561.1238128152467
0.532,1.9719240056714928e-17,2.0,0.31992087791469787,1.8952984065285428e-15,-1.7174046252216118e-14,2.965577787847087e-16,1.5272028043124417e-22,2.0,0.38440355005740556,0.0,2.3318615313365336e-16,4.1914025888174847e-17,1.222222196594408,0.0,0.0,0.0,0.9201678841145913,-2.4015265017663915e-16,-1.4810827205750767e-15,-8.077416424052615e-18,560.1782889354778,560.1782889354773,560.1782889354777,560.1782889354772
0.536,1.8741262516937603e-17,2.0,0.32483647497334633,1.836649036946761e-15,-1.3435080034545325e-14,2.9342535882889104e-16,1.5272028043124417e-22,2.0,0.3887292722791295,0.0,1.4273885181399698e-16,4.072268034520375e-17,1.2260758254614146,0.0,0.0,0.0,0.8843853800799664,-2.3945763467719144e-16,-1.9833714715096935e-15,-6.794233855405853e-18,559.2434796680241,559.2434796680235,559.243479668024,559.2434796680234
0.54,1.771858896674644e-17,2.0,0.32976643229864705,1.7757476965698028e-15,-9.572733994377674e-15,2.8964496998656895e-16,1.5272028043124417e-22,2.0,0.3930610915803907,0.0,5.081253065927029e-17,3.9571949836975967e-17,1.2297781916134787,0.0,0.0,0.0,0.8490663770780349,-2.3409957532403485e-16,-2.456290489114586e-15,-5.929161443833377e-18,558.3192443582074,558.3192443582067,558.3192443582074,558.3192443582067
0.544,1.6663469044634806e-17,2.0,0.3347101782941632,1.7111121631080005e-15,-5.600305323243766e-15,2.858503285036091e-16,1.5272028043124417e-22,2.0,0.3973987788507399,0.0,-4.147310575586103e-17,3.8377856641973864e-17,1.233333368792172,0.0,0.0,0.0,0.814176644782048,-2.268141647233101e-16,-2.9336846174289287e-15,-5.7774982083369376e-18,557.4047376460268,557.404737646026,557.4047376460268,557.4047376460259
0.548,1.5588419841824608e-17,2.0,0.3396671471051939,1.6390468272081115e-15,-1.5325704753684149e-15,2.8196946707387294e-16,1.5272028043124417e-22,2.0,0.4017421075178062,0.0,-1.3356909553366335e-16,3.7076908736063273e-17,1.2367453064794587,0.0,0.0,0.0,0.7797205675593408,-2.14912794260381e-16,-3.416708581277373e-15,-5.540915603851329e-18,556.5001226944327,556.5001226944316,556.5001226944325,556.5001226944316
0.552,1.4506690529955026e-17,2.0,0.3446367879723358,1.5662054138944076e-15,2.564687990251108e-15,2.770672516892514e-16,1.5272028043124417e-22,2.0,0.40609085352499713,0.0,-2.2484138519530137e-16,3.566578903842251e-17,1.2400171161174367,0.0,0.0,0.0,0.7456834005411561,-2.1022281545425673e-16,-3.8506996080042065e-15,-4.208137201591092e-18,555.605059766952,555.6050597669508,555.6050597669519,555.6050597669508
0.556,1.3431154520868401e-17,2.0,0.34961850909844727,1.4951695225495997e-15,6.668144262345314e-15,2.72571677534499e-16,1.5272028043124417e-22,2.0,0.41044479530937483,0.0,-3.1432196084321573e-16,3.418434924710253e-17,1.2431464953544966,0.0,0.0,0.0,0.7121638771664476,-2.0844353096753755e-16,-4.2686760752829625e-15,-4.501200664520286e-18,554.7221976914238,554.7221976914226,554.7221976914237,554.7221976914225
0.56,1.2374381788756083e-17,2.0,0.35461171780395984,1.4288988271032673e-15,1.0776289450748288e-14,2.6629205531030505e-16,1.5272028043124417e-22,2.0,0.41480371377970887,0.0,-4.0133459217420465e-16,3.27249373285664e-17,1.2461298081439307,0.0,0.0,0.0,0.6791805796631936,-2.1019422707864927e-16,-4.695271233043043e-15,-2.251576759664005e-18,553.8520854055406,553.8520854055392,553.8520854055406,553.8520854055392
0.5640000000000001,1.1350076397711171e-17,2.0,0.35961585441543464,1.3744230393329822e-15,1.4768986058929566e-14,2.5797447605655303e-16,1.5272028043124417e-22,2.0,0.41916739229470285,0.0,-4.850562520558159e-16,3.137946081087756e-17,1.2489677524998464,0.0,0.0,0.0,0.6466833771084854,-2.204333350955597e-16,-5.008571684173186e-15,3.683501162590354e-19,552.9934575273767,552.9934575273751,552.9934575273766,552.9934575273751
0.5680000000000001,1.0371039005520439e-17,2.0,0.3646303957443314,1.326201471850112e-15,1.8582196051315456e-14,2.4998206896610627e-16,1.5272028043124417e-22,2.0,0.4235356166413943,0.0,-5.639008663759292e-16,3.020032307564466e-17,1.2516682661755762,0.0,0.0,0.0,0.6146140618105453,-2.2497093544207195e-16,-5.243221916858995e-15,3.120341639400086e-19,552.1448261368073,552.1448261368057,552.1448261368072,552.1448261368057
0.5720000000000001,9.449214459171252e-18,2.0,0.36965479082913877,1.2786925290272432e-15,2.217553919929636e-14,2.4053553684973587e-16,1.5272028043124417e-22,2.0,0.4279081750137263,0.0,-6.36269499143972e-16,2.9167247557366714e-17,1.2542338016100496,0.0,0.0,0.0,0.5830437105535351,-2.2343144846092715e-16,-5.422370114307625e-15,2.321424048489865e-18,551.3081225653374,551.3081225653357,551.3081225653373,551.3081225653357
