Time_s,X,Y,Z,Roll_deg,Pitch_deg,Yaw_deg,Ref_X,Ref_Y,Ref_Z,Ref_Yaw,vx,vy,vz,p,q,r,T_pert,tau_x,tau_y,tau_z,RPM_0,RPM_1,RPM_2,RPM_3
0.0040000000000000036,3.3827230054016896e-22,2.0,0.010006999594037988,-2.096004393768565e-18,1.4202641527917514e-18,1.8284134537641468e-20,1.5271478250114865e-22,2.0,0.010074639714689831,9.401864931293104e-23,6.963764715863389e-20,400.0,2.0013999188075973,0.0,0.0,0.0,0.13727673356390743,2.447572233571506e-18,-3.820779320707456e-18,-1.5066042318395035e-20,539.3555031529193,539.3555031529194,539.3555031529193,539.3555031529194
0.007999999999999993,3.952540555299858e-22,2.0,0.010010999365527828,-4.1692232875920586e-18,8.807414544004454e-19,6.54798512656098e-20,1.5270385281404422e-22,2.0,0.01021705724096241,9.401192046584669e-23,4.501334925896633e-20,222.22222222222223,1.112333262836425,0.0,0.0,0.0,0.28307763549941695,2.5642946195555448e-18,1.8754091198906816e-18,-5.566211366587819e-20,543.293890269062,543.2938902690621,543.293890269062,543.2938902690621
0.011999999999999997,6.553582382554294e-22,2.0,0.010014999143178303,-5.937185121340306e-18,2.523155978144537e-18,1.4867990709542983e-20,1.5268755694448375e-22,2.0,0.010429397942859043,9.400188793579058e-23,4.1368488396902565e-20,-6.81016393582703e-23,0.0009999434817584835,0.0,0.0,0.0,0.42940122292865546,2.349607687181413e-18,-4.394826403139172e-18,5.665435794759209e-20,547.2178993475084,547.2178993475085,547.2178993475084,547.2178993475085
0.016,9.022418784039e-22,2.0,0.010018998937194887,-9.405935321427055e-18,3.276713500347821e-18,2.1024884152848868e-20,1.52665959873308e-22,2.0,0.010710815098006973,9.398859172812945e-23,6.260292630806806e-20,-1.1092732822169616e-22,0.000999945747962895,0.0,0.0,0.0,0.5762362289297316,4.456570785976189e-18,-1.1191227010947074e-18,-7.582479740210045e-21,551.1275385718621,551.1275385718623,551.1275385718621,551.1275385718623
0.020000000000000004,8.658455764522284e-22,2.0,0.010022998752909006,-1.1217971441073364e-17,3.695175783368433e-18,1.1203797858192703e-19,1.5263912599243093e-22,2.0,0.0110604696579496,9.397207148565805e-23,3.911267911262067e-20,-1.5779120462482987e-22,0.000999950008513488,0.0,0.0,0.0,0.7235715215096432,2.7591734496999065e-18,2.3761062099726573e-18,-1.0696100971605181e-19,555.0228183333464,555.0228183333465,555.0228183333464,555.0228183333464
0.024000000000000007,8.680377693985894e-22,2.0,0.010026998592244063,-1.2126018612642667e-17,4.5257199538382595e-18,1.5400249935708904e-19,1.5260711910958864e-22,2.0,0.011477530186265229,9.395236649152282e-23,-4.589337180397055e-22,-1.909070337067232e-22,0.000999955453208183,0.0,0.0,0.0,0.8713960815428251,1.827467597299264e-18,-1.6493071659455015e-18,-5.340206220396849e-20,558.903750579078,558.9037505790781,558.903750579078,558.903750579078
0.027999999999999997,9.442490106807089e-22,2.0,0.010030998455031748,-1.3816238879025721e-17,4.1500759578350766e-18,-5.402672834991871e-20,1.525700024530525e-22,2.0,0.011961172797154362,9.392951567212351e-23,1.6613525073208646e-20,-2.1588447243619122e-22,0.0009999612879459108,0.0,0.0,0.0,1.0196990020369756,2.802930879291519e-18,-7.425119531364778e-19,2.369067123202884e-19,562.7703487421923,562.7703487421925,562.7703487421923,562.7703487421924
0.032,1.17677260170611e-21,2.0,0.010034998340053574,-1.332526908761604e-17,4.7603647928419e-18,-1.0874487521609567e-20,1.525278386763065e-22,2.0,0.012510581094492131,9.39035575999928e-23,3.007397256875261e-20,-2.299584963653871e-22,0.0009999670462765287,0.0,0.0,0.0,1.1684694876652029,3.714658573663246e-19,-2.8892378886327897e-18,-4.797087442835782e-20,566.6226276822788,566.6226276822789,566.6226276822788,566.6226276822788
0.036000000000000004,1.1588451037076682e-21,2.0,0.010038998245596672,-1.2522513786046848e-17,4.0682952794139474e-18,3.4794815618684575e-19,1.5248068986268912e-22,2.0,0.013124946111342446,9.387453049665406e-23,1.9247732225977354e-20,-2.3038373327467372e-22,0.0009999724819411207,0.0,0.0,0.0,1.3176968547428123,-2.618986255081006e-20,3.197908270201064e-18,-4.1849605826010064e-19,570.4606036401751,570.4606036401752,570.4606036401751,570.4606036401751
0.04000000000000001,1.0634691908298526e-21,2.0,0.01004299816963308,-1.3218338684678692e-17,4.481141808881805e-18,4.148547980780978e-19,1.5242861753000008e-22,2.0,0.013803466249930549,9.384247223545751e-23,4.096577785193094e-21,-2.281079926025708e-22,0.0009999774781225407,0.0,0.0,0.0,1.4673705310055107,1.6688564740468892e-18,1.4670714931833304e-19,-9.222669110414527e-20,574.28429419004,574.2842941900401,574.28429419004,574.28429419004
0.044,1.0564517088610726e-21,2.0,0.010046998110216634,-1.336074439866693e-17,4.495606413815671e-18,3.812888525552231e-19,1.5237168263507224e-22,2.0,0.014545347222070593,9.380742034439484e-23,-1.1196595260606839e-20,-2.294013425741009e-22,0.0009999819843698257,0.0,0.0,0.0,1.617480054201476,1.0701931205114277e-18,-1.2833694493681477e-18,2.2393500900950966e-20,578.0937181638261,578.0937181638262,578.0937181638261,578.0937181638262
0.048,8.773091298562939e-22,2.0,0.010050998065501424,-1.3182580667955964e-17,4.63373723682879e-18,2.7338016078745887e-19,1.5230994557830867e-22,2.0,0.015349801990044966,9.376941200889251e-23,-2.727368845948553e-20,-2.3159845576893696e-22,0.000999986005851411,0.0,0.0,0.0,1.768015071893714,7.055918351717872e-19,1.5334167210118207e-18,1.106156297144526e-19,581.8888956096085,581.8888956096085,581.8888956096085,581.8888956096085
0.052000000000000005,8.52663507208159e-22,2.0,0.010054998033829306,-1.3258986424083416e-17,4.5531832638679905e-18,2.0347851072040331e-19,1.5224346620818545e-22,2.0,0.016216050707932004,9.37284840745839e-23,-1.4929010951892164e-20,-2.3176213260520746e-22,0.0009999895871477815,0.0,0.0,0.0,1.9189653403736835,9.906776135511461e-19,-1.8823708496365702e-18,7.064818825611744e-20,585.6698477297894,585.6698477297895,585.6698477297894,585.6698477297895
0.05600000000000001,9.455783536463993e-22,2.0,0.010058998013790149,-1.3411415583695927e-17,4.551501449370895e-18,3.511501162256614e-19,1.521723038257202e-22,2.0,0.01714332066337891,9.36846730500603e-23,-1.0113767195292314e-21,-2.3207716528719953e-22,0.0009999927643005932,0.0,0.0,0.0,2.070320723775754,1.0846774115324655e-18,-1.6663942244442023e-18,-1.806416816450782e-19,589.4365968270905,589.4365968270906,589.4365968270905,589.4365968270905
0.06,8.342729366517635e-22,2.0,0.010062998004016329,-1.3523642669068664e-17,4.704916931780615e-18,2.907502265837831e-19,1.520965171889068e-22,2.0,0.01813084621981657,9.363801510960119e-23,-2.1013131888671205e-21,-2.3372571277616033e-22,0.0009999955902902091,0.0,0.0,0.0,2.2220711936838176,1.0481556145566195e-18,1.803897152837428e-18,5.635456205462567e-20,593.189166265132,593.1891662651321,593.189166265132,593.1891662651321
0.064,1.0049140633578155e-21,2.0,0.010067138904936516,-1.2335213508868922e-17,2.1262888520099865e-18,-8.294462583194704e-20,1.5201616451711636e-22,2.0,0.019177868759113068,9.358854609588364e-23,2.2796015760422582e-20,-2.3615508016257823e-22,0.00101408825054633,0.0,0.0,0.0,2.3739208653784547,-4.629884656456308e-19,-5.112387000435785e-19,4.248125357710441e-19,596.9205754440037,596.9205754440038,596.9205754440037,596.9205754440037
0.068,9.184276470743501e-22,2.0,0.010074475916218769,6.2211460242136385e-18,2.2846984813350168e-17,6.312756249499443e-06,1.519313034954648e-22,2.0,0.02028363662466268,9.353630152267125e-23,8.307970082310399e-21,-1.3473332417746493e-22,0.0013477908507173592,0.0,0.0,0.0,2.5199408114752715,-2.0825351025323068e-17,-2.1495910343868623e-17,-7.374297534591172e-06,600.4980858018002,600.4980858018004,600.4756383882303,600.4756383882303
0.07200000000000001,2.135706811302946e-22,2.0,0.010090294139223917,2.9946084405955365e-17,1.0858425435788616e-16,1.4527129420018964e-05,1.5184199127914722e-22,2.0,0.02144740506490721,9.348131657748258e-23,-7.280572636190602e-20,6.446225969892308e-22,0.002529613661207339,0.0,0.0,0.0,2.6554982893324146,-2.8129795873121524e-17,-9.441132184015702e-17,-9.854908886552695e-06,603.793683863172,603.7936838631721,603.7638490076316,603.7638490076317
0.07600000000000001,-4.992004332881596e-22,2.0,0.01011936241409395,3.2976330087969013e-17,2.194593020175508e-16,2.4169747767331418e-05,1.5174828449773939e-22,2.0,0.02266843617728647,9.34236261242394e-23,-1.6275314283967299e-19,2.425315882554766e-21,0.004929609060478485,0.0,0.0,0.0,2.7814629353708877,-5.5863003395377985e-18,-1.362225391809165e-16,-1.1860633697165258e-05,606.8395731205088,606.8395731205089,606.8038461702407,606.8038461702408
0.08000000000000002,-1.3480681231625628e-21,2.0,0.010166075554735832,3.16045728119581e-17,4.0050424252174483e-16,3.485324300657276e-05,1.5165023925946655e-22,2.0,0.023945998852614794,9.336326470589466e-23,-2.330584045254957e-19,4.594484696420582e-21,0.008505700872737769,0.0,0.0,0.0,2.8984322588122393,-6.531542643327307e-19,-2.242367437775534e-16,-1.3472499439568077e-05,609.6539490470528,609.6539490470528,609.6135539800475,609.6135539800475
0.08399999999999999,-2.0878582626317447e-21,2.0,0.010234427052871788,4.3211932048208304e-17,6.775773360975297e-16,4.62443565568292e-05,1.5154791115543964e-22,2.0,0.025279368719880475,9.330026654704065e-23,-2.923941263910293e-19,8.019096357870072e-21,0.013153936555969881,0.0,0.0,0.0,3.0070711738633515,-1.57154850756538e-17,-3.5148792818562115e-16,-1.4737808216021122e-05,612.255955097245,612.255955097245,612.2119538840884,612.2119538840883
0.088,-1.864494008063427e-21,2.0,0.010328044903038127,9.284927134165375e-17,1.0480719653731804e-15,5.805307247609586e-05,1.5144135526385945e-22,2.0,0.026667828091465062,9.32346655564972e-23,-3.306677456306012e-19,1.7504278660090112e-20,0.018779014504027684,0.0,0.0,0.0,3.10798476559414,-6.091806358108713e-17,-4.895616776003931e-16,-1.569338959697555e-05,614.6627377678502,614.6627377678502,614.6160669382979,614.6160669382978
0.092,1.0729122473742529e-21,2.0,0.010450215878669967,1.4770377289304304e-16,1.454039700752229e-15,7.00325060086668e-05,1.5133062615418873e-22,2.0,0.028110665908779343,9.316649532988023e-23,-1.8533728171310792e-19,4.201152379695352e-20,0.02529042033384485,0.0,0.0,0.0,3.2017405871904794,-7.040463197392711e-17,-5.775234904194605e-16,-1.637771864051745e-05,616.8900921074875,616.8900921074874,616.841561932676,616.8415619326759
0.096,8.322201900836482e-21,2.0,0.010603922794372903,2.047966631213808e-16,1.8718705941650192e-15,8.1964952254803e-05,1.512157778912925e-22,2.0,0.029607177688313134,9.309578915215078e-23,2.265226899236831e-19,8.446222415657506e-20,0.03260586364565582,0.0,0.0,0.0,3.2888415308888934,-7.676955188571702e-17,-6.400357508560646e-16,-1.6814744150087046e-05,618.9518711838444,618.9518711838444,618.9022119554245,618.9022119554244
0.1,2.1603658900205436e-20,2.0,0.010791950607341437,2.773977861530427e-16,2.2753282251412205e-15,9.367089645971607e-05,1.5109686403954694e-22,2.0,0.031156665468095743,9.302258000014462e-23,9.21535369787932e-19,1.4660135057188205e-19,0.04065786397241343,0.0,0.0,0.0,3.369584930291764,-9.878316500634718e-17,-6.755163826440094e-16,-1.7040138590238843e-05,620.8567798771323,620.8567798771322,620.8066093800456,620.8066093800455
0.10400000000000001,4.280641438193646e-20,2.0,0.011016815415212452,3.8771953222557004e-16,2.621508443290261e-15,0.00010827958940482285,1.509739376669169e-22,2.0,0.03275843775456411,9.294690054508253e-23,1.937903154863094e-18,2.449155195760043e-19,0.04938706404149421,0.0,0.0,0.0,3.4444186125439327,-1.4779539555514133e-16,-6.633674065873571e-16,-2.091169186834301e-05,622.6224383282049,622.6224383282048,622.5610430491425,622.5610430491424
0.10800000000000001,7.307112419955598e-20,2.0,0.011280823738888246,5.464843267960675e-16,2.9277322529836253e-15,0.0001234737447925071,1.5084705134900242e-22,2.0,0.034411809469835686,9.286878315506155e-23,3.2363546562894036e-18,4.052843963845428e-19,0.05873389794202253,0.0,0.0,0.0,3.513678746519409,-2.119079753597345e-16,-6.6045135038241735e-16,-2.2195484522914768e-05,624.2487756091399,624.2487756091398,624.1837807956485,624.1837807956484
0.11200000000000002,1.1345573656319705e-19,2.0,0.011586059493002272,7.314820750181075e-16,3.2047516027875007e-15,0.00013888375276612693,1.5071625717305436e-22,2.0,0.03611610189938309,9.278825989752725e-23,4.7543674881715896e-18,6.5316342578227875e-19,0.0686431277571932,0.0,0.0,0.0,3.5777347120891316,-2.533977584547719e-16,-6.67431293862421e-16,-2.3071555390467516e-05,625.7486937874743,625.7486937874742,625.6812954051092,625.681295405109
0.11600000000000002,1.6480331329426459e-19,2.0,0.011934398630612603,9.305313043531432e-16,3.475126676843844e-15,0.00015420991910984058,1.5058160674195944e-22,2.0,0.03787064264010755,9.270536254172705e-23,6.40744135293437e-18,9.989031013967283e-19,0.07906071114428519,0.0,0.0,0.0,3.636933350241066,-2.824567130294892e-16,-6.972334988142281e-16,-2.360639962510084e-05,627.1312839198496,627.1312839198495,627.0624750734318,627.0624750734316
0.12,2.281410462029733e-19,2.0,0.012327574749583356,1.1365829409264427e-15,3.7403007018228015e-15,0.0001691977909562906,1.5044315117819496e-22,2.0,0.03967476554880826,9.262012256114495e-23,8.191370027198898e-18,1.443809058732958e-18,0.0899406798710447,0.0,0.0,0.0,3.691495068654015,-3.0424510928658936e-16,-7.31222230070413e-16,-2.3840559866944803e-05,628.4025080941525,628.4025080941524,628.3331572634984,628.3331572634983
0.124,3.043702331087115e-19,2.0,0.012767215022064808,1.3437392181139035e-15,4.0128160587166774e-15,0.0001836376772898293,1.503009411277532e-22,2.0,0.041527810691044824,9.253257113591762e-23,1.008590148933388e-17,1.9849537196443863e-18,0.1012484251136484,0.0,0.0,0.0,3.741571979774459,-3.1962533360795956e-16,-7.790077156134625e-16,-2.381587638342729e-05,629.5666346395193,629.5666346395192,629.4974837330362,629.4974837330361
0.128,3.9462308261056853e-19,2.0,0.013254814957872226,1.5475541818193691e-15,4.284525870245161e-15,0.00019735975271869977,1.5015502676403618e-22,2.0,0.04342912429038966,9.244273915523214e-23,1.2097892558729168e-17,2.6187934711835906e-18,0.11295376833732104,0.0,0.0,0.0,3.787370892657262,-3.2988941124394843e-16,-8.213511616453798e-16,-2.357030793931753e-05,630.6291069440485,630.6291069440483,630.560784415189,630.560784415189
0.132,4.999854872291643e-19,2.0,0.013791746437083828,1.7525021268993854e-15,4.552850010904773e-15,0.000210228754042812,1.5000545779172025e-22,2.0,0.04537805867806791,9.23506572197053e-23,1.423746899507141e-17,3.3438223680533e-18,0.12502560492716092,0.0,0.0,0.0,3.8290865967643772,-3.451497809929864e-16,-8.611687346385656e-16,-2.3137255062719235e-05,631.5949960195511,631.5949960195508,631.5280314103002,631.5280314103001
0.136,6.215368676120364e-19,2.0,0.014379267481186557,1.9615315249703888e-15,4.814881949683125e-15,0.00022213985426582542,1.498522834505916e-22,2.0,0.047373972242981614,9.225635564374486e-23,1.6520255770394838e-17,4.168830506460991e-18,0.13743359573054853,0.0,0.0,0.0,3.8668980771803603,-3.6393065252233217e-16,-8.983402645543676e-16,-2.254671771021629e-05,632.4689257622375,632.4689257622373,632.40376057157,632.4037605715699
0.14,7.602170483657035e-19,2.0,0.015018525602628022,2.153932921999508e-15,5.0798321871326854e-15,0.0002330127024739696,1.4969555251935228e-22,2.0,0.0494162293821156,9.215986445789277e-23,1.8922568132804042e-17,5.086354492031719e-18,0.15014925253079708,0.0,0.0,0.0,3.900981235514391,-3.588075231032772e-16,-9.452712894516599e-16,-2.1822983282850726e-05,633.2553736602797,633.2553736602795,633.1923786719458,633.1923786719457
0.14400000000000002,9.170984488201636e-19,2.0,0.015710557158669446,2.3485659262000067e-15,5.343984753397591e-15,0.00024279301710993347,1.4953531331939713e-22,2.0,0.05150420045132223,9.206121341115043e-23,2.1441700278601034e-17,6.088329378725258e-18,0.16314483052069628,0.0,0.0,0.0,3.931516892112241,-3.745703070230015e-16,-9.905632652221356e-16,-2.0993205444224696e-05,633.9588750841395,633.9588750841393,633.8983427297616,633.8983427297615
0.14800000000000002,1.09311828062045e-18,2.0,0.01645632928635683,2.5531942872153474e-15,5.617283037577581e-15,0.000251447053167228,1.4937161371856195e-22,2.0,0.05363726171648213,9.196043197328619e-23,2.4055540500430116e-17,7.185794099339862e-18,0.17639660433612997,0.0,0.0,0.0,3.958604387239806,-3.9955167551086805e-16,-1.046913302080522e-15,-2.0079145157720806e-05,634.5820262858214,634.5820262858211,634.5241865358925,634.5241865358923
0.152,1.2894283714973833e-18,2.0,0.017256725429421443,2.7581636216894627e-15,5.8909329040158865e-15,0.0002589579208658552,1.4920450113484293e-22,2.0,0.0558147953050383,9.185754933712528e-23,2.6773920236314145e-17,8.401550057769165e-18,0.18988431207098194,0.0,0.0,0.0,3.9823747248662125,-4.139428139959944e-16,-1.0970955800103274e-15,-1.9099106314638233e-05,635.1281061722624,635.1281061722622,635.073136940147,635.0731369401468
0.156,1.5070391106263922e-18,2.0,0.018112548973770216,2.968288764441006e-15,6.1712046745417386e-15,0.00026532368420262086,1.4903402254008768e-22,2.0,0.05803618915790083,9.175259442082217e-23,2.9587518728861603e-17,9.738001689522756e-18,0.20358804631865937,0.0,0.0,0.0,4.002954281929124,-4.3397970765605065e-16,-1.1541412066407467e-15,-1.8069863742205044e-05,635.6002448875937,635.6002448875934,635.5482766799536,635.5482766799535
0.16,1.7470001118405403e-18,2.0,0.01902452812626923,3.206477736561046e-15,6.461814657652759e-15,0.000270555140913919,1.4886022446365804e-22,2.0,0.06030083698171933,9.164559587011554e-23,3.249961384312073e-17,1.121493886175023e-17,0.21748807860808955,0.0,0.0,0.0,4.0204621687140305,-4.811196060815008e-16,-1.217495649080113e-15,-1.700621296332311e-05,636.0013668370291,636.0013668370287,635.9524886133308,635.9524886133306
0.164,2.0103920023034493e-18,2.0,0.019993317833977654,3.4660800644054944e-15,6.766432156747523e-15,0.00027467000236955385,1.4868315299606487e-22,2.0,0.06260813820152066,9.153658206056608e-23,3.5472295987689376e-17,1.2885404137040929e-17,0.23156562663723818,0.0,0.0,0.0,4.035016079323957,-5.224126022046636e-16,-1.2873064787359256e-15,-1.5916673584870764e-05,636.3343230525284,636.334323052528,636.2886003675516,636.2886003675515
0.168,2.2985401800654575e-18,2.0,0.021019497835290564,3.746312190444003e-15,7.070316995013924e-15,0.0002776957281533562,1.4850285379257496e-22,2.0,0.06495749791370911,9.142558109977703e-23,3.852976979307881e-17,1.4782260561224648e-17,0.24580214224356256,0.0,0.0,0.0,4.046740080393269,-5.642549088748737e-16,-1.3448557408313098e-15,-1.4813360348152995e-05,636.6020876151349,636.6020876151345,636.5595523445367,636.5595523445364
0.17200000000000001,2.61270782316115e-18,2.0,0.02210358939508335,4.033920640787268e-15,7.365288534730206e-15,0.0002796725437869031,1.483193720767904e-22,2.0,0.06734832683942642,9.131262082959785e-23,4.173674389744606e-17,1.6894662132471563e-17,0.2601805233100711,0.0,0.0,0.0,4.055726753282283,-5.920314192569295e-16,-1.3934351412761818e-15,-1.3712313466009497e-05,636.8068916311487,636.8068916311483,636.7675306820604,636.7675306820602
0.17600000000000002,2.9541110554008932e-18,2.0,0.02324606135161167,4.351750496816856e-15,7.644719359489869e-15,0.0002806422673582931,1.481327526442005e-22,2.0,0.0697800412782689,9.119772882831096e-23,4.512624146586156e-17,1.923631771293981e-17,0.2746860958258403,0.0,0.0,0.0,4.06205835204843,-6.46989281819867e-16,-1.4344379737598924e-15,-1.2617045097329559e-05,636.9506891607751,636.9506891607747,636.9144804260092,636.9144804260089
0.18000000000000002,3.3237748171691795e-18,2.0,0.024447322347266102,4.682062806507797e-15,7.915262987930668e-15,0.00028065510753895505,1.4794303986570646e-22,2.0,0.07225206306235925,9.108093241280168e-23,4.86999506746691e-17,2.1831109789473688e-17,0.28930483862103923,0.0,0.0,0.0,4.0658346502500855,-6.832994068351965e-16,-1.4812144852574722e-15,-1.1539073955511175e-05,637.0358282163854,637.035828216385,637.0027175785838,637.0027175785835
0.184,3.722437918243588e-18,2.0,0.02570773132413232,5.004976708708108e-15,8.207174899297274e-15,0.0002797654153027479,1.4775027769111919e-22,2.0,0.07476381951077025,9.096225864071167e-23,5.2367782400799434e-17,2.466237646694031e-17,0.3040230152421993,0.0,0.0,0.0,4.067136119408879,-6.972475860066492e-16,-1.560527111309524e-15,-1.048530063443289e-05,637.0641892530095,637.064189253009,637.0341037615258,637.0341037615256
0.188,4.151540546108738e-18,2.0,0.02702759492211298,5.324162934341956e-15,8.486516154516397e-15,0.00027802288615393696,1.4755450965263008e-22,2.0,0.07731474338429796,9.084173431257566e-23,5.613053728673094e-17,2.766771490988279e-17,0.3188275354581414,0.0,0.0,0.0,4.066050175370241,-7.149762759424815e-16,-1.6107618651262456e-15,-9.452518635326682e-06,637.037781765334,637.0377817653334,637.0106585757791,637.0106585757788
0.192,4.612306429942439e-18,2.0,0.02840716872578689,5.634489060197172e-15,8.739175452410309e-15,0.0002754806325405448,1.4735577886825535e-22,2.0,0.07990427284058149,9.071938597394203e-23,6.005771313754581e-17,3.0811931778868676e-17,0.33370557553268515,0.0,0.0,0.0,4.062663449664803,-7.264567616553558e-16,-1.6426529188922642e-15,-8.44676014614505e-06,636.9585963527446,636.9585963527442,636.9343561423736,636.9343561423734
0.196,5.106455025145302e-18,2.0,0.0298466628519548,5.924817914184067e-15,8.89349174289299e-15,0.0002721957251081309,1.4715412804525385e-22,2.0,0.08253185138956737,9.059523991747694e-23,6.44351784354876e-17,3.4066571777492545e-17,0.3486448646136759,0.0,0.0,0.0,4.057052939759584,-7.243261360748159e-16,-1.596165927591597e-15,-7.474829935550203e-06,636.8283910460675,636.8283910460669,636.8069357072566,636.8069357072563
0.2,5.634874741691935e-18,2.0,0.03134624399110729,6.180400196351811e-15,8.927994587472642e-15,0.0002682284714250081,1.4694959948351876e-22,2.0,0.08519692784931539,9.046932218505241e-23,6.951904191440996e-17,3.735979555245532e-17,0.36363401269447204,0.0,0.0,0.0,4.049293027236219,-7.036048142312173e-16,-1.5099785196302516e-15,-6.542852745529848e-06,636.648851704879,636.6488517048784,636.6300662050394,636.6300662050394
0.20400000000000001,6.19745399163272e-18,2.0,0.03290603114118227,6.437497412242939e-15,8.875171692442388e-15,0.0002636419874792402,1.4674223507894307e-22,2.0,0.08789895630214385,9.034165856981831e-23,7.537414699718237e-17,4.066981875360867e-17,0.3786616872960707,0.0,0.0,0.0,4.039468213788051,-7.228511741470474e-16,-1.442984064592594e-15,-5.6565856772707064e-06,636.4218863423933,636.4218863423929,636.4056396870213,636.4056396870212
0.20800000000000002,6.7940725134926695e-18,2.0,0.03452610059195914,6.720472172987808e-15,8.730548055023533e-15,0.00025849579612139816,1.4653207632675945e-22,2.0,0.0906373960511115,9.02122746182585e-23,8.18799397459102e-17,4.409217064036647e-17,0.39371665171543396,0.0,0.0,0.0,4.0276544824000835,-7.706501391019812e-16,-1.3649651820286839e-15,-4.814423123573513e-06,636.1491884115086,636.1491884115081,636.1353546857241,636.135354685724
0.21200000000000002,7.42423831352212e-18,2.0,0.03620648828186658,7.010844326746861e-15,8.493374501585813e-15,0.00025284805295552155,1.4631916432485428e-22,2.0,0.0934117115768337,9.008119563223116e-23,8.896854562293115e-17,4.77477689956666e-17,0.40878821848293684,0.0,0.0,0.0,4.013924470666472,-7.986387999656853e-16,-1.275729236321576e-15,-4.017212124073906e-06,635.8323707452522,635.8323707452518,635.8208219884431,635.8208219884431
0.21600000000000003,8.087347479866967e-18,2.0,0.0379471933269765,7.267131893852416e-15,8.137137718188794e-15,0.0002467524245750725,1.4610353977705628e-22,2.0,0.09622137249463046,8.994844667099338e-23,9.674614194913802e-17,5.1581821433267497e-17,0.42386659053767967,0.0,0.0,0.0,3.998345016167061,-7.7869346058708e-16,-1.1478556541958763e-15,-3.2620968608153655e-06,635.4729011909563,635.4729011909559,635.4635179647763,635.4635179647763
0.22000000000000003,8.78229828200754e-18,2.0,0.03974818256576568,7.454650975390356e-15,7.642571797662959e-15,0.0002402641290906108,1.4588524299639987e-22,2.0,0.09906585351200385,8.981405255321031e-23,1.053190298878968e-16,5.5351997206701663e-17,0.4389428607078264,0.0,0.0,0.0,3.9809749819215874,-7.159158239250864e-16,-9.834004343657236e-16,-2.5530934741337202e-06,635.072068403314,635.0720684033138,635.064719959502,635.064719959502
0.22400000000000003,9.506806070910645e-18,2.0,0.04160937424595216,7.577094600394213e-15,7.0547080568138825e-15,0.00023344031697852688,1.4566431390836346e-22,2.0,0.10194463438644233,8.967803785894871e-23,1.1468901891464336e-16,5.880525255248594e-17,0.4540072173352178,0.0,0.0,0.0,3.9619074424683074,-6.527481047355428e-16,-8.477226992397668e-16,-1.894726706193276e-06,634.6319450217345,634.6319450217342,634.6264877487772,634.6264877487772
0.22800000000000004,1.0258488102507453e-17,2.0,0.043530649952783176,7.633708926007243e-15,6.38759779181931e-15,0.00022632925908261197,1.454407920540828e-22,2.0,0.10485719988354963,8.954042693165533e-23,1.2462126629003017e-16,6.180976040642536e-17,0.46904935651114404,0.0,0.0,0.0,3.9412128869418126,-5.842500847352442e-16,-7.193651797647549e-16,-1.278970524451944e-06,634.1540630111642,634.154063011164,634.1503764946773,634.1503764946773
0.23200000000000004,1.1034720302811837e-17,2.0,0.04551186139679977,7.613377710437322e-15,5.650078830054298e-15,0.00021898184834533887,1.4521471659353954e-22,2.0,0.10780303973549585,8.940124388011993e-23,1.3491154547429042e-16,6.430254644630975e-17,0.48406011012128153,0.0,0.0,0.0,3.9189492710796516,-4.982697054203175e-16,-5.914281291261663e-16,-7.108701109816922e-07,633.6396816458675,633.6396816458673,633.6376309665474,633.6376309665474
0.236,1.1832637575344767e-17,2.0,0.04755282614605089,7.534606371250966e-15,4.846591386812865e-15,0.0002114414452252183,1.4498612630872544e-22,2.0,0.11078164859978819,8.926051258042327e-23,1.455325709754548e-16,6.62187874431165e-17,0.4990316390402386,0.0,0.0,0.0,3.8951842377235977,-4.286369830756573e-16,-4.591594427818269e-16,-1.8371616139373914e-07,633.090264603526,633.0902646035258,633.0897341698712,633.0897341698712
0.24,1.2648822568873357e-17,2.0,0.04965334151301227,7.431354072669387e-15,4.011187201413595e-15,0.00020375059547456353,1.44755059606782e-22,2.0,0.11379252601835947,8.911825667787008e-23,1.5630371127988303e-16,6.761749470243455e-17,0.5139566449308137,0.0,0.0,0.0,3.8699584070858783,-3.94663202665936e-16,-3.5358723853083787e-16,3.0166251002090283e-07,632.5066608422402,632.5066608422401,632.5075326186229,632.5075326186229
0.244,1.3479890300760524e-17,2.0,0.05181317491638667,7.317662363401595e-15,3.160112791600592e-15,0.0001959493352928085,1.4452155452311603e-22,2.0,0.11683517637697123,8.897449958890712e-23,1.6702843703250548e-16,6.8672082320744e-17,0.5288288339743089,0.0,0.0,0.0,3.8433326781043524,-3.7541212750372917e-16,-2.6257021871322696e-16,7.46450392360078e-07,631.8901831645776,631.8901831645775,631.8923424386103,631.8923424386103
0.248,1.432231964552086e-17,2.0,0.054032065116824554,7.20979011048067e-15,2.316269413706791e-15,0.00018807516134668512,1.4428564872449123e-22,2.0,0.11990910886493009,8.882926450302652e-23,1.7747546038046673e-16,6.956118073700667e-17,0.5436411247274676,0.0,0.0,0.0,3.8153664663742597,-3.744331864382428e-16,-1.9302069169171004e-16,1.151970046211832e-06,631.2421096654186,631.2421096654186,631.2454454134489,631.2454454134489
0.252,1.5173144099160504e-17,2.0,0.05630972338505421,7.0729989683949715e-15,1.4500577643904053e-15,0.00018016303547156452,1.4404737951209584e-22,2.0,0.12301383743511429,8.868257438465437e-23,1.8759630569876622e-16,7.031991410387158e-17,0.5583864238581613,0.0,0.0,0.0,3.7861178014108123,-3.332871021514478e-16,-9.310037106745187e-17,1.5196428216392871e-06,630.5636865284026,630.5636865284027,630.5680916734315,630.5680916734317
0.256,1.6029370945757255e-17,2.0,0.05864583462904707,6.897682384526174e-15,5.304635921902835e-16,0.0001722454070379006,1.4380678382458677e-22,2.0,0.12614888076430864,8.853445197502484e-23,1.9758986030071365e-16,7.08120592310722e-17,0.5730579280676384,0.0,0.0,0.0,3.75564337203006,-2.789455929142384e-16,4.720478665319695e-17,1.8509680294950523e-06,629.8561295586286,629.8561295586286,629.861501173497,629.861501173497
0.26,1.6887349484375757e-17,2.0,0.06104006280076462,6.679380266815815e-15,-4.2549115542847067e-16,0.00016435105068864837,1.4356389824111011e-22,2.0,0.12931376221384513,8.838491979403976e-23,2.076339188668403e-16,7.085795311188614e-17,0.5876495453204567,0.0,0.0,0.0,3.723989804416169,-2.1676142859306735e-16,1.813353036876554e-16,2.1489058570103273e-06,629.1204198657069,629.120419865707,629.1266634016274,629.1266634016276
0.264,1.7743087983789256e-17,2.0,0.06349206318242226,6.438832161363156e-15,-1.3816236195451784e-15,0.00015650669909554946,1.433187589842985e-22,2.0,0.1325080097905475,8.823400014211393e-23,2.1757448931273416e-16,7.041270978999247e-17,0.6021570087502134,0.0,0.0,0.0,3.6911795271347616,-1.7585605136705176e-16,2.826403554821541e-16,2.4146600700235333e-06,628.3569787399301,628.3569787399304,628.3640029306013,628.3640029306014
0.268,1.8592817568005614e-17,2.0,0.06600146162233395,6.184832411389854e-15,-2.3253287319363373e-15,0.00014873824159411574,1.430714019232452e-22,2.0,0.13573115610797695,8.808171510200608e-23,2.27121226621611e-16,6.955303864702785e-17,0.6165756894480172,0.0,0.0,0.0,3.657277455252871,-1.4369888021374596e-16,3.6992961470073994e-16,2.6481180890810187e-06,627.5672176608138,627.5672176608139,627.5749306654373,627.5749306654375
0.272,1.943257890392687e-17,2.0,0.06856784885874372,5.878194177294992e-15,-3.219607473929584e-15,0.00014106772656595184,1.4282186257645529e-22,2.0,0.13898273834797736,8.792808654063585e-23,2.360071464507824e-16,6.83078742654069e-17,0.63089852861919,0.0,0.0,0.0,3.622361030459987,-6.486211158510471e-17,4.1852473591439055e-16,2.852703656289064e-06,626.7528388774149,626.752838877415,626.7611585575285,626.7611585575287
0.276,2.0258601942233414e-17,2.0,0.07119082261767186,5.49609218218206e-15,-4.030520130317714e-15,0.0001335159181317914,1.4257017611477412e-22,2.0,0.14226229822251726,8.777313611088661e-23,2.4387751615470095e-16,6.640097990433695e-17,0.6451209553060583,0.0,0.0,0.0,3.5864234434049376,4.4228016741562544e-17,4.2524056501365487e-16,3.029011613925285e-06,625.9135863536206,625.9135863536209,625.9224320627156,625.9224320627158
0.28,2.1068205629513886e-17,2.0,0.07386992928381253,5.074676299740971e-15,-4.7994027167848895e-15,0.00012610174948798366,1.42316377364293e-22,2.0,0.14556938193582666,8.761688525339437e-23,2.506057443166889e-16,6.364076406759156e-17,0.6592373164880275,0.0,0.0,0.0,3.549576109191789,1.162651574234018e-16,4.650549819425783e-16,3.1783281295789627e-06,625.051964437957,625.0519644379573,625.061258991636,625.0612589916361
0.28400000000000003,2.1858415403377446e-17,2.0,0.07660470942886383,4.5992321262319554e-15,-5.518147359419076e-15,0.00011884167310818805,1.4206050080923252e-22,2.0,0.14890354014682666,8.745935519832291e-23,2.563310445069571e-16,6.00581053151062e-17,0.673241915835246,0.0,0.0,0.0,3.511839746070708,2.081731609187732e-16,4.9829241920797065e-16,3.302773621659708e-06,624.1683627512095,624.1683627512099,624.1780348974072,624.1780348974073
0.28800000000000003,2.262687345055101e-17,2.0,0.07939468654359776,4.108474631590173e-15,-6.220315919947525e-15,0.00011175015631879883,1.4180258059480364e-22,2.0,0.15226432793184938,8.730056696712517e-23,2.612715946534955e-16,5.576947929034639e-17,0.6871299323161439,0.0,0.0,0.0,3.4732581924384385,2.585670225010134e-16,5.627240601883575e-16,3.4039914645723854e-06,623.2637138891278,623.2637138891282,623.2736969174417,623.2736969174418
0.29200000000000004,2.3371108119970857e-17,2.0,0.08223937741217732,3.631253219488088e-15,-6.916616860412797e-15,0.00010484036202324154,1.415426505300465e-22,2.0,0.15565130474764627,8.714054137429098e-23,2.656043011512321e-16,5.097365748505028e-17,0.7008988268571812,0.0,0.0,0.0,3.4338548422301045,2.76319662022717e-16,6.41985019909537e-16,3.4829113556355584e-06,622.3384743603857,622.338474360386,622.3487040242339,622.348704024234
0.29600000000000004,2.40885974862357e-17,2.0,0.08513824150099375,3.1738398339343834e-15,-7.608148373113254e-15,9.81240134337655e-05,1.4128074409064736e-22,2.0,0.1590640343946827,8.697929902908133e-23,2.6955185614521666e-16,4.6015631721374914e-17,0.7145413612316853,0.0,0.0,0.0,3.393756084679075,2.85822719903769e-16,7.249646839497033e-16,3.5406745706288183e-06,621.3955246330041,621.3955246330046,621.4059397322561,621.4059397322563
0.30000000000000004,2.477636841805769e-17,2.0,0.08809070717431765,2.730370573143429e-15,-8.24840953357362e-15,9.161107072857018e-05,1.4101689442173374e-22,2.0,0.16250208498071647,8.681686033724915e-23,2.729452063004369e-16,4.103417291348426e-17,0.7280481382259841,0.0,0.0,0.0,3.353036996097441,3.0081872602656457e-16,7.608951290124425e-16,3.5788592192909128e-06,620.4365510177937,620.436551017794,620.4470947098104,620.4470947098105
0.304,2.5431661972908058e-17,2.0,0.09109618654094084,2.2842034976471696e-15,-8.795956297444215e-15,8.530932819220878e-05,1.407511343406479e-22,2.0,0.16596502888465847,8.665324550274681e-23,2.7536922145039795e-16,3.5984470965547645e-17,0.741411397843826,0.0,0.0,0.0,3.311743577305387,3.342945316763815e-16,7.451526968191768e-16,3.599586410924806e-06,619.4625618094286,619.4625618094291,619.4731832391018,619.4731832391019
0.308,2.605220154108878e-17,2.0,0.09415410619797118,1.829418977610596e-15,-9.224559556035158e-15,7.922515410360274e-05,1.4048349633969883e-22,2.0,0.1694524427207134,8.648847452942041e-23,2.7626142454382374e-16,3.072832649455953e-17,0.7546294269136944,0.0,0.0,0.0,3.2698600163090785,3.7486736382825135e-16,6.893970623935444e-16,3.604201887196731e-06,618.4731102418267,618.473110241827,618.483762304408,618.483762304408
0.312,2.6636560212347397e-17,2.0,0.09726390362196388,1.3641505653049139e-15,-9.547817546089706e-15,7.336356862059443e-05,1.4021401258889292e-22,2.0,0.17296390730279768,8.632256722269086e-23,2.754622752789157e-16,2.5177797692667525e-17,0.7677047546619089,0.0,0.0,0.0,3.2273774269080286,4.182089887585561e-16,6.336858918104864e-16,3.5940189646800506e-06,617.4679096040325,617.4679096040328,617.4785488633128,617.4785488633128
0.316,2.718354266342125e-17,2.0,0.10042502423514722,8.88413420497219e-16,-9.762763712403891e-15,6.772838562874276e-05,1.3994271493864348e-22,2.0,0.17649900760923407,8.615554319122205e-23,2.7298143334505086e-16,1.929365719066995e-17,0.7806398400558981,0.0,0.0,0.0,3.18429259302531,4.622498245602027e-16,5.661203055450141e-16,3.5702406163137737e-06,616.4468047831617,616.4468047831622,616.4573911591192,616.4573911591192
0.32,2.7692843650302938e-17,2.0,0.1036369190013069,3.929770557937842e-16,-9.912995561107798e-15,6.23223367440169e-05,1.3966963492245923e-22,2.0,0.1800573327477193,8.598742184857598e-23,2.690361990457483e-16,1.301157244252805e-17,0.7934364271304757,0.0,0.0,0.0,3.140606986694844,5.177852762876065e-16,5.33020178047049e-16,3.5339744937038514e-06,615.4097499442162,615.4097499442166,615.4202464438815,615.4202464438816
0.324,2.816413138504481e-17,2.0,0.10689904025003466,-1.0845689568935624e-16,-1.0011420566988256e-14,5.714720745880194e-05,1.39394803759612e-22,2.0,0.18363847592056376,8.581822241485511e-23,2.6399808708918047e-16,6.317147750378203e-18,0.8060956656222764,0.0,0.0,0.0,3.0963304396941385,5.586679665275708e-16,5.114775733597921e-16,3.4862136498648647e-06,614.3568968436122,614.3568968436126,614.3672692316708,614.3672692316708
0.328,2.8596959971184875e-17,2.0,0.11021083584664527,-6.163038542036468e-16,-1.0040267100237619e-14,5.220378775015806e-05,1.3911825235778358e-22,2.0,0.18724203439020096,8.564796391833196e-23,2.5808211999578966e-16,-7.252669289868864e-19,0.8186176013684973,0.0,0.0,0.0,3.0514846336040486,6.004458856643047e-16,4.675977073952132e-16,3.4280476860540954e-06,613.2886794357877,613.288679435788,613.2988965312353,613.2988965312353
0.332,2.899069604128502e-17,2.0,0.11357172761202955,-1.1834160801639302e-15,-9.939270800130082e-15,4.749175316127824e-05,1.3884001131569223e-22,2.0,0.19086760944496448,8.547666519706604e-23,2.509316059437115e-16,-8.251192230309265e-18,0.8309992365306427,0.0,0.0,0.0,3.006135250153877,7.043796381429612e-16,3.5150096581274516e-16,3.36074599825342e-06,612.206584183678,612.2065841836785,612.2166183962408,612.2166183962408
0.336,2.934569512854915e-17,2.0,0.1169810399491914,-1.7964440833168928e-15,-9.701808786021047e-15,4.300876532879093e-05,1.385601109256986e-22,2.0,0.1945148063651308,8.53043449005082e-23,2.4206244090556793e-16,-1.658296420430872e-17,0.8432275702047922,0.0,0.0,0.0,2.960493715082457,7.967774579503699e-16,2.0816063020169347e-16,3.286674471029574e-06,611.1155926844373,611.1155926844377,611.12542326112,611.1254232611199
0.34,2.9663159765697066e-17,2.0,0.12043802383983764,-2.42359414694968e-15,-9.354047875916292e-15,3.875251537491153e-05,1.3827858117639156e-22,2.0,0.198183234389226,8.513102149109264e-23,2.313390663561734e-16,-2.5785490692199983e-17,0.855284144519246,0.0,0.0,0.0,2.9147259181878042,8.551885545132122e-16,7.624572030998101e-17,3.2058946812792267e-06,610.0196335436801,610.0196335436805,610.0292397338563,610.0292397338561
0.34400000000000003,2.9944843815658566e-17,2.0,0.12394196098417527,-3.056033968636766e-15,-8.935519979312978e-15,3.472017880700079e-05,1.3799545175515386e-22,2.0,0.20187250668059403,8.495671324581638e-23,2.1916210790815854e-16,-3.556272686756356e-17,0.8671581504696213,0.0,0.0,0.0,2.8687887961657945,9.042515853940401e-16,-2.4114234101741923e-17,3.1191037586384297e-06,608.917644787552,608.9176447875524,608.9270078320186,608.9270078320183
0.34800000000000003,3.019239113768048e-17,2.0,0.1274921576236546,-3.718911839921731e-15,-8.44765398109926e-15,3.090828632723153e-05,1.3771075205070784e-22,2.0,0.20558224029422514,8.47814382578066e-23,2.059415445830747e-16,-4.5816675881727496e-17,0.8788539318225472,0.0,0.0,0.0,2.8226509024187956,9.83042817227812e-16,-1.2747616887651983e-16,3.027170920286511e-06,607.8088357895817,607.8088357895821,607.8179394456727,607.8179394456724
0.35200000000000004,3.0407706037389035e-17,2.0,0.131087917213753,-4.402965099181535e-15,-7.893803716274847e-15,2.731272747421373e-05,1.3742451115564135e-22,2.0,0.2093120561438421,8.460521443787565e-23,1.918937642244695e-16,-5.663678107830958e-17,0.8903751144491572,0.0,0.0,0.0,2.7763355275491626,1.053099165042067e-15,-2.357347963446556e-16,2.930987607184829e-06,606.6937291541775,606.6937291541778,606.7025597595511,606.7025597595508
0.35600000000000004,3.0593445201600397e-17,2.0,0.13472853191952455,-5.047590836546658e-15,-7.328639177731003e-15,2.3928538830796786e-05,1.3713675786891404e-22,2.0,0.21306157896924247,8.442805951606412e-23,1.7728178919952175e-16,-6.789802239242812e-17,0.9017212199681406,0.0,0.0,0.0,2.7298833688943596,1.0538355549468682e-15,-2.9470285874913986e-16,2.8317189953114768e-06,605.5732710213126,605.573271021313,605.5818183332319,605.5818183332316
0.36000000000000004,3.075248568403781e-17,2.0,0.138413266032725,-5.585174849567987e-15,-6.8197685743694046e-15,2.0750361882795942e-05,1.368475206983442e-22,2.0,0.21683043730389515,8.424999104317174e-23,1.6285382237843232e-16,-7.886073357780774e-17,0.9128880831462961,0.0,0.0,0.0,2.6833691964658213,9.729205027217105e-16,-2.799824495190842e-16,2.7300304343592823e-06,604.4492393988552,604.4492393988555,604.4574950978313,604.4574950978309
0.36400000000000005,3.0887243524485903e-17,2.0,0.14214137028387872,-6.02049936238231e-15,-6.4059806619917396e-15,1.7772061824232364e-05,1.3655682786307603e-22,2.0,0.22061826344278904,8.407102639227651e-23,1.495663619142831e-16,-8.869365516972744e-17,0.923870670422855,0.0,0.0,0.0,2.636839679400189,8.90270041520503e-16,-2.1287350596060508e-16,2.6270487937345536e-06,603.3227436950569,603.3227436950572,603.3307028093094,603.3307028093092
0.36800000000000005,3.099927692414951e-17,2.0,0.1459120917455663,-6.3583140929442086e-15,-6.074032590191044e-15,1.4988043994462676e-05,1.3626470729602802e-22,2.0,0.22442469341053228,8.38911827602419e-23,1.3789488115564998e-16,-9.70285068553303e-17,0.9346661631168152,0.0,0.0,0.0,2.590321876955336,8.061732326517228e-16,-1.4649899927638262e-16,2.5223950131474513e-06,602.1944277023484,602.1944277023488,602.2020840697858,602.2020840697857
0.372,3.108974078603142e-17,2.0,0.14972470202507981,-6.6259600001153765e-15,-5.802870456907039e-15,1.239218674078358e-05,1.3597118664632193e-22,2.0,0.22824936692969977,8.371047716921234e-23,1.2776971652732152e-16,-1.0400184468916953e-16,0.9452756515499955,0.0,0.0,0.0,2.5437858037537944,7.473353969778532e-16,-9.548574942739598e-17,2.4169144374265894e-06,601.0635504184904,601.0635504184908,601.0709004193526,601.0709004193525
0.376,3.115900833820945e-17,2.0,0.1535784724675963,-6.774618385612369e-15,-5.518615792397262e-15,9.97815680548772e-06,1.3567629328169304e-22,2.0,0.23209192738942783,8.352892646809705e-23,1.1858862724059864e-16,-1.0958793302526742e-16,0.9557023072138875,0.0,0.0,0.0,2.497251073475603,6.313178679003606e-16,-1.181529170556267e-16,2.3102404915963243e-06,599.9305759687828,599.930575968783,599.9376148365859,599.9376148365858
0.38,3.120794383357605e-17,2.0,0.15747267418118507,-6.833810487296458e-15,-5.199115705652528e-15,7.739449085906363e-06,1.3538005429088156e-22,2.0,0.23595202181425312,8.334654733404228e-23,1.0957475371675966e-16,-1.1359580289042746e-16,0.9659467847940084,0.0,0.0,0.0,2.4507373125342586,5.417403788006327e-16,-1.7348363861949516e-16,2.2038676506101665e-06,598.7959694359647,598.7959694359648,598.8026969306584,598.8026969306582
0.384,3.1237614610734874e-17,2.0,0.16140657807073597,-6.8570606013643114e-15,-4.831465017672991e-15,5.6694202672112714e-06,1.3508249648600533e-22,2.0,0.2398293008331952,8.316335627389214e-23,1.0010907663333789e-16,-1.1615615073989103e-16,0.9760090279781309,0.0,0.0,0.0,2.4042641406913576,5.085883515334982e-16,-2.4928182076811485e-16,2.098212248774936e-06,597.660200904131,597.6602009041311,597.666618050005,597.6666180500048
0.388,3.124968955238599e-17,2.0,0.16537945492195516,-6.817058309530735e-15,-4.447012820144321e-15,3.7613377404068854e-06,1.3478364640491415e-22,2.0,0.24372341864907998,8.297936962563795e-23,9.020954553288077e-17,-1.1771612228229924e-16,0.9858889927448542,0.0,0.0,0.0,2.357851067880154,4.411034973453467e-16,-2.996131480214968e-16,1.993639615674137e-06,596.5237414144781,596.5237414144783,596.5298503544805,596.5298503544802
0.392,3.1245406429331057e-17,2.0,0.16939056252127788,-6.709369888466639e-15,-4.0268854586614556e-15,2.007880192785633e-06,1.3448353031352547e-22,2.0,0.24763403300810277,8.279460355985628e-23,7.99901640489009e-17,-1.183088027249439e-16,0.9955853578503229,0.0,0.0,0.0,2.3115438018705015,3.640879643627936e-16,-3.6948297221946213e-16,1.891102606941644e-06,595.3877081000493,595.3877081000494,595.3935139027533,595.393513902753
0.396,3.12255273523986e-17,2.0,0.17343916052226063,-6.493624851919757e-15,-3.4972170782687546e-15,4.0296866082655203e-07,1.3418217420814217e-22,2.0,0.25156080516962903,8.260907408113584e-23,6.91374087590953e-17,-1.1754290654804383e-16,1.0050970054454544,0.0,0.0,0.0,2.2653583465093132,2.352267879480668e-16,-5.235650003737681e-16,1.7894398040745242e-06,594.2524989856457,594.2524989856457,594.2580031732413,594.258003173241
0.4,3.1191254468781686e-17,2.0,0.1775245364709065,-6.132487662639878e-15,-2.7977887054020602e-15,-1.0607490688568672e-06,1.3387960381775198e-22,2.0,0.25550339987623083,8.242279702949312e-23,5.66214242793265e-17,-1.14916578266385e-16,1.0144258370725994,0.0,0.0,0.0,2.219257880087756,5.5227909009584536e-17,-7.613377919189137e-16,1.690377815590338e-06,593.1172083663171,593.1172083663171,593.1224178000073,593.1224178000072
0.404,3.1145107414704986e-17,2.0,0.18164595218343793,-5.603060816546426e-15,-1.944801939808063e-15,-2.3894254746174263e-06,1.3357584460630902e-22,2.0,0.25946148532395785,8.223578808177706e-23,4.168987223331914e-17,-1.0972126464058624e-16,1.0235734247522443,0.0,0.0,0.0,2.1733135711302447,-1.617035088531056e-16,-1.0084067366710397e-15,1.5928072096096626e-06,591.9835953891982,591.9835953891978,591.9885135293254,591.9885135293251
0.40800000000000003,3.1090604879199726e-17,2.0,0.185802714976428,-4.9056620775324704e-15,-1.0002568084816946e-15,-3.589434331846518e-06,1.3327092177499756e-22,2.0,0.2634347331328405,8.204806275306265e-23,2.460550805542479e-17,-1.0149166719364815e-16,1.032541577470686,0.0,0.0,0.0,2.1274528975208256,-3.9014151912557844e-16,-1.2077126772317766e-15,1.4972297089639362e-06,590.8498741648779,590.8498741648774,590.854506060329,590.8545060603286
0.41200000000000003,3.103123177458323e-17,2.0,0.18999412220445086,-4.051663373405361e-15,1.1136206541835479e-17,-4.667573864997174e-06,1.3296486026447794e-22,2.0,0.26742281831762377,8.18596363980337e-23,6.1718424938010384e-18,-9.009685069388893e-17,1.0413340133077735,0.0,0.0,0.0,2.081714499622267,-6.172733535446702e-16,-1.3874744253338866e-15,1.4043938823139107e-06,589.7170010157333,589.7170010157329,589.7213540575539,589.7213540575536
0.41600000000000004,3.097059873256648e-17,2.0,0.19421945011838998,-3.1005463978941422e-15,1.0738265678376078e-15,-5.630153212062534e-06,1.3265768475711502e-22,2.0,0.2714254192587302,8.167052421235476e-23,-1.2985839703030428e-17,-7.575124696874444e-17,1.049949210056131,0.0,0.0,0.0,2.03615999841425,-7.862513678619083e-16,-1.5586336108526545e-15,1.3139990482238913e-06,588.5865121635675,588.5865121635668,588.5905928422677,588.5905928422676
0.42000000000000004,3.091276621664194e-17,2.0,0.19847799199902075,-2.1254379630190713e-15,2.143830603027146e-15,-6.483682882738839e-06,1.323494196791892e-22,2.0,0.27544221767345006,8.148074123403233e-23,-3.235921721342397e-17,-5.930005255036645e-17,1.058385838921569,0.0,0.0,0.0,1.9907743453298388,-8.771420174246836e-16,-1.6909018129779369e-15,1.2265314465716195e-06,587.4580460457083,587.4580460457076,587.4618624078764,587.4618624078762
0.42400000000000004,3.086198164132761e-17,2.0,0.20276901706671072,-1.1629337984213022e-15,3.1620247220381685e-15,-7.23458214195986e-06,1.3204008920309006e-22,2.0,0.279472898587357,8.129030234476534e-23,-5.11958852504332e-17,-4.18056671008803e-17,1.0666427738697224,0.0,0.0,0.0,1.9456253922678854,-9.27619994928318e-16,-1.7609750695836199e-15,1.1421442184211102e-06,586.3333062339015,586.3333062339009,586.3368668423999,586.3368668423998
0.42800000000000005,3.0822211446827276e-17,2.0,0.2070917959784999,-2.8770121840228554e-16,4.081449632688663e-15,-7.88901847376975e-06,1.3172971724949277e-22,2.0,0.283517150305948,8.109922227128514e-23,-6.850317285403963e-17,-2.4337529754354855e-17,1.074718103329611,0.0,0.0,0.0,1.9007300609622977,-8.907165753399374e-16,-1.7737533393755348e-15,1.0607996745999816e-06,585.2127370841347,585.212737084134,585.2160504358585,585.2160504358583
0.432,3.0796567891685726e-17,2.0,0.2114456094791086,5.02061331570458e-16,4.9068657564920144e-15,-8.452681381089102e-06,1.314183274895177e-22,2.0,0.28757466438650475,8.090751558668495e-23,-8.361736636828441e-17,-7.782993878787509e-18,1.0826119661411977,0.0,0.0,0.0,1.8560877191080731,-8.505600789797709e-16,-1.7795069314420434e-15,9.821859799316733e-07,584.0963472589934,584.0963472589929,584.0994209291421,584.099420929142
0.436,3.078801447588849e-17,2.0,0.21582975841634094,1.1956012585306638e-15,5.622690077242457e-15,-8.9314591244236e-06,1.3110594334687267e-22,2.0,0.291645135610177,8.071519671173884e-23,-9.629915442360823e-17,7.359181810587894e-18,1.0903275671723223,0.0,0.0,0.0,1.8116771350422018,-7.925541463394953e-16,-1.7623065379950284e-15,9.067626068230519e-07,582.9836275185737,582.983627518573,582.9864705741334,582.9864705741331
0.44,3.079944072693168e-17,2.0,0.22024352117635035,1.7404249006885494e-15,6.183817040911528e-15,-9.331098290625255e-06,1.3079258799997892e-22,2.0,0.29572826195428326,8.052227991621044e-23,-1.0627575367870216e-16,2.0726085167967557e-17,1.0978654948162583,0.0,0.0,0.0,1.7675628702044839,-6.671539152171107e-16,-1.687335953014131e-15,8.345999228660007e-07,581.8762212121255,581.8762212121248,581.8788429901188,581.8788429901185
0.444,3.0832704385165385e-17,2.0,0.2246861786950297,2.1346248936753604e-15,6.5968602921383254e-15,-9.657068109708426e-06,1.3047828438407988e-22,2.0,0.29982374456482985,8.032877932015141e-23,-1.1310442879203928e-16,3.1697620438860873e-17,1.1052241590121277,0.0,0.0,0.0,1.7237594888456726,-5.297371792566261e-16,-1.600625597338135e-15,7.656043798492424e-07,580.7745255695019,580.7745255695013,580.776935170372,580.7769351703716
0.448,3.0889080315110156e-17,2.0,0.22915701665098367,2.3999335170509923e-15,6.873602198291136e-15,-9.914636119058941e-06,1.301630551933338e-22,2.0,0.30393128772924555,8.013470889518957e-23,-1.1675546558491855e-16,3.998609252922272e-17,1.1124033517538017,0.0,0.0,0.0,1.68027707061919,-4.07673131268137e-16,-1.5129702651906809e-15,6.997598099825282e-07,579.6788274338348,579.6788274338344,579.6810339641196,579.6810339641194
0.452,3.0969915918851504e-17,2.0,0.2336553132928283,2.5647800107661688e-15,6.972603626148283e-15,-1.0109216527450007e-05,1.2984692288288972e-22,2.0,0.30805059884933,7.994008246580703e-23,-1.172547933676534e-16,4.584595300460903e-17,1.1194030433797937,0.0,0.0,0.0,1.6371502956002888,-3.1017815053431056e-16,-1.3701111185232008e-15,6.374490753280704e-07,578.5900367200949,578.5900367200944,578.5920505507639,578.5920505507637
0.456,3.1075300389461806e-17,2.0,0.2381803470894274,2.6764419959966423e-15,6.92078612487798e-15,-1.0245434076335104e-05,1.2952990967094718e-22,2.0,0.3121813884144149,7.974491371060832e-23,-1.1445610319217925e-16,4.979053461694325e-17,1.1262227499594961,0.0,0.0,0.0,1.594398600968142,-2.61136025499248e-16,-1.2334964844588523e-15,5.779678806889321e-07,577.5086857536561,577.5086857536558,577.5105150903997,577.5105150903994
0.46,3.1204645519989957e-17,2.0,0.24273142349633922,2.7681563646290775e-15,6.758745131793846e-15,-1.0327911848157924e-05,1.292120375407998e-22,2.0,0.3163233699747358,7.954921616357841e-23,-1.0868467665738671e-16,5.2557349896257587e-17,1.1328644216802046,0.0,0.0,0.0,1.5519871400505458,-2.4734676779642036e-16,-1.126559779145152e-15,5.21500120349429e-07,576.4339321627386,576.4339321627384,576.4355858501252,576.435585850125
0.464,3.135793017916758e-17,2.0,0.24730784018966856,2.8107110430097265e-15,6.4332406331101885e-15,-1.0361376310749275e-05,1.2889332824286273e-22,2.0,0.3204762601150138,7.935300321533097e-23,-1.002863701859484e-16,5.463425562628946e-17,1.1393308630513381,0.0,0.0,0.0,1.5099508099404848,-1.9814558868936599e-16,-9.563593076772546e-16,4.683526516878801e-07,575.3666993024854,575.366699302485,575.3681872131655,575.3681872131654
0.468,3.1534054936601124e-17,2.0,0.2519088947406868,2.7449729029202988e-15,5.949766998263061e-15,-1.0349847736473518e-05,1.2857380329668416e-22,2.0,0.3246397784282443,7.915628811434676e-23,-8.906035803461759e-17,5.567475877508528e-17,1.1456221510465487,0.0,0.0,0.0,1.4683092251755392,-7.656079259962418e-17,-7.690260020627915e-16,4.1789118893312947e-07,574.3075295109711,574.307529510971,574.3088595591197,574.3088595591196
0.47200000000000003,3.1731003978895484e-17,2.0,0.2565339108583331,2.5723692213259716e-15,5.352264125980028e-15,-1.0297324578705487e-05,1.2825348399294104e-22,2.0,0.32881364748969266,7.895908396820224e-23,-7.504854441445876e-17,5.4900827749504854e-17,1.1517401145929473,0.0,0.0,0.0,1.427028788859051,5.080853963028276e-17,-6.106973249146031e-16,3.7025218826900556e-07,573.2556102916622,573.2556102916622,573.2567908787657,573.2567908787656
0.47600000000000003,3.1946644522828503e-17,2.0,0.2611822161904136,2.309892132455471e-15,4.6576860889697974e-15,-1.0207613636514727e-05,1.279323913954191e-22,2.0,0.332997592831094,7.876140374478859e-23,-5.890381691169879e-17,5.2024972565210235e-17,1.1576886091428986,0.0,0.0,0.0,1.3861201680006083,1.6576382556626303e-16,-4.613113645123522e-16,3.253730945612817e-07,572.211254316855,572.211254316855,572.2122936960271,572.212293696027
0.48000000000000004,3.21787613144967e-17,2.0,0.2658531426701932,1.9464366148057437e-15,3.860446859942865e-15,-1.0084330451592038e-05,1.2761054634297718e-22,2.0,0.33719134291505654,7.856326027352109e-23,-4.102745055573016e-17,4.7133552839402926e-17,1.1634692936586088,0.0,0.0,0.0,1.3455932445207508,3.000158052312189e-16,-2.959109464658293e-16,2.831842121709003e-07,571.1747561661311,571.1747561661313,571.1756624178632,571.175662417863
0.48400000000000004,3.2424573248999136e-17,2.0,0.2705460267918926,1.4978665070386115e-15,2.9797405286459973e-15,-9.930902023591078e-06,1.2728796945149623e-22,2.0,0.3413946291096666,7.836466624653896e-23,-2.1613569491796715e-17,4.02514107455916e-17,1.1690832550700527,0.0,0.0,0.0,1.3054572480790498,4.229019508721581e-16,-1.3724308690980245e-16,2.436114161761642e-07,570.1463955231025,570.1463955231028,570.1471765394384,570.1471765394383
0.48800000000000004,3.268088924361926e-17,2.0,0.2752602155776434,1.0129500348948719e-15,2.0488138461801848e-15,-9.75041623785792e-06,1.269646811158128e-22,2.0,0.34560718566329346,7.816563421989573e-23,-1.075667466870595e-18,3.1661789812919594e-17,1.1745322201225483,0.0,0.0,0.0,1.2657091959729587,4.949733579885293e-16,-4.274578946687905e-18,2.063971865404771e-07,569.1261402793006,569.1261402793008,569.1268031733927,569.1268031733925
0.49200000000000005,3.294454098478466e-17,2.0,0.279995075727541,5.023722578910969e-16,1.0831912929205018e-15,-9.545973503818642e-06,1.2664070151163739e-22,2.0,0.3498287496795929,7.796617661474032e-23,2.0035342410218112e-17,2.1969195595125057e-17,1.1798194407562246,0.0,0.0,0.0,1.2263272423417935,5.573914611258472e-16,1.1679997539998842e-16,1.7168106291880287e-07,568.1134716023721,568.1134716023724,568.1140239802236,568.1140239802234
0.49600000000000005,3.3212419871613637e-17,2.0,0.28474995573507234,-1.8728646331312958e-17,8.251308269342937e-17,-9.320515737723045e-06,1.2631605059745767e-22,2.0,0.35405906109270824,7.776630571848863e-23,4.136612175877478e-17,1.1637736401681978e-17,1.1849458791981127,0.0,0.0,0.0,1.187365843555647,6.042434552391437e-16,2.4309438653567283e-16,1.3940354049628705e-07,567.1098343296715,567.1098343296718,567.1102836495318,567.1102836495318
0.5,3.3481231583482514e-17,2.0,0.28952420835330767,-5.544119172520134e-16,-9.436206504879683e-16,-9.07676834491806e-06,1.259907481164266e-22,2.0,0.3582978626426669,7.75660336859861e-23,6.276031932348068e-17,8.674428730297218e-19,1.1899105870525286,0.0,0.0,0.0,1.1488344827426633,6.569189482594971e-16,3.658891533349679e-16,1.0943103772371887e-07,566.1155216524968,566.1155216524973,566.1158749857253,566.1158749857252
0.504,3.374781055138623e-17,2.0,0.2943171981248926,-1.097681157948071e-15,-2.004433161173294e-15,-8.817168061078499e-06,1.2566481359823572e-22,2.0,0.3625448998509709,7.736537254066091e-23,8.415186037537629e-17,-1.0242815236737408e-17,1.194714426606741,0.0,0.0,0.0,1.1107272664681473,7.02795676234058e-16,5.030706757924549e-16,8.153697983375653e-08,565.1304306674076,565.130430667408,565.1306943946466,565.1306943946466
0.508,3.4008658444485e-17,2.0,0.2991283154371169,-1.627826508494342e-15,-3.0836856288822865e-15,-8.544025802666542e-06,1.2533826636097357e-22,2.0,0.3667999209963806,7.716433417566815e-23,1.05476200133554e-16,-2.1529575774776414e-17,1.199361475229005,0.0,0.0,0.0,1.0730094415167928,7.253868499365396e-16,6.30885557152701e-16,5.567334355782511e-08,564.1537089906249,564.1537089906254,564.1538893750138,564.1538893750138
0.512,3.426013143881384e-17,2.0,0.3039569484911701,-2.1640293977641157e-15,-4.155900576291263e-15,-8.259645854248515e-06,1.2501112551296959e-22,2.0,0.3710626770908895,7.696293035502498e-23,1.2648552266427925e-16,-3.285707914358449e-17,1.203854963272771,0.0,0.0,0.0,1.0357023602100854,7.698494680785903e-16,7.356009055722279e-16,3.19263300510732e-08,563.18595440898,563.1859544089806,563.1860580296287,563.1860580296287
0.516,3.449885105677979e-17,2.0,0.30880246858166954,-2.7077748019175084e-15,-5.218454792988548e-15,-7.96615745599952e-06,1.2468340995462317e-22,2.0,0.37533292185588907,7.676117271473675e-23,1.4677240815266829e-16,-4.4276777173721733e-17,1.2081940271284286,0.0,0.0,0.0,0.9988573602071282,8.168347100929016e-16,8.375527172489765e-16,1.0185296585437459e-08,562.2285485868605,562.228548586861,562.2285817007304,562.2285817007304
0.52,3.472162442771923e-17,2.0,0.31366425309743434,-3.2524221534316437e-15,-6.2809282603412884e-15,-7.66550802791099e-06,1.2435513838021856e-22,2.0,0.37961041169852183,7.655907276391424e-23,1.6622927790102434e-16,-5.588702466913873e-17,1.2123771226788318,0.0,0.0,0.0,0.9624796775839584,8.569609272437195e-16,9.5157257833436e-16,-9.675354001153129e-09,561.2816810943755,561.281681094376,561.2816495853358,561.2816495853358
0.524,3.492525398454335e-17,2.0,0.3185416872687382,-3.789821507780361e-15,-7.34923292187803e-15,-7.359498734642184e-06,1.240263292797251e-22,2.0,0.3838949056882218,7.63566418858821e-23,1.8499087258278855e-16,-6.759274193904421e-17,1.2164050504669235,0.0,0.0,0.0,0.9265708475865593,8.880121030244988e-16,1.0761517310601086e-15,-2.7747003666636795e-08,560.3454455658587,560.3454455658593,560.3453550531752,560.3453550531754
0.528,3.5106396201264975e-17,2.0,0.32343416917849827,-4.3207010762209295e-15,-8.413757771730023e-15,-7.049718820205928e-06,1.236970009405835e-22,2.0,0.38818616553344065,7.615389133927846e-23,2.031002584583719e-16,-7.927651271651597e-17,1.220280277787922,0.0,0.0,0.0,0.8911220243281159,9.197931749677117e-16,1.1952781563772724e-15,-4.420362180921223e-08,559.4196644490396,559.4196644490404,559.4195200150714,559.4195200150716
0.532,3.526144129180288e-17,2.0,0.328341117664045,-4.81734258928084e-15,-9.436055110265629e-15,-6.737716187987798e-06,1.2336717144947773e-22,2.0,0.39248395555855764,7.595083225914586e-23,2.2030483481824918e-16,-9.07554168864738e-17,1.2240065559735558,0.0,0.0,0.0,0.8561079541485352,9.191315111059752e-16,1.2762004989562244e-15,-5.9028504584416516e-08,558.503728533168,558.5037285331688,558.5035353430354,558.5035353430357
0.536,3.5386334252722573e-17,2.0,0.3332619431695306,-5.286009723080698e-15,-1.0322227965622505e-14,-6.424859266162265e-06,1.2303685869409306e-22,2.0,0.3967880426809731,7.574747565801351e-23,2.3563086577211653e-16,-1.0177024143170302e-16,1.2275860182040692,0.0,0.0,0.0,0.8215619155684108,9.237895865109428e-16,1.2538804913455858e-15,-7.236790070007941e-08,557.5985592619854,557.5985592619862,557.5983220298134,557.5983220298136
0.54,3.54780153411171e-17,2.0,0.338196075391168,-5.739993439059004e-15,-1.1040069546110658e-14,-6.112450810183385e-06,1.2270608036486003e-22,2.0,0.401098196388383,7.554383242697107e-23,2.4774910622132845e-16,-1.1225691399316732e-16,1.2310203040405203,0.0,0.0,0.0,0.7874613861698807,9.423821851373822e-16,1.1774953023142913e-15,-8.424239385473906e-08,556.70361761628,556.7036176162807,556.703341013892,556.7033410138921
0.544,3.553444096390553e-17,2.0,0.34314293169019905,-6.1896301219482864e-15,-1.160504039808288e-14,-5.801682819543732e-06,1.2237485395668465e-22,2.0,0.4054141887162341,7.533991333673376e-23,2.559085356637289e-16,-1.224184865785591e-16,1.2343100816257444,0.0,0.0,0.0,0.7538473737493365,9.72357768559659e-16,1.0993754054856129e-15,-9.472783788521914e-08,555.8200319435111,555.8200319435119,555.8197204186487,555.8197204186487
0.548,3.555396964016215e-17,2.0,0.34810193639695086,-6.635660486816077e-15,-1.202262072417397e-14,-5.493619658148279e-06,1.2204319677066493e-22,2.0,0.40973579422535716,7.513572903869918e-23,2.602393940455859e-16,-1.3247413733693615e-16,1.2374553935154464,0.0,0.0,0.0,0.7207221386671465,1.0032149541506164e-15,1.0151693176377637e-15,-1.0392426947979887e-07,554.9479162094243,554.947916209425,554.9475739037875,554.9475739037877
0.552,3.553521838818634e-17,2.0,0.35307252234763625,-7.01007518491731e-15,-1.227798045808232e-14,-5.189219922190292e-06,1.217111259157937e-22,2.0,0.41406278997977863,7.493129006599562e-23,2.6090893911444193e-16,-1.4216238457610613e-16,1.2404573128179108,0.0,0.0,0.0,0.6880846370331273,9.547201993111006e-16,9.028049300416754e-16,-1.1191134701105234e-07,554.0872971572024,554.0872971572031,554.0869279711925,554.0869279711925
0.556,3.547715505736625e-17,2.0,0.3580541307285284,-7.267393931103687e-15,-1.2342230096922073e-14,-4.889342441323153e-06,1.2137865831064797e-22,2.0,0.4183949555247078,7.472660683452212e-23,2.577077496220878e-16,-1.5059587554820907e-16,1.2433179583352714,0.0,0.0,0.0,0.655933906552385,8.484807837019564e-16,7.434756763669783e-16,-1.1876599477386407e-07,553.2382031328989,553.2382031328995,553.237810732659,553.237810732659
