Time_s,X,Y,Z,Roll_deg,Pitch_deg,Yaw_deg,Ref_X,Ref_Y,Ref_Z,Ref_Yaw,vx,vy,vz,p,q,r,T_pert,tau_x,tau_y,tau_z,RPM_0,RPM_1,RPM_2,RPM_3
0.0040000000000000036,1.0221975646044887e-22,-4.0,0.010006999594037988,-7.417734548572634e-19,7.147505149775166e-19,-9.884920825861219e-20,1.968275594888396e-22,-4.0,7.200000000000012e-05,0.0,2.8463870859018855e-19,-800.0,2.0013999188075973,0.0,0.0,0.0,-10.19,8.661928940161907e-19,2.6782183975770925e-19,1.1547150625617203e-19,0.0,0.0,0.0,0.0
0.008000000000000007,4.8092474872333755e-23,-4.0,0.010010999365392528,-1.581388883969184e-18,7.632465471407532e-19,-1.4811880225608202e-19,1.968275594888396e-22,-4.0,0.00021513340800000038,0.0,1.5211147414780046e-19,-444.44444444444446,1.1123332628213918,0.0,0.0,0.0,-0.034338475932384316,1.031688221068517e-18,-4.977063177138214e-19,6.162064434312589e-20,534.6826504237879,534.682650423788,534.6826504237879,534.682650423788
0.01200000000000001,-3.0264832305613255e-22,-4.0,0.010014999136880033,-1.972358215532504e-18,-8.806842753437983e-19,-1.956339531980429e-19,1.968275594888396e-22,-4.0,0.00042854147030131276,0.0,-4.5618083745232924e-20,-2.5472202970905502e-23,0.0009999428519315637,0.0,0.0,0.0,0.11268126898165703,5.663085508783315e-19,5.370260559545079e-18,6.16046861448668e-20,538.6882899136241,538.6882899136242,538.6882899136241,538.6882899136241
0.016000000000000014,-4.416685204827165e-22,-4.0,0.010018998914443494,-7.337730450988394e-19,-1.6266505293606586e-18,-2.481324655266189e-19,1.968275594888396e-22,-4.0,0.0007113732083620786,0.0,-5.784718807839041e-20,-2.896653176798677e-23,0.0009999434728236167,0.0,0.0,0.0,0.26021501221340504,-1.308462656663229e-18,-1.2370742246498834e-18,6.939082308871235e-20,542.6782125744407,542.6782125744409,542.6782125744407,542.6782125744407
0.020000000000000018,-3.4491569811127046e-22,-4.0,0.010022998708143238,-7.644290746956901e-19,-7.357309271802569e-19,-4.723889985126223e-19,1.968275594888396e-22,-4.0,0.0010627853561306145,0.0,-1.0051194488750025e-20,-2.0966999201539888e-23,0.000999945707343998,0.0,0.0,0.0,0.40825154765299004,8.948628962706412e-20,-3.549713796777693e-18,2.722044320544865e-19,546.6524627992839,546.652462799284,546.6524627992839,546.652462799284
0.02400000000000002,-1.8041320984948337e-22,-4.0,0.01002699852321945,-7.623388134709078e-19,-3.3638087938582526e-19,-5.174313691019036e-19,1.968275594888396e-22,-4.0,0.0014819422978531074,0.0,2.902312763846728e-20,-1.0802972380933957e-23,0.0009999499065601464,0.0,0.0,0.0,0.5567798034669496,5.387738916708901e-20,-1.2751010375039598e-18,7.209562513421556e-20,550.6110859245991,550.6110859245993,550.6110859245991,550.6110859245991
0.027999999999999997,-1.9551253148148972e-22,-4.0,0.010030998361601432,7.059883823385725e-19,-4.103165559837765e-21,-4.766058443897068e-19,1.968275594888396e-22,-4.0,0.001968016006352204,0.0,2.2031042053117208e-20,-5.50176940883044e-24,0.0009999552756063262,0.0,0.0,0.0,0.7057888201850127,-1.6579057042540483e-18,1.5996602321641051e-18,-2.6325946649760574e-20,554.5541276314186,554.5541276314187,554.5541276314186,554.5541276314187
0.032,-7.225146669876168e-23,-4.0,0.01003499822313066,9.064065444464277e-19,1.1145731368807356e-18,-5.267511466664594e-19,1.968275594888396e-22,-4.0,0.002520185981773086,0.0,2.9739017364515057e-20,3.2598655658456944e-24,0.0009999610302499629,0.0,0.0,0.0,0.8552677502443924,-2.782278195102583e-19,-2.897383638169377e-18,7.829921042140257e-20,558.4816339339818,558.4816339339819,558.4816339339818,558.4816339339819
0.036000000000000004,2.9156536734743827e-24,-4.0,0.010038998106584505,1.3784454045770615e-18,1.9588336000154758e-18,-7.612135430274054e-19,1.968275594888396e-22,-4.0,0.003137639190793574,0.0,2.4657364182041733e-20,1.5247070101281313e-23,0.0009999667122655848,0.0,0.0,0.0,1.005205857374558,-6.097459686055745e-19,-5.9818224798464655e-19,2.9570662399009437e-19,562.3936511647871,562.3936511647872,562.3936511647871,562.3936511647871
0.04000000000000001,-1.7695132079712097e-22,-4.0,0.01004299801023218,1.3578165455352257e-18,1.1730833588759123e-18,-8.880770316553416e-19,1.968275594888396e-22,-4.0,0.0038195700062949476,0.0,-3.3350705374337716e-21,2.0931754108439206e-23,0.0009999720706184087,0.0,0.0,0.0,1.1555925165409673,-6.76833857014931e-20,3.696225823354685e-18,1.796950083755673e-19,566.2902259747943,566.2902259747945,566.2902259747943,566.2902259747945
0.04400000000000001,-1.0622192267773317e-22,-4.0,0.010046997932085614,1.779682021467753e-18,1.4120050302441006e-18,-6.707648361275998e-19,1.968275594888396e-22,-4.0,0.004565180147490079,0.0,-1.2172595331504086e-20,2.563385492302027e-23,0.0009999769875585277,0.0,0.0,0.0,1.306417213581022,-5.839356403271722e-19,-3.125028758969169e-18,-2.170851926084213e-19,570.171405325818,570.1714053258181,570.171405325818,570.171405325818
0.048000000000000015,-1.4881623505576372e-22,-4.0,0.010050997870172286,2.1705532990691712e-18,1.2200982468248886e-18,-9.178085359697827e-19,1.968275594888396e-22,-4.0,0.005373678620505558,0.0,-7.113671273601666e-21,3.0427922341121397e-23,0.0009999814177730562,0.0,0.0,0.0,1.457669544193673,-5.778333252358455e-19,1.392630917598135e-18,3.164792118787113e-19,574.0372364668525,574.0372364668526,574.0372364668525,574.0372364668526
0.05200000000000002,-1.1514350453334113e-22,-4.0,0.01005499782287198,2.252722664283455e-18,1.3609200676304067e-18,-7.225794043484553e-19,1.968275594888396e-22,-4.0,0.006244281659414513,0.0,3.990978163109744e-21,3.6641311774477866e-23,0.000999985385156943,0.0,0.0,0.0,1.6093392128506747,-2.455961385406453e-19,-1.0982316014577789e-18,-1.8995690738919353e-19,577.887766909449,577.8877669094492,577.887766909449,577.887766909449
0.055999999999999994,-1.1971451786956276e-22,-4.0,0.010058997788458063,2.477936031286862e-18,1.2529454310235892e-18,-4.727151502823587e-19,1.968275594888396e-22,-4.0,0.007176212667716816,0.0,-1.862930709088257e-22,3.987748321453679e-23,0.000999988923424365,0.0,0.0,0.0,1.7614160334574083,-4.19824886753233e-19,4.523714733283753e-19,-2.61745660673788e-19,581.723044448117,581.7230444481171,581.723044448117,581.723044448117
0.06,-1.2472441899551724e-22,-4.0,0.01006299776538637,2.6255517098492596e-18,1.3431885273947531e-18,-4.696335360138728e-19,1.968275594888396e-22,-4.0,0.00816870216026346,0.0,1.3003452295191134e-21,4.3223860451348103e-23,0.0009999920605305648,0.0,0.0,0.0,1.9138899269147558,-3.463421020427163e-19,-1.8130036056824807e-19,1.6308257728114724e-20,585.5431171026049,585.543117102605,585.5431171026049,585.543117102605
0.064,-1.2997581716743368e-22,-4.0,0.01006699775241202,2.6340888988160204e-18,1.3343685437051654e-18,-5.266420273525101e-19,1.968275594888396e-22,-4.0,0.009220987705621774,0.0,-3.421995714547697e-22,4.55646271425274e-23,0.0009999948240675335,0.0,0.0,0.0,2.06675092053102,-1.958629352456121e-19,-7.453402318888107e-20,8.640924872394198e-20,589.3480331083894,589.3480331083895,589.3480331083894,589.3480331083894
0.068,-1.287056111664569e-22,-4.0,0.010070997748541996,2.6330430566263366e-18,1.3435554472190427e-18,-5.456434769904383e-19,1.968275594888396e-22,-4.0,0.010332313868878387,0.0,-1.1499458095876675e-21,4.60149785259794e-23,0.0009999972946117888,0.0,0.0,0.0,2.2199891474307085,-1.8709525350449238e-19,-1.743622350640435e-19,4.4388732624840207e-20,593.1378409074974,593.1378409074974,593.1378409074974,593.1378409074974
0.07200000000000001,-4.690801976215636e-22,-4.0,0.0100764336865546,-1.3884954757469967e-16,3.3800363403742064e-17,5.089687105954353e-19,1.968275594888396e-22,-4.0,0.01150193215487664,0.0,-3.5667621232142814e-20,-7.042108160804481e-22,0.0011435928837255985,0.0,0.0,0.0,2.3706805949318634,1.6502372139388666e-16,-3.401428172206468e-17,-1.208943412243094e-18,596.8411957133162,596.8411957133164,596.8411957133162,596.8411957133162
0.07600000000000001,-1.2393570663099926e-21,-4.0,0.01008801957546907,-5.114618761289985e-16,1.1467141932847236e-16,-1.5795745929321516e-18,1.968275594888396e-22,-4.0,0.01272910095188534,0.0,-1.1356559124656288e-19,-8.352125895090011e-21,0.0019021826088596108,0.0,0.0,0.0,2.5121169148262865,4.446932545678743e-16,-9.147479771269207e-17,2.4194179252281427e-18,600.2963141367311,600.2963141367312,600.2963141367311,600.2963141367311
0.08000000000000002,-1.975264444073259e-21,-4.0,0.010110565547783525,-1.0936262344601094e-15,2.1849153132611078e-16,-9.772487224708765e-18,1.968275594888396e-22,-4.0,0.014013085475695667,0.0,-1.8443506445176214e-19,-4.3219033696319565e-20,0.0037300496372207753,0.0,0.0,0.0,2.6439431683292387,7.15231131127116e-16,-1.2892403890552284e-16,9.636159167613915e-18,603.4988598683196,603.49885986832,603.4988598683199,603.4988598683196
0.08400000000000002,-2.509762633457115e-21,-4.0,0.01014843771525566,-1.8663517552209723e-15,3.578134020272949e-16,-2.1630625908469593e-17,1.968275594888396e-22,-4.0,0.015353157714143145,0.0,-1.9530510383949407e-19,-1.4559206795916128e-19,0.006729201489326375,0.0,0.0,0.0,2.766897666811984,9.783288489238368e-16,-1.7959492263085894e-16,1.425483238342468e-17,606.4706355850402,606.4706355850404,606.4706355850406,606.4706355850402
0.08800000000000002,-2.569114906343475e-21,-4.0,0.010205701094190922,-2.8250823414047354e-15,5.470478291612941e-16,-3.8313824228214804e-17,1.968275594888396e-22,-4.0,0.016748596372051543,0.0,-1.753129532573838e-19,-3.759087790584106e-19,0.010805608900658209,0.0,0.0,0.0,2.8814428908960323,1.2496767531491566e-15,-2.510038083860213e-16,2.037970846016205e-17,609.2261187205347,609.226118720535,609.226118720535,609.2261187205347
0.09200000000000003,-1.9557338016775252e-21,-4.0,0.010286010713159075,-4.000357351103744e-15,8.22662495805994e-16,-5.483953939799485e-17,1.968275594888396e-22,-4.0,0.018198686816595647,0.0,-1.2588674539697161e-19,-8.135716005202699e-19,0.015869125761282243,0.0,0.0,0.0,2.9882720024307114,1.5700752430000313e-15,-3.678899251265661e-16,2.0883483856662457e-17,611.7847994454215,611.7847994454219,611.784799445422,611.7847994454215
0.09600000000000003,7.703133408816567e-22,-4.0,0.010392705919406567,-5.3913973008874974e-15,1.1259818478080548e-15,-7.153364768406478e-17,1.968275594888396e-22,-4.0,0.019702721023079826,0.0,1.65456484976065e-20,-1.5570819362245123e-18,0.02182966347815691,0.0,0.0,0.0,3.0878999214962173,1.905191822889272e-15,-4.3701011771367644e-16,2.1762621210564052e-17,614.1613971702785,614.1613971702791,614.1613971702791,614.1613971702785
0.10000000000000003,6.421216829515982e-21,-4.0,0.010528868767457143,-6.9854956782516906e-15,1.476177071628425e-15,-8.908212501462969e-17,1.968275594888396e-22,-4.0,0.021259997521129365,0.0,3.181799335188349e-19,-2.7216172410008958e-18,0.028610935029995888,0.0,0.0,0.0,3.1807332162466206,2.241196243993336e-15,-5.24537674126011e-16,2.3451167153736063e-17,616.3676634028856,616.3676634028861,616.3676634028863,616.3676634028855
0.10400000000000004,1.611315450230708e-20,-4.0,0.010697323237409065,-8.671658326925196e-15,1.8776812354934135e-15,-1.0731253149613684e-16,1.968275594888396e-22,-4.0,0.022869821341291546,0.0,7.672457341265767e-19,-4.409333984318638e-18,0.03614603762821921,0.0,0.0,0.0,3.267188328843547,2.4625877005801146e-15,-6.249572504898273e-16,2.4974584290471803e-17,618.4152679795997,618.4152679796003,618.4152679796005,618.4152679795995
0.10800000000000004,3.1402117560927365e-20,-4.0,0.010900581482745779,-1.0398101251658906e-14,2.3109815649007176e-15,-1.2539020570789145e-16,1.968275594888396e-22,-4.0,0.024531503962043497,0.0,1.3712906834036108e-18,-6.689768553030648e-18,0.04436636627953919,0.0,0.0,0.0,3.3477991050279168,2.6309820451583583e-15,-7.124995132338023e-16,2.5552259830782403e-17,620.3183661929319,620.3183661929326,620.3183661929328,620.3183661929319
0.11199999999999999,5.390949866959909e-20,-4.0,0.011141000627514878,-1.2137019488047581e-14,2.7650076156655998e-15,-1.470153012005223e-16,1.968275594888396e-22,-4.0,0.026244363257203765,0.0,2.18996155685723e-18,-9.600830257814734e-18,0.05321012453467985,0.0,0.0,0.0,3.4227911946659924,2.770867377382623e-15,-7.917391643702876e-16,3.04472902042018e-17,622.0835882998244,622.083588299825,622.0835882998252,622.0835882998243
0.11599999999999999,8.509373638730985e-20,-4.0,0.01142075273753005,-1.3931186346354344e-14,3.2552691916446475e-15,-1.6852637556805108e-16,1.968275594888396e-22,-4.0,0.028007723443744872,0.0,3.2007983264668818e-18,-1.3195337066784929e-17,0.06263025408829256,0.0,0.0,0.0,3.492456219462509,2.962767575051696e-15,-8.903937046482339e-16,3.121235511384456e-17,623.7189416911027,623.7189416911034,623.7189416911036,623.7189416911026
0.12,1.268592042274933e-19,-4.0,0.011741856517930223,-1.5786846989344548e-14,3.766919489005435e-15,-1.8203976229299976e-16,1.968275594888396e-22,-4.0,0.029820915030003513,0.0,4.419412754274458e-18,-1.7547556491407035e-17,0.07258505472712493,0.0,0.0,0.0,3.557027455488139,3.1669910481864948e-15,-9.810866396572606e-16,2.276487057007931e-17,625.2309010948522,625.2309010948529,625.2309010948532,625.2309010948521
0.124,1.8164343965123716e-19,-4.0,0.012106198357517549,-1.767287228123115e-14,4.243826921561859e-15,-1.845365328727319e-16,1.968275594888396e-22,-4.0,0.03168327476428597,0.0,5.9279272332514284e-18,-2.2732395701510262e-17,0.08303671233316715,0.0,0.0,0.0,3.6167004433864958,3.3403646073798727e-15,-1.0160276307915147e-15,1.0463332774035323e-17,626.6249226796207,626.6249226796215,626.6249226796216,626.6249226796205
0.128,2.518614649600348e-19,-4.0,0.012515484985758293,-1.9518232362512873e-14,4.6272030402320586e-15,-1.802992646556112e-16,1.968275594888396e-22,-4.0,0.033594145583865524,0.0,7.859909052536916e-18,-2.87656040836158e-17,0.0939471828591663,0.0,0.0,0.0,3.6717711104461843,3.4341873992879998e-15,-9.822609025253668e-16,2.7123191216647992e-18,627.9086833484338,627.9086833484345,627.9086833484347,627.9086833484334
0.132,3.390620582555803e-19,-4.0,0.012971239127249998,-2.132478661246687e-14,4.9162956608187665e-15,-1.733509079154656e-16,1.968275594888396e-22,-4.0,0.035552876564369104,0.0,1.0246081448453914e-17,-3.561346504276073e-17,0.10527288623568935,0.0,0.0,0.0,3.7225500156676317,3.5286889694230886e-15,-9.336640566913899e-16,-6.160695823772865e-19,629.0900766727788,629.0900766727796,629.0900766727797,629.0900766727785
0.136,4.446219171831165e-19,-4.0,0.01347491167020858,-2.307583513000759e-14,5.094812982809536e-15,-1.563583719769634e-16,1.968275594888396e-22,-4.0,0.037558822869550326,0.0,1.3046698652594596e-17,-4.324694750035128e-17,0.11697849147537501,0.0,0.0,0.0,3.769126021109816,3.602297102036627e-15,-8.593732312068446e-16,-1.2622478881456545e-17,630.1717403153358,630.1717403153366,630.1717403153367,630.1717403153355
0.14,5.697561466898045e-19,-4.0,0.014027849792492674,-2.4716576400545474e-14,5.125810847258426e-15,-1.2810410859060348e-16,1.968275594888396e-22,-4.0,0.03961134570144607,0.0,1.6277662377547493e-17,-5.1615806611705856e-17,0.12903885215983393,0.0,0.0,0.0,3.8116550521601003,3.609338579523482e-15,-7.340860773453821e-16,-2.646480968915085e-17,631.1577994251796,631.1577994251805,631.1577994251805,631.1577994251794
0.14400000000000002,7.146595588390686e-19,-4.0,0.014631271621197053,-2.620782841683875e-14,5.022300909076473e-15,-9.70359086536982e-17,1.968275594888396e-22,-4.0,0.04170981225091381,0.0,1.994884298669638e-17,-6.060808971119782e-17,0.14142743511818462,0.0,0.0,0.0,3.850347853264597,3.564228340079421e-15,-6.033912151314462e-16,-3.090320016943113e-17,632.0535769692193,632.0535769692203,632.0535769692203,632.0535769692191
0.14800000000000002,8.787906721291598e-19,-4.0,0.015286299409033505,-2.748449730707943e-14,4.818980276016074e-15,-6.341243200657662e-17,1.968275594888396e-22,-4.0,0.043853595648546906,0.0,2.3937147065849454e-17,-7.003761642823662e-17,0.15411553198027317,0.0,0.0,0.0,3.8853520346924486,3.433924538212447e-15,-4.958772241176311e-16,-3.5157153313800763e-17,632.8628668612122,632.8628668612132,632.8628668612131,632.8628668612121
0.15200000000000002,1.061205318037065e-18,-4.0,0.01599396566805107,-2.8587562733355104e-14,4.549485861307694e-15,-2.5246309964862652e-17,1.968275594888396e-22,-4.0,0.046042074915965056,0.0,2.8087320073419654e-17,-7.971905892276358e-17,0.16707877267382512,0.0,0.0,0.0,3.916805898050902,3.337691595203562e-15,-4.1588002048701123e-16,-4.183994258982685e-17,633.5891923243589,633.5891923243598,633.5891923243597,633.5891923243587
0.15600000000000003,1.260981183032136e-18,-4.0,0.01675521869197704,-2.952360783393073e-14,4.2178525410415804e-15,1.750996627356959e-17,1.968275594888396e-22,-4.0,0.048274634917477216,0.0,3.2314007797267066e-17,-8.954102258225187e-17,0.18029504781805689,0.0,0.0,0.0,3.9448394811416074,3.2380446642830524e-15,-3.356865633644247e-16,-4.876742979523038e-17,634.235836421598,634.2358364215988,634.2358364215987,634.2358364215978
0.16000000000000003,1.4769365627423317e-18,-4.0,0.017570927501022574,-3.0285949495647637e-14,3.829294517119306e-15,6.147666444118397e-17,1.968275594888396e-22,-4.0,0.0505506663121142,0.0,3.659601211265057e-17,-9.94235830096012e-17,0.19374359416398368,0.0,0.0,0.0,3.9695755536039803,3.1198258823114757e-15,-2.536343870159192e-16,-5.193832672905485e-17,634.8058705755127,634.8058705755136,634.8058705755135,634.8058705755126
0.16400000000000003,1.707973549421342e-18,-4.0,0.018441886285351417,-3.0904224398863096e-14,3.3586453006114567e-15,1.0092517571821876e-16,1.968275594888396e-22,-4.0,0.052869565506028296,0.0,4.096824148657624e-17,-1.0926617425278165e-16,0.20740485566761863,0.0,0.0,0.0,3.9911304763100275,3.0248687737992638e-15,-1.3833051929465075e-16,-4.847007597144705e-17,635.3021792086574,635.3021792086583,635.3021792086581,635.3021792086574
0.16800000000000004,1.952687836129951e-18,-4.0,0.019368815393955983,-3.147475307618844e-14,2.781522454224182e-15,1.3530254882242136e-16,1.968275594888396e-22,-4.0,0.055230734605257216,0.0,4.551955879553403e-17,-1.190776497891857e-16,0.22126006004238308,0.0,0.0,0.0,4.009621070409814,3.0329682822730384e-15,1.5581370009766935e-17,-4.417311341060999e-17,635.7276219909822,635.7276219909832,635.7276219909829,635.7276219909821
0.17200000000000004,2.2087487866934603e-18,-4.0,0.020352360232786717,-3.2063328154042394e-14,2.125290390850288e-15,1.6821391970016892e-16,1.968275594888396e-22,-4.0,0.05763358136884959,0.0,5.023873223388603e-17,-1.290512887123486e-16,0.23529064004390693,0.0,0.0,0.0,4.025168828558862,3.115029276028591e-15,1.5691593360829863e-16,-4.3881682456020064e-17,636.0851339947925,636.0851339947935,636.0851339947932,636.0851339947924
0.176,2.4729043735627915e-18,-4.0,0.021393114709196324,-3.2662469908364005e-14,1.4756028221292676e-15,1.9942675835230145e-16,1.968275594888396e-22,-4.0,0.06007751916234955,0.0,5.487695925238801e-17,-1.3938127680926935e-16,0.24948015609851767,0.0,0.0,0.0,4.03785013245229,3.1900009122788318e-15,2.165384670090075e-16,-4.3260718570652676e-17,636.3765847685983,636.3765847685993,636.376584768599,636.3765847685983
0.18,2.7428289005057783e-18,-4.0,0.022491612508952766,-3.3255211608367175e-14,8.191656483205371e-16,2.326222148085976e-16,1.968275594888396e-22,-4.0,0.0625619669116377,0.0,5.925236194108064e-17,-1.5011777527463856e-16,0.26381401736167914,0.0,0.0,0.0,4.04776078924987,3.2463008015837008e-15,2.8341733792033015e-16,-4.6872351887970703e-17,636.6042656661209,636.6042656661219,636.6042656661216,636.6042656661209
0.184,3.0159456839119207e-18,-4.0,0.023648327486465674,-3.3795743177557275e-14,1.6701733396663031e-16,2.651207853703639e-16,1.968275594888396e-22,-4.0,0.06508634905712558,0.0,6.329510714332947e-17,-1.6118391450567732e-16,0.2782775964122783,0.0,0.0,0.0,4.054997813744803,3.2490829413599708e-15,3.430419239955813e-16,-4.743763132278367e-17,636.7704728690725,636.7704728690735,636.7704728690732,636.7704728690725
0.188,3.289938481132004e-18,-4.0,0.02486367306953037,-3.4252869744929734e-14,-4.977372370602097e-16,2.946818964960577e-16,1.968275594888396e-22,-4.0,0.06765009550830155,0.0,6.710326848079103e-17,-1.7238187471577643e-16,0.29285584035552076,0.0,0.0,0.0,4.059661415490632,3.2122449292927115e-15,4.215643733670067e-16,-4.535921901037668e-17,636.877555259385,636.877555259386,636.8775552593856,636.877555259385
0.192,3.561970889537853e-18,-4.0,0.026138011701088287,-3.4594803473547964e-14,-1.1439808953616897e-15,3.15375290088139e-16,1.968275594888396e-22,-4.0,0.0702526415986251,0.0,7.058957478720303e-17,-1.834762474820571e-16,0.3075345807666108,0.0,0.0,0.0,4.061834647009672,3.1329029328998384e-15,4.730023485391836e-16,-3.6234769707040075e-17,636.9274493455425,636.9274493455436,636.9274493455432,636.9274493455425
0.196,3.829081669341258e-18,-4.0,0.027471657416957732,-3.4848097344351694e-14,-1.7244536468686778e-15,3.3069304820208966e-16,1.968275594888396e-22,-4.0,0.07289342804076722,0.0,7.359193404071965e-17,-1.9430088076859217e-16,0.3223009689564654,0.0,0.0,0.0,4.06159703295484,3.0769292677801993e-15,4.722367575740698e-16,-3.0826932100396916e-17,636.9219942790056,636.9219942790066,636.9219942790064,636.9219942790057
0.2,4.088922228414701e-18,-4.0,0.028864877894822623,-3.500100156220062e-14,-2.2310030674750953e-15,3.425804857033221e-16,1.968275594888396e-22,-4.0,0.07557190088219416,0.0,7.595193165497764e-17,-2.0477573126243154e-16,0.3371430314059422,0.0,0.0,0.0,4.059025560511549,3.001350414962652e-15,4.532169675358395e-16,-2.7471858358822234e-17,636.8629562582297,636.8629562582307,636.8629562582304,636.8629562582297
0.20400000000000001,4.339482016267505e-18,-4.0,0.030317893549052184,-3.51480882120387e-14,-2.6636419328321022e-15,3.483207959543923e-16,1.968275594888396e-22,-4.0,0.07828751146109222,0.0,7.76181891684721e-17,-2.1495291215575702e-16,0.35204902128287696,0.0,0.0,0.0,4.054200609096528,3.0294483142034294e-15,4.276011434572672e-16,-2.080309475319071e-17,636.7521662063215,636.7521662063225,636.7521662063222,636.7521662063215
0.20800000000000002,4.578963003260042e-18,-4.0,0.03183087987250039,-3.538027265892004e-14,-3.0142570954469007e-15,3.5286968779713063e-16,1.968275594888396e-22,-4.0,0.08103971636263091,0.0,7.855455714146863e-17,-2.251554120167532e-16,0.3670073913483996,0.0,0.0,0.0,4.047199388906772,3.163415897299567e-15,3.8706708613269543e-16,-1.967136264343292e-17,636.5913706003781,636.5913706003793,636.591370600379,636.5913706003782
0.21200000000000002,4.8059574410903625e-18,-4.0,0.03340397126744933,-3.569447901002194e-14,-3.282777410531826e-15,3.575523083887712e-16,1.968275594888396e-22,-4.0,0.08382797737556208,0.0,7.877697545273864e-17,-2.358468235699814e-16,0.38200719009389084,0.0,0.0,0.0,4.038092843512981,3.2997729452463698e-15,3.3817768692260926e-16,-2.003900605741455e-17,636.3821616255699,636.3821616255709,636.3821616255707,636.38216162557
0.21600000000000003,5.019556547525001e-18,-4.0,0.03503725973981383,-3.607383603055847e-14,-3.487013449881571e-15,3.622301781001991e-16,1.968275594888396e-22,-4.0,0.08665176144915256,0.0,7.834027242582125e-17,-2.472169803577898e-16,0.3970378796430266,0.0,0.0,0.0,4.026955952308803,3.4222571155579994e-15,3.0018712796975733e-16,-2.0250701608179292e-17,636.1262150309824,636.1262150309835,636.1262150309833,636.1262150309825
0.22000000000000003,5.2191085586642844e-18,-4.0,0.03673078947047921,-3.6490284272821855e-14,-3.644687188292972e-15,3.62004598652135e-16,1.968275594888396e-22,-4.0,0.08951054065044778,0.0,7.73583127268789e-17,-2.592293210481559e-16,0.4120883900641581,0.0,0.0,0.0,4.0138761390526385,3.5166953582402057e-15,2.765878819070661e-16,-1.4740074428823748e-17,635.8254848942147,635.825484894216,635.8254848942156,635.8254848942148
0.22400000000000003,5.404252847053863e-18,-4.0,0.03848456617185185,-3.685876250779637e-14,-3.781653258790789e-15,3.5932491918421837e-16,1.968275594888396e-22,-4.0,0.09240379212186403,0.0,7.598682022341045e-17,-2.7163355379721854e-16,0.4271479189944361,0.0,0.0,0.0,3.9989234376095704,3.514631969570818e-15,2.7745830697258247e-16,-1.1889307209748607e-17,635.4815191043554,635.4815191043565,635.4815191043563,635.4815191043554
0.22800000000000004,5.574579100654537e-18,-4.0,0.04029856852558759,-3.720441405031974e-14,-3.909007620759697e-15,3.5614287677923113e-16,1.968275594888396e-22,-4.0,0.09533099803910691,0.0,7.440770774377675e-17,-2.841198621147348e-16,0.44220748354967243,0.0,0.0,0.0,3.9821459693787498,3.5389061876374378e-15,2.910560302385182e-16,-1.1217517210311722e-17,635.0953553510462,635.0953553510474,635.0953553510471,635.0953553510464
0.23200000000000004,5.729650018351403e-18,-4.0,0.04217273142251244,-3.765587285957987e-14,-4.0304404168981445e-15,3.5552728418204184e-16,1.968275594888396e-22,-4.0,0.09829164556941347,0.0,7.269107618843603e-17,-2.967882846325242e-16,0.4572584270902902,0.0,0.0,0.0,3.9636268060328383,3.712070814044804e-15,3.0927071290499997e-16,-1.4109734980520193e-17,634.6688305223416,634.6688305223429,634.6688305223427,634.6688305223418
0.23600000000000004,5.869060517708713e-18,-4.0,0.04410695451312616,-3.82493650692559e-14,-4.149626768380138e-15,3.5786815454177547e-16,1.968275594888396e-22,-4.0,0.10128522683011584,0.0,7.088823683513393e-17,-3.102388063447038e-16,0.4722912151752454,0.0,0.0,0.0,3.9434331350771616,3.935088399939374e-15,3.3167487254567375e-16,-1.7562893493003254e-17,634.2034122746612,634.2034122746625,634.2034122746622,634.2034122746613
0.24000000000000005,5.991971851970559e-18,-4.0,0.046101104112457665,-3.896417733423802e-14,-4.226646792668064e-15,3.711543778435369e-16,1.968275594888396e-22,-4.0,0.10431123884752391,0.0,6.890695036398598e-17,-3.249778812822111e-16,0.4872968714267067,0.0,0.0,0.0,3.921629474212011,4.144045258279363e-15,3.130221105159183e-16,-3.046990409641398e-17,633.7005036268946,633.700503626896,633.7005036268956,633.7005036268947
0.244,6.097738041829785e-18,-4.0,0.048155014426565106,-3.971753292812103e-14,-4.22821747213897e-15,3.8894999037840247e-16,1.968275594888396e-22,-4.0,0.10736918351612453,0.0,6.647909553131416e-17,-3.409514482315773e-16,0.5022671378165151,0.0,0.0,0.0,3.8982789868266745,4.2651362378000945e-15,2.513792803289426e-16,-3.6309070336754064e-17,633.1614739500322,633.1614739500336,633.1614739500333,633.1614739500322
0.248,6.186441893331946e-18,-4.0,0.05026848874331166,-4.048654903765388e-14,-4.166165827762809e-15,4.086332031131798e-16,1.968275594888396e-22,-4.0,0.1104585675580954,0.0,6.342065329357329e-17,-3.5779581050508617e-16,0.5171940604053148,0.0,0.0,0.0,3.8734435148894466,4.362667840649155e-15,1.9070145179233574e-16,-3.927198480431025e-17,632.5876603907712,632.5876603907727,632.5876603907724,632.5876603907712
0.252,6.258531264224737e-18,-4.0,0.05244129367358689,-4.122765691089862e-14,-4.0626493071993395e-15,4.307253825057899e-16,1.968275594888396e-22,-4.0,0.11357890248313052,0.0,5.98228954072544e-17,-3.751338428693528e-16,0.5320692893370678,0.0,0.0,0.0,3.8471976447069003,4.4109305781235255e-15,1.4745164566147787e-16,-4.292282282422996e-17,631.9806939279713,631.9806939279727,631.9806939279724,631.9806939279713
0.256,6.31435497579686e-18,-4.0,0.05467316457986377,-4.1852145577241614e-14,-3.91251849766147e-15,4.537937824912656e-16,1.968275594888396e-22,-4.0,0.11672970454857583,0.0,5.580967747633889e-17,-3.925106645258637e-16,0.5468845008272979,0.0,0.0,0.0,3.8196061851382836,4.3542116007982214e-15,9.632921544577074e-17,-4.500044912836599e-17,631.3419799619455,631.3419799619468,631.3419799619465,631.3419799619454
0.26,6.3546507923915064e-18,-4.0,0.056963821831919975,-4.2287612814993857e-14,-3.731986073000573e-15,4.791272145222971e-16,1.968275594888396e-22,-4.0,0.11991049471987204,0.0,5.146022993546716e-17,-4.0918102337385494e-16,0.5616330244956412,0.0,0.0,0.0,3.7907020201309924,4.205407480967379e-15,5.628680849331517e-17,-4.86253082459171e-17,630.6721844596328,630.6721844596342,630.6721844596339,630.6721844596328
0.264,6.380135923471878e-18,-4.0,0.059312950797050984,-4.255619276041176e-14,-3.5218041949923897e-15,5.044155131913087e-16,1.968275594888396e-22,-4.0,0.12312079863130279,0.0,4.684690152830471e-17,-4.24503523796326e-16,0.5763088069479845,0.0,0.0,0.0,3.760559191393713,4.0698283889223675e-15,1.4797406996220533e-17,-4.964630697309747e-17,629.9729268674885,629.9729268674897,629.9729268674894,629.9729268674884
0.268,6.3917009034662805e-18,-4.0,0.06172020798650128,-4.268096027854818e-14,-3.2894091545857018e-15,5.280012328574426e-16,1.968275594888396e-22,-4.0,0.12636014654704564,0.0,4.2043263573114606e-17,-4.3826046280905594e-16,0.5909044513723948,0.0,0.0,0.0,3.729240451326497,3.949969919587956e-15,-2.2555156904607232e-17,-4.8731059235344964e-17,629.2455671971563,629.2455671971576,629.2455671971574,629.2455671971563
0.272,6.3900569381249405e-18,-4.0,0.06418523105087998,-4.269715216986861e-14,-3.0148635864907747e-15,5.514983571366937e-16,1.968275594888396e-22,-4.0,0.12962807332252388,0.0,3.701716237892068e-17,-4.506076401284501e-16,0.6054131867946004,0.0,0.0,0.0,3.6967892550077015,3.86151147294269e-15,-8.329016454313339e-17,-4.9632932801220775e-17,628.4910188955097,628.4910188955109,628.4910188955107,628.4910188955097
0.276,6.376219664031161e-18,-4.0,0.06670763008690958,-4.2541949438741114e-14,-2.695897456312792e-15,5.779132332282172e-16,1.968275594888396e-22,-4.0,0.13292411836605678,0.0,3.1712636438258495e-17,-4.6149780042970615e-16,0.6198295187943882,0.0,0.0,0.0,3.6632673699786604,3.6922838951451656e-15,-1.5366833405500816e-16,-5.404469768598168e-17,627.7106227710266,627.7106227710276,627.7106227710274,627.7106227710264
0.28,6.3517130878407516e-18,-4.0,0.0692870126464269,-4.222048769927043e-14,-2.3635221304537155e-15,6.028145982911596e-16,1.968275594888396e-22,-4.0,0.1362478256008061,0.0,2.613775967520906e-17,-4.706736185989768e-16,0.6341489011967405,0.0,0.0,0.0,3.6286867536053675,3.517224617513352e-15,-1.9765625963880334e-16,-5.3401703242579623e-17,626.9045611955256,626.9045611955266,626.9045611955264,626.9045611955254
0.28400000000000003,6.317586189616429e-18,-4.0,0.07192296610705645,-4.1700413942616645e-14,-1.994121764660755e-15,6.244319527937675e-16,1.968275594888396e-22,-4.0,0.13959874342701678,0.0,2.039427161067451e-17,-4.777012412652183e-16,0.6483683238987958,0.0,0.0,0.0,3.593095290426626,3.2927920753294536e-15,-2.6591857861763343e-16,-5.063007418724906e-17,626.073853408764,626.0738534087649,626.0738534087646,626.0738534087637
0.28800000000000003,6.274522872851421e-18,-4.0,0.0746150331123726,-4.1062742405377e-14,-1.5175205008989803e-15,6.364046430075689e-16,1.968275594888396e-22,-4.0,0.14297642468454957,0.0,1.4222741595682786e-17,-4.825699033378599e-16,0.6624810725522693,0.0,0.0,0.0,3.556591419223497,3.1490178409441596e-15,-4.153694176682601e-16,-4.0294852902482626e-17,625.2207034061418,625.2207034061427,625.2207034061424,625.2207034061415
0.29200000000000004,2.6506182834884065e-11,-3.999999999973493,0.07736274972957388,2.5946894454967603e-06,-2.5946600004069774e-06,-7.412766482643232e-07,1.968275594888396e-22,-4.0,0.14638042661570333,0.0,7.90440107896279e-09,7.904507302985424e-09,0.6764802567474051,0.0,0.0,0.0,3.5191976293202116,-2.7210208225324977e-06,2.72099361933563e-06,8.659283438517929e-07,624.3442783132332,624.344278305725,624.3460624496705,624.3475644968534
0.29600000000000004,1.0910620694408063e-10,-3.99999999989089,0.0801656314137709,1.1354021469364547e-05,-1.1353638263557627e-05,-1.7400598756646626e-06,1.968275594888396e-22,-4.0,0.14981031082832508,0.0,5.358711132779255e-08,5.35885737536307e-08,0.6903617617156439,0.0,0.0,0.0,3.480965170952561,-9.731690785878288e-06,9.731306631611392e-06,1.1972277024922278e-06,623.4477351887053,623.4477350825224,623.4485554279526,623.4539351150088
0.30000000000000004,2.0821531254233287e-10,-3.999999999791771,0.08302317960480926,2.5113154162395992e-05,-2.511175701449217e-05,-2.929817096884868e-06,1.968275594888396e-22,-4.0,0.15326564325920555,0.0,1.6038365887559502e-07,1.6039085497189886e-07,0.704121423495857,0.0,0.0,0.0,3.4419326281396376,-1.6590365928620533e-05,1.6589235034695987e-05,1.4614502584224154e-06,622.5312069842585,622.531206671211,622.5309056661835,622.5400901937638
0.30400000000000005,2.6580149498869124e-10,-3.999999999734171,0.08593488341059426,4.282732959551763e-05,-4.2824034999893116e-05,-4.257464472089644e-06,1.968275594888396e-22,-4.0,0.15674599413775814,0.0,3.254031496319108e-07,3.2542405253542424e-07,0.7177557725668631,0.0,0.0,0.0,3.402135679894586,-2.2828102132033644e-05,2.2825846179486644e-05,1.6715875627422145e-06,621.5954255018006,621.5954248763804,621.5940123714362,621.6066689664452
0.308,2.0924229247825618e-10,-3.9999999997907163,0.08890022920181705,6.35405452623219e-05,-6.353434801676583e-05,-5.6765923780868845e-06,1.968275594888396e-22,-4.0,0.16025093794997908,0.0,5.334341375229391e-07,5.334793827934151e-07,0.7312625119355697,0.0,0.0,0.0,3.3615909897229734,-2.845113894354574e-05,2.8447530320508936e-05,1.8332659891470626e-06,620.6406879394748,620.6406869375134,620.6381875218937,620.6539857315337
0.312,-4.530902498090192e-11,-4.000000000045263,0.09191866455583692,8.634106466005001e-05,-8.633093623160496e-05,-7.147548173865054e-06,1.968275594888396e-22,-4.0,0.16378005340268723,0.0,7.711124910598679e-07,7.711939551675731e-07,0.7446371611616259,0.0,0.0,0.0,3.3203885483402287,-3.3422027113297826e-05,3.341690628608916e-05,1.9524794193775056e-06,619.6690213409297,619.6690199168638,619.6654862817221,619.6840735460188
0.316,-5.891512555471581e-10,-4.000000000589126,0.09498962070775566,0.00011038270762465691,-0.00011036768324054678,-8.63706207386049e-06,1.968275594888396e-22,-4.0,0.16733292338804037,0.0,1.0258579178389674e-06,1.025987517585433e-06,0.7578735573042122,0.0,0.0,0.0,3.2785740813731614,-3.772322648478561e-05,3.77165174387468e-05,2.0350593911453034e-06,618.6814180259736,618.6814161572569,618.6769232562979,618.6979358033058
0.32,-1.5177234402962864e-09,-4.000000001517762,0.09811251519215529,0.00013488566990993764,-0.00013486492423345667,-1.0117275168852959e-05,1.968275594888396e-22,-4.0,0.1709091349483273,0.0,1.2858802995536115e-06,1.2860686764916143e-06,0.7709669273436297,0.0,0.0,0.0,3.236188536538176,-4.134437845563594e-05,4.133612531509831e-05,2.0859617947845195e-06,617.6787635575805,617.6787612550451,617.6734018577673,617.6964685801798
0.324,-2.927572891799206e-09,-4.00000000292774,0.10128675857907873,0.00015913899634362912,-0.00015911190578844474,-1.1565288159168219e-05,1.968275594888396e-22,-4.0,0.17450827924103265,0.0,1.5403080258598506e-06,1.540563785558936e-06,0.7839144938819353,0.0,0.0,0.0,3.1932596895963807,-4.4282639297992684e-05,4.427296298858779e-05,2.109835612726975e-06,616.6616362385619,616.6616335345252,616.6555153593464,616.6802618996853
0.328,-4.913595199646418e-09,-4.000000004913982,0.10451177068224156,0.00018250766483772108,-0.000182473853088338,-1.2962238714389714e-05,1.968275594888396e-22,-4.0,0.17812995150417288,0.0,1.7792634960515602e-06,1.779592137273774e-06,0.7967158087351962,0.0,0.0,0.0,3.149782705053325,-4.65483567157198e-05,4.653742111793526e-05,2.110454096505866e-06,615.6298438746588,615.6298408135932,615.6230803524613,615.6491364296729
0.332,-7.566710675499476e-09,-4.000000007567435,0.10778695061037732,0.0002044154669092881,-0.0002043748438380866,-1.4292774265904586e-05,1.968275594888396e-22,-4.0,0.18177375102190127,0.0,1.9938640896814488e-06,1.994267614515677e-06,0.809369687547447,0.0,0.0,0.0,3.1058132950037782,-4.813933040352483e-05,4.812742836468405e-05,2.0911390900903694e-06,614.5846331606465,614.5846298233912,614.5773545848251,614.6043468942358
0.336,-1.0971693701993688e-08,-4.0000000109729,0.11111166858980692,0.00022434190510938864,-0.0002242946951517746,-1.5544674802403916e-05,1.968275594888396e-22,-4.0,0.18543928109038013,0.0,2.1761375902124964e-06,2.176613624437562e-06,0.8218713779795055,0.0,0.0,0.0,3.061424488337229,-4.9053266229448324e-05,4.9040702965583494e-05,2.054914853249098e-06,613.5276715233325,613.5276679946053,613.5200157773841,613.5475678075294
0.34,-1.520531556092975e-08,-4.000000015207177,0.11448534989318519,0.00024184492163863578,-0.00024179166623433258,-1.6708349754648664e-05,1.968275594888396e-22,-4.0,0.18912614898391797,0.0,2.319063533242542e-06,2.319605363579259e-06,0.83422206663559,0.0,0.0,0.0,3.016519960006835,-4.9319551436184475e-05,4.930668535991214e-05,2.004345707365385e-06,612.4565945484634,612.4565909283633,612.4486995624501,612.476449543532
0.34400000000000003,-2.0334751711547063e-08,-4.000000020337466,0.11790742969862024,0.0002565434032047764,-0.0002564849594802946,-1.777639576424497e-05,1.968275594888396e-22,-4.0,0.19283396592136995,0.0,2.416656064794269e-06,2.41725222693501e-06,0.8464275114390277,0.0,0.0,0.0,2.9710933036851066,-4.895361866534742e-05,4.894085695534964e-05,1.941586681626943e-06,611.3711715988887,611.371168001779,611.3631781015923,611.3907710996585
0.34800000000000003,-2.641614812425601e-08,-4.000000026419935,0.12137732387699074,0.0002681111287670438,-0.00026804866090572176,-1.8743979558937595e-05,1.968275594888396e-22,-4.0,0.19656234703279932,0.0,2.463937373087098e-06,2.464571916158656e-06,0.8584898975393015,0.0,0.0,0.0,2.9251971436813524,-4.7968134718213777e-05,4.7955907114201744e-05,1.8693293611719874e-06,610.2725829889662,610.272579536199,610.2646369536719,610.2917232366879
0.35200000000000004,-3.349315792510792e-08,-4.000000033498255,0.12489436372109942,0.0002762764457604559,-0.00027621140722808556,-1.9608172851720387e-05,1.968275594888396e-22,-4.0,0.20031091132639836,0.0,2.456812572982781e-06,2.4574652916813183e-06,0.870398874225158,0.0,0.0,0.0,2.87901724638834,-4.637721745234394e-05,4.636595110019228e-05,1.7895935867086854e-06,609.1652135832504,609.1652103961335,609.1574638989307,609.1836996071303
0.35600000000000004,-4.159634224424613e-08,-4.000000041603,0.1284578794653713,0.00028082513195753773,-0.000280759234751069,-2.036719974103422e-05,1.968275594888396e-22,-4.0,0.20407928165566647,0.0,2.3920801103675776e-06,2.392726504811603e-06,0.8821439517122265,0.0,0.0,0.0,2.832572627987981,-4.421048209302357e-05,4.420062646242599e-05,1.7035980637594215e-06,608.0494708718,608.0494680786436,608.0420625246065,608.0671186578046
0.36000000000000004,-5.0742589344071796e-08,-4.000000050751064,0.1320672189221449,0.00028159718713977554,-0.0002815323638131477,-2.1020458626364413e-05,1.968275594888396e-22,-4.0,0.20786708468684376,0.0,2.2674554378235828e-06,2.2680677407243307e-06,0.8937226310688888,0.0,0.0,0.0,2.7858445734019623,-4.1497088717561766e-05,4.148909317265477e-05,1.6126342954033374e-06,606.9248558384782,606.9248535682844,606.9179302324743,606.9414925047355
0.36400000000000005,-6.093452167161345e-08,-4.000000060945067,0.13572172851518266,0.0002784877507169443,-0.0002784261081366885,-2.1568787055474133e-05,1.968275594888396e-22,-4.0,0.21167395086659818,0.0,2.0815708536408136e-06,2.0821184799321747e-06,0.9051374575480997,0.0,0.0,0.0,2.738852357077059,-3.827005200662889e-05,3.826431808500641e-05,1.5183513467485282e-06,605.7917818269252,605.7917801958345,605.7854767631721,605.8072478262254
0.36800000000000005,-7.215987238875103e-08,-4.000000072172733,0.13942071054067523,0.00027145958057807936,-0.0002714033375010908,-2.201489828272091e-05,1.968275594888396e-22,-4.0,0.21549951438996437,0.0,1.8340248424410736e-06,1.8344749735539792e-06,0.9163848235097817,0.0,0.0,0.0,2.691702093799493,-3.4579533802041064e-05,3.4576429834413934e-05,1.4229674065809917e-06,604.6527641125762,604.6527632279477,604.6472106250258,604.6669198837268
0.37200000000000005,-8.4391261437109e-08,-4.000000084406663,0.1431634048543326,0.000260552743290177,-0.00026050415307147287,-2.2361839754475245e-05,1.968275594888396e-22,-4.0,0.21934341316853212,0.0,1.5255548842135208e-06,1.5258736658874438e-06,0.9274535421547782,0.0,0.0,0.0,2.6445385276810733,-3.0495507754831296e-05,3.0495336899674867e-05,1.326977142865763e-06,603.5112752785966,603.5112752298112,603.5065867096325,603.5240018168292
0.37600000000000006,-9.758717842535048e-08,-4.00000009760532,0.14694907247443117,0.0002458520894318309,-0.0002458133800555148,-2.2613064385287166e-05,1.968275594888396e-22,-4.0,0.223205288798883,0.0,1.157998289993569e-06,1.1581521487524543e-06,0.9383364474147975,0.0,0.0,0.0,2.5973387755972452,-2.6068914398734402e-05,2.607191758224215e-05,1.2309724211527e-06,602.3667449053012,602.3667457644547,602.3630224711372,602.3779388724886
0.38000000000000006,-1.1169225670415524e-07,-4.000000111713303,0.15077697622692238,0.00022749307484744793,-0.00022746638156618523,-2.2772613682646266e-05,1.968275594888396e-22,-4.0,0.2270847865312729,0.0,7.341307025032193e-07,7.340872688751831e-07,0.949033682693187,0.0,0.0,0.0,2.5501186162978353,-2.1352926664055157e-05,2.1359269172334192e-05,1.1357759165560018e-06,601.219538139005,601.2195399569375,601.2168709100325,601.2291132970049
0.38400000000000006,-1.2663788145597117e-07,-4.000000126661953,0.15464637838864204,0.0002056596252279888,-0.00020564692236601492,-2.2844924448615843e-05,1.968275594888396e-22,-4.0,0.23098155523855898,0.0,2.5754217585846966e-07,2.572712946983894e-07,0.9595465910077146,0.0,0.0,0.0,2.5028986089916714,-1.6405668282410316e-05,1.641542429353333e-05,1.0420089528029119e-06,600.0701396766157,600.0701424783056,600.068602449821,600.0780278219165
0.38800000000000007,-1.423429911209512e-07,-4.0000001423701566,0.15855654070897054,0.00018058068531115123,-0.0001805837195525314,-2.2834733023356724e-05,1.968275594888396e-22,-4.0,0.23489524738536904,0.0,-2.673552472135146e-07,-2.6787994548108517e-07,0.9698750363492785,0.0,0.0,0.0,2.4556993408911167,-1.1287143696065838e-05,1.1300351125315696e-05,9.501975367290249e-07,598.9190387290641,598.9190425292074,598.9186910847325,598.925190101052
0.39200000000000007,-1.5871497086402596e-07,-4.000000158745244,0.16250671775584302,0.00015253084060732233,-0.00015255106442215146,-2.2747331134901265e-05,1.968275594888396e-22,-4.0,0.23882551899751153,0.0,-8.353735387663554e-07,-8.361741485344505e-07,0.980018220418476,0.0,0.0,0.0,2.4085549743844923,-6.062983883700556e-06,6.079494460377157e-06,8.611791788205403e-07,597.7670598731239,597.7670646328291,597.7679453850697,597.7714458298242
0.3960000000000001,-1.7565066891779009e-07,-4.000000175683998,0.1664961465388111,0.0001218330682579305,-0.0001218715723533757,-2.2587737349696897e-05,1.968275594888396e-22,-4.0,0.2427720296316244,0.0,-1.4405248545096012e-06,-1.441617519703673e-06,0.9899736433946138,0.0,0.0,0.0,2.3615210144923338,-8.071280167986736e-07,8.26783910328037e-07,7.748466882256574e-07,596.6155585501739,596.6155642275545,596.6176993600617,596.618171294992
0.4000000000000001,-1.9303803563208124e-07,-4.000000193074303,0.17052408478295566,8.88295025491356e-05,-8.888697191908616e-05,-2.2361317461796954e-05,1.968275594888396e-22,-4.0,0.24673444234506117,0.0,-2.07618393213546e-06,-2.0775779744698858e-06,0.9997409269653896,0.0,0.0,0.0,2.3145759015669873,4.429022364524581e-06,-4.406524091124416e-06,6.918067202378423e-07,595.4640071984339,595.4640137093705,595.4674125631028,595.4648555901607
0.4040000000000001,-2.107570703083643e-07,-4.000000210796088,0.1745897677626057,5.3905391419312266e-05,-5.3982050518152926e-05,-2.2073470208546877e-05,1.968275594888396e-22,-4.0,0.25071242366601226,0.0,-2.73515964773861e-06,-2.7368568621401065e-06,1.0093196571920946,0.0,0.0,0.0,2.2677850748362878,9.571498714035082e-06,-9.546538260074515e-06,6.123134292602849e-07,594.3140151954207,594.3140224328827,594.3186737472442,594.3131303534536
0.4080000000000001,-2.2868142436066103e-07,-4.000000228722933,0.1786924208010372,1.7475547508116648e-05,-1.7571120250239665e-05,-2.1729860334742685e-05,1.968275594888396e-22,-4.0,0.25470564356386,0.0,-3.4097491833428763e-06,-3.4117427733515144e-06,1.0187071022887588,0.0,0.0,0.0,2.2211893730846284,1.4550613249649082e-05,-1.4523675834626933e-05,5.368949551482063e-07,593.166597541002,593.166605366807,593.1724792084595,593.164032626749
0.412,-2.4668003898164423e-07,-4.000000246723709,0.1828312692233316,-2.0027546852920118e-05,1.9913864455049254e-05,-2.1335362356524087e-05,1.968275594888396e-22,-4.0,0.25871377541976515,0.0,-4.091752536459817e-06,-4.094026760907353e-06,1.0279013309643603,0.0,0.0,0.0,2.1748098046145508,1.930665718388585e-05,-1.927831476856887e-05,4.6485690555723184e-07,592.0222891707061,592.0222974206042,592.0293441615374,592.0181128917461
0.416,-2.646188781858006e-07,-4.000000264664313,0.1870055536665644,-5.8169879766965074e-05,5.803942897762849e-05,-2.08953415708528e-05,1.968275594888396e-22,-4.0,0.2627364959974844,0.0,-4.7727824699447095e-06,-4.77531227103798e-06,1.0369030569818258,0.0,0.0,0.0,2.128636356720386,2.379489006406503e-05,-2.3765780193403945e-05,3.9696920075343024e-07,590.8808591869742,590.8808676766312,590.8890267383103,590.8751560847898
0.42,-2.823624107468596e-07,-4.000000282409152,0.19121451973739576,-9.651361495431776e-05,9.63682784651743e-05,-2.0414133998214134e-05,1.968275594888396e-22,-4.0,0.2667734854144151,0.0,-5.444410551502153e-06,-5.447161536348064e-06,1.0457152410276214,0.0,0.0,0.0,2.082679569474568,2.7969013344446302e-05,-2.7939863549885155e-05,3.322466213200518e-07,589.7425871776869,589.7425956953958,589.7517895714836,589.735452759885
0.424,-2.99775342105784e-07,-4.000000299822874,0.1954574438232845,-0.00013463894607284335,0.0001344811334000501,-1.989678945077999e-05,1.968275594888396e-22,-4.0,0.27082442711286775,0.0,-6.09839645391363e-06,-6.101324601248905e-06,1.0543412712348443,0.0,0.0,0.0,2.036897490588546,3.180367885455534e-05,-3.1775191100647405e-05,2.716981643929431e-07,588.6064477049191,588.6064560452443,588.616602486018,588.5979886043605
0.428,-3.167238135189855e-07,-4.000000316771574,0.19973357274336181,-0.00017211256619160855,0.0001719451967989421,-1.934765010368235e-05,1.968275594888396e-22,-4.0,0.2748890078315629,0.0,-6.7266496877175975e-06,-6.729702199392612e-06,1.0627827762647322,0.0,0.0,0.0,1.991369715844502,3.5242276588072045e-05,-3.521529459970007e-05,2.147020367120589e-07,587.4744352816539,587.4744431963594,587.4854409292185,587.4647734274457
0.432,-3.33077139263685e-07,-4.00000033312453,0.20404217777535422,-0.00020852317338872795,0.00020834964632598406,-1.877099632951135e-05,1.968275594888396e-22,-4.0,0.27896691757735176,0.0,-7.321297429565437e-06,-7.324413060996655e-06,1.0710392219278742,0.0,0.0,0.0,1.9460671845421789,3.826132807450181e-05,-3.8236655882812706e-05,1.613621271238142e-07,586.3458489271943,586.3458561782904,586.357596752666,586.3351142038866
0.436,-3.487091551398929e-07,-4.00000034875555,0.2083825391218346,-0.00024347666127224108,0.00024330081522384397,-1.817070855514871e-05,1.968275594888396e-22,-4.0,0.28305784959715835,0.0,-7.874793282482602e-06,-7.877902924345192e-06,1.0791135829901304,0.0,0.0,0.0,1.9009916311910606,4.083593595163607e-05,-4.0814400553362355e-05,1.1138508080067355e-07,585.2207522627839,585.2207586041523,585.2331246874046,585.2090817356456
0.44,-3.6349956261300954e-07,-4.000000363544323,0.21275395619788612,-0.00027660463664373205,0.0002764307024610943,-1.755071663884822e-05,1.968275594888396e-22,-4.0,0.28716150035014176,0.0,-8.380128465301435e-06,-8.383156113823909e-06,1.0870094987465742,0.0,0.0,0.0,1.8561236752514818,4.295092422169041e-05,-4.293336560895856e-05,6.498633425215217e-08,584.0986799471183,584.0986851274046,584.1115549090698,584.0862166287956
0.444,-3.7733517279876655e-07,-4.000000377377664,0.21715570479428525,-0.0003075510685875571,0.00030738359935230796,-1.6914768908559918e-05,1.968275594888396e-22,-4.0,0.29127756948007677,0.0,-8.830789154819888e-06,-8.833653338794481e-06,1.0947273003340485,0.0,0.0,0.0,1.81153030967585,4.45769690687162e-05,-4.456424181744409e-05,2.211382839554622e-08,582.981329843682,582.9813336057772,582.9945756992904,582.9682261243169
0.448,-3.90111089185832e-07,-4.000000390150696,0.22158706241396486,-0.0003359861567972124,0.00033582995748968086,-1.6266345157450767e-05,1.968275594888396e-22,-4.0,0.2954057597879513,0.0,-9.220773139503087e-06,-9.22338817237891e-06,1.1022651491871105,0.0,0.0,0.0,1.7672279073582537,4.5701227878593614e-05,-4.5694086300693845e-05,-1.739332337750899e-08,581.8691408435105,581.869142958551,581.8826208630311,581.8555533453199
0.452,-4.01731778265514e-07,-4.00000040176792,0.22604731057094563,-0.0003616105628479349,0.0003614706127594161,-1.5608709673391135e-05,1.968275594888396e-22,-4.0,0.299545777204779,0.0,-9.544657907753208e-06,-9.54693536240304e-06,1.1096226252474957,0.0,0.0,0.0,1.7232281680636479,4.631744230090932e-05,-4.6316649739295815e-05,-5.364484481652308e-08,580.7624373461774,580.7624375813489,580.7760117984011,580.7485251212895
0.456,-4.121120199939769e-07,-4.000000412144168,0.230535734879631,-0.0003841584040447323,0.00038403977304449,-1.4944913253923173e-05,1.968275594888396e-22,-4.0,0.30369733076462535,0.0,-9.797737836901607e-06,-9.799588022359876e-06,1.1168007390102468,0.0,0.0,0.0,1.6795425291984862,4.642522035033222e-05,-4.6431410503148146e-05,-8.675672732002324e-08,579.6615394500046,579.6615376097554,579.6750673110391,579.6474622681341
0.46,-4.211777296581706e-07,-4.000000421205423,0.23505162516530814,-0.00040339983359013976,0.0004033075933951735,-1.427779599971871e-05,1.968275594888396e-22,-4.0,0.30786013257784606,0.0,-9.976082698935106e-06,-9.977416389018044e-06,1.1238005230684909,0.0,0.0,0.0,1.636182119492572,4.6029697144430525e-05,-4.604350097844878e-05,-1.1685025269999613e-07,578.5667617470972,578.5667576356377,578.5801023284557,578.5526783908773
0.464,-4.288666443276722e-07,-4.0000004288895115,0.23959427558741164,-0.00041914317853818345,0.00041908231081583215,-1.3609991196472727e-05,1.968275594888396e-22,-4.0,0.3120338978045353,0.0,-1.0076585415222014e-05,-1.007731608995235e-05,1.1306230382321987,0.0,0.0,0.0,1.593157729143093,4.514164264361042e-05,-4.5163565208285185e-05,-1.4405062171810453e-07,577.4784124429201,577.4784059009977,577.491427072368,577.464479033022
0.468,-4.351288688014205e-07,-4.000000435146641,0.2441629847723628,-0.0004312366195481078,0.0004312119219195131,-1.294393010745856e-05,1.968275594888396e-22,-4.0,0.31621834462818327,0.0,-1.0096999756232481e-05,-1.009704526815295e-05,1.1372693766281214,0.0,0.0,0.0,1.5504797860243467,4.37770932155636e-05,-4.3807556048971884e-05,-1.6848574532412745e-07,576.396792681428,576.3967835739419,576.40934629401,576.3831610496942
0.47200000000000003,-4.3992727766250694e-07,-4.0000004399398055,0.24875705595328293,-0.00043956940040018204,0.0004395853919536634,-1.2281847513879295e-05,1.968275594888396e-22,-4.0,0.3204131942295409,0.0,-1.0035967542156546e-05,-1.0035251544504162e-05,1.1437406639398253,0.0,0.0,0.0,1.5081583370767118,4.195721252832655e-05,-4.1996475447629464e-05,-1.902851884178681e-07,575.322195951098,575.322184190721,575.3341586572096,575.3090120791363
0.47600000000000003,-4.4323777175299874e-07,-4.000000443245039,0.25337579711429886,-0.0004440725610713207,0.00044413338906731123,-1.1625787858684616e-05,1.968275594888396e-22,-4.0,0.32461817076068994,0.0,-9.893035054608005e-06,-9.891489344416957e-06,1.1500380609964234,0.0,0.0,0.0,1.4662030341105265,3.9707807277067694e-05,-3.975606172203982e-05,-2.095792511184299e-07,574.2549076405102,574.2548931600489,574.2661561663898,574.242310180327
0.48000000000000004,-4.4504932203442036e-07,-4.0000004450514615,0.2580185271108856,-0.00044471727228407145,0.000444826629872882,-1.097753530891023e-05,1.968275594888396e-22,-4.0,0.3288330013193178,0.0,-9.6686512455687e-06,-9.66621727669307e-06,1.156163362148191,0.0,0.0,0.0,1.424611000322245,3.705766500740909e-05,-3.7114975186402005e-05,-2.2658760496385712e-07,573.194895517801,573.1948782880406,573.2053138825722,573.1830145552398
0.48400000000000004,-4.4536383660288296e-07,-4.000000445361143,0.2626845851392688,-0.00044151162321653156,0.00044167268397143775,-1.0338794827006353e-05,1.968275594888396e-22,-4.0,0.33305741592319466,0.0,-9.364115816090093e-06,-9.360746595226968e-06,1.1621199279797945,0.0,0.0,0.0,1.3833598377737648,3.4036354048392665e-05,-3.410267028167032e-05,-2.413289647559595e-07,572.1416276103973,572.141607636349,572.1511080743969,572.130584984802
0.48800000000000004,-4.4419645300501556e-07,-4.000000444189388,0.26737329104625357,-0.0004345127685135084,0.00043472807441135707,-9.711110378066873e-06,1.968275594888396e-22,-4.0,0.3372911474848517,0.0,-8.981612642091223e-06,-8.977273790790145e-06,1.1679087017069485,0.0,0.0,0.0,1.3425070952089795,3.068513627115931e-05,-3.076019454360088e-05,-2.5392072555309766e-07,571.0966148640871,571.0965922156222,571.1050611765783,571.0865203235139
0.49200000000000005,-4.4157497047546737e-07,-4.000000441564179,0.2720839687570712,-0.00042381835873935453,0.000424089745359758,-9.095842106098913e-06,1.968275594888396e-22,-4.0,0.34153393178645947,0.0,-8.524233951549998e-06,-8.51890552088923e-06,1.1735286100626579,0.0,0.0,0.0,1.3020634339497477,2.704809490176417e-05,-2.713157580941082e-05,-2.6451344742031997e-07,570.0601763790366,570.0601511432847,570.0675046434161,570.0511264461077
0.49600000000000005,-4.3753938255361223e-07,-4.000000437525691,0.27681594836464113,-0.0004095643984925704,0.0004098929318060601,-8.494194339058045e-06,1.968275594888396e-22,-4.0,0.3457855074549036,0.0,-7.995948164432914e-06,-7.989626138077534e-06,1.1789798846706911,0.0,0.0,0.0,1.2620351876561886,2.3168916233508987e-05,-2.326027126905102e-05,-2.732324294425138e-07,569.0325219281993,569.0324942622743,569.0386606645345,569.0246000448842
0.5,-4.3214123538767643e-07,-4.000000432125659,0.28156857186519285,-0.00039191998508793024,0.00039230591472455583,-7.907187592710043e-06,1.968275594888396e-22,-4.0,0.3500456159370581,0.0,-7.401486404740493e-06,-7.394183556287589e-06,1.1842646414181512,0.0,0.0,0.0,1.2224168949687493,1.9089930522982465e-05,-1.9188535430408645e-05,-2.8024198885158896e-07,568.0135588497183,568.0135289346761,568.0184485590379,568.0068355087263
0.504,-4.254428418516442e-07,-4.000000425426584,0.28634120210299907,-0.00037107979039326306,0.0003715225252667367,-7.335748837371623e-06,1.968275594888396e-22,-4.0,0.35431400147525294,0.0,-6.746203746796924e-06,-6.737950434199336e-06,1.189386464137204,0.0,0.0,0.0,1.1831846032924909,1.484913806670586e-05,-1.4954258534707661e-05,-2.8560847372697454e-07,567.0027163836749,567.0026844350668,567.006308642111,566.9972506669651
0.508,-4.1751702690436115e-07,-4.000000417501475,0.2911331848287165,-0.0003472836045312495,0.00034778165444823857,-6.780675811085358e-06,1.968275594888396e-22,-4.0,0.3585904110829363,0.0,-6.036103353974542e-06,-6.02694766505107e-06,1.194346608937438,0.0,0.0,0.0,1.1443907398942472,1.0503562694271053e-05,-1.06142673999581e-05,-2.894436965653919e-07,566.0013926185039,566.00135891319,566.0036557931003,565.9972262175116
0.512,-4.0844595859049005e-07,-4.000000408432682,0.29594387097388725,-0.0003208004599847539,0.0003213514157550261,-6.242631080915238e-06,1.968275594888396e-22,-4.0,0.36287459452052856,0.0,-5.277856427796002e-06,-5.26786498101787e-06,1.1991443886519133,0.0,0.0,0.0,1.1060431114326577,6.105529395343962e-06,-6.220822985543197e-06,-2.9187165820984454e-07,565.0098403872244,565.0098052231695,565.0107583011027,565.0069988097412
0.516,-3.983202903086087e-07,-4.000000398311029,0.30077260783446014,-0.0002919317800121455,0.0002925323012765493,-5.7221749674027646e-06,1.968275594888396e-22,-4.0,0.36716630427146696,0.0,-4.478767929586061e-06,-4.468025535469903e-06,1.2037792686021482,0.0,0.0,0.0,1.068167293143262,1.710518008155595e-06,-1.8292311233937447e-06,-2.929834028317287e-07,564.0287743776506,564.0287381076771,564.0283474944874,564.0272660063674
0.52,-3.872380018113851e-07,-4.000000387234657,0.3056187484434374,-0.00026100326720475566,0.00026164908006826146,-6.4191578473901344e-06,1.968275594888396e-22,-4.0,0.3714652955184403,0.0,-3.64667003914219e-06,-3.6352801423494306e-06,1.208251817137441,0.0,0.0,0.0,1.0307699944120101,-2.629111323099205e-06,2.5081721335550162e-06,1.1082057353620998e-06,563.0561495885552,563.0561125746298,563.0589425727649,563.0605148489889
0.524,-3.753028988854248e-07,-4.000000375307518,0.310481684630654,-0.00022834113608375214,0.00022902709758909642,-8.004827939815214e-06,1.968275594888396e-22,-4.0,0.37577132611981134,0.0,-2.7896870052013244e-06,-2.7777705876092344e-06,1.2125659532781685,0.0,0.0,0.0,0.9937906861780412,-6.881893719260626e-06,6.7600381505344585e-06,2.1754014291374603e-06,562.0932583690134,562.0932210107394,562.0982227544314,562.1024050221816
0.528,-3.6262374409235457e-07,-4.000000362638505,0.3153608171193719,-0.00019427642397894837,0.00019499655125780876,-1.001847803244754e-05,1.968275594888396e-22,-4.0,0.3800841565862256,0.0,-1.915949646807365e-06,-1.9036436960707512e-06,1.2167276362045234,0.0,0.0,0.0,0.9572283313374306,-1.1017410162379666e-05,1.0895981295898627e-05,2.741021304827816e-06,561.1403967415077,561.1403594508363,561.1459420168011,561.1526714881878
0.532,-3.4931348110020365e-07,-4.00000034934067,0.3202555306949069,-0.0001591658480790561,0.0001599133564169095,-1.2340502320291467e-05,1.968275594888396e-22,-4.0,0.38440355005740573,0.0,-1.0336542187189492e-06,-1.0211108641190423e-06,1.220737685105018,0.0,0.0,0.0,0.9211320438497392,-1.4980758986246447e-05,1.4861156134258704e-05,3.184637502364279e-06,560.1982785927792,560.1982418011038,560.2040614918972,560.2132411533364
0.536,-3.354878088406215e-07,-4.000000335529802,0.3251652159308441,-0.00012337337945599804,0.00012414074488676562,-1.4873042558492042e-05,1.968275594888396e-22,-4.0,0.3887292722791297,0.0,-1.5115274890269542e-07,-1.3853769213491847e-07,1.2245951069617322,0.0,0.0,0.0,0.8855073906422086,-1.872842497830184e-05,1.861206459828225e-05,3.52676474026952e-06,559.2670702395645,559.2670343857243,559.272826203677,559.2843316006221
0.54,-3.2126396720419174e-07,-4.000000321323204,0.3300892709759994,-8.726510260169191e-05,8.804413744773425e-05,-1.753315071956229e-05,1.968275594888396e-22,-4.0,0.3930610915803909,0.0,7.23132629360586e-07,7.356415806196257e-07,1.2283006428938577,0.0,0.0,0.0,0.850356165677381,-2.2223436058921736e-05,2.2111787930220126e-05,3.7808168325276426e-06,558.3468512841812,558.3468168256172,558.3523697553213,558.3660528712476
0.544,-3.067595508532097e-07,-4.000000306838506,0.3350271015173241,-5.1205303677640016e-05,5.1987243457471063e-05,-2.0250941970425005e-05,1.968275594888396e-22,-4.0,0.39739877885074004,0.0,1.580914657613073e-06,1.5931302138415222e-06,1.231856186099926,0.0,0.0,0.0,0.8156800345615811,-2.543242195956748e-05,2.53269206651389e-05,3.958656448878991e-06,557.4377003976654,557.4376677831261,557.4428190024779,557.4585103173016
0.548,-2.9209134271639316e-07,-4.000000292192502,0.3399781207579515,-1.5552610302169634e-05,1.6328211391206613e-05,-2.2967997549369e-05,1.968275594888396e-22,-4.0,0.40174210751780626,0.0,2.414133807745607e-06,2.4258610606759125e-06,1.2352636201588179,0.0,0.0,0.0,0.7814805046178388,-2.8325655762756858e-05,2.822768429056445e-05,4.0708121047137006e-06,556.5396941426874,556.5396638070388,556.54429351878,556.5618041369464
0.552,-2.773742301731008e-07,-4.000000277500059,0.3449417398295762,1.933884140075315e-05,-1.8579182081937912e-05,-2.5635284335321646e-05,1.968275594888396e-22,-4.0,0.4060908535249972,0.0,3.2150222910427957e-06,3.2260611241731106e-06,1.2385238661130324,0.0,0.0,0.0,0.7477783388907622,-3.0872110286872034e-05,3.0783041608643316e-05,4.125848798742405e-06,555.6534188571615,555.6533912341636,555.657416887948,555.6765376223434
0.556,-2.6272006360175304e-07,-4.000000262872978,0.34991737375909054,5.312606689119624e-05,-5.23921927292524e-05,-2.8213682510864545e-05,1.968275594888396e-22,-4.0,0.4104447953093749,0.0,3.97613650279671e-06,3.986284754851157e-06,1.2416374819338791,0.0,0.0,0.0,0.7145822938307402,-3.304710689230483e-05,3.296819976977484e-05,4.133329904967486e-06,554.779145819576,554.7791213094314,554.7824992060316,554.8030043891084
0.56,-2.4823649102444583e-07,-4.000000248418825,0.3549044624479281,8.549140620311747e-05,-8.479330249835576e-05,-3.0671333995194435e-05,1.968275594888396e-22,-4.0,0.4148037137797089,0.0,4.690523724240271e-06,4.699579509669464e-06,1.2446069270981597,0.0,0.0,0.0,0.6818584601988431,-3.484174017912662e-05,3.477419588227032e-05,4.100125688867639e-06,553.9160253967265,553.9160043834127,553.9187161224517,553.9403734029837
0.5640000000000001,-2.3402608669669956e-07,-4.000000234240062,0.3599024526360414,0.00011613649407067146,-0.00011548416086523565,-3.2983043813447966e-05,1.968275594888396e-22,-4.0,0.4191673922947029,0.0,5.35186204727294e-06,5.35962689590478e-06,1.247436252745197,0.0,0.0,0.0,0.6496087761661331,-3.624393563568194e-05,3.6188899811622124e-05,4.032703086791414e-06,553.0641503682201,553.0641332199722,553.0661855076089,553.0887538313806
