Time_s,X,Y,Z,Roll_deg,Pitch_deg,Yaw_deg,Ref_X,Ref_Y,Ref_Z,Ref_Yaw,vx,vy,vz,p,q,r,T_pert,tau_x,tau_y,tau_z,RPM_0,RPM_1,RPM_2,RPM_3
0.0040000000000000036,3.3827230054016896e-22,2.0,0.010006999594037988,-2.096004393768565e-18,1.4202641527917514e-18,1.8284134537641468e-20,1.5272028043124417e-22,2.0,7.200000000000012e-05,0.0,6.963764715863389e-20,400.0,2.0013999188075973,0.0,0.0,0.0,-10.19,2.447572233571506e-18,-3.820715253651001e-18,-2.1358760407350176e-20,0.0,0.0,0.0,0.0
0.008000000000000007,4.552282744262172e-22,2.0,0.010010999365392528,-3.9742976152504245e-18,1.555125810157944e-18,4.923508923666757e-20,1.5272028043124417e-22,2.0,0.00021513340800000038,0.0,5.167453590219433e-20,222.22222222222223,1.1123332628213918,0.0,0.0,0.0,-0.034338475932384316,2.338136884187137e-18,3.8681629371237174e-19,-3.690769123334608e-20,534.6826504237879,534.682650423788,534.6826504237879,534.682650423788
0.01200000000000001,4.269985516967299e-22,2.0,0.010014999136880033,-7.42286272227948e-18,1.0831996297948602e-18,-2.269833322910509e-21,1.5272028043124417e-22,2.0,0.00042854147030131276,0.0,1.8533874598539652e-20,-7.954101486332768e-23,0.0009999428519315637,0.0,0.0,0.0,0.11268126898165703,4.303010965266652e-18,2.032418911730479e-18,5.813942908328572e-20,538.6882899136241,538.6882899136242,538.6882899136241,538.6882899136241
0.016000000000000014,1.355505894742692e-22,2.0,0.010018998914443494,-1.0105766993398527e-17,-1.3883607041545995e-18,9.013208063152652e-20,1.5272028043124417e-22,2.0,0.0007113732083620786,0.0,-1.4038168224517028e-20,-1.2692747109308836e-22,0.0009999434728236167,0.0,0.0,0.0,0.26021501221340504,3.649927200765815e-18,5.8951692571109925e-18,-1.078513956055533e-19,542.6782125744407,542.6782125744409,542.6782125744407,542.6782125744407
0.020000000000000018,2.6621423041937886e-22,2.0,0.010022998708143238,-9.789035027282345e-18,-4.4036429570847825e-19,1.13624001448957e-19,1.5272028043124417e-22,2.0,0.0010627853561306145,0.0,-2.4419590199353862e-20,-1.5917994878159183e-22,0.000999945707343998,0.0,0.0,0.0,0.40825154765299004,3.376733037239389e-19,-5.6910253298197525e-18,-3.115423923406068e-20,546.6524627992839,546.652462799284,546.6524627992839,546.652462799284
0.02400000000000002,1.8587631192734503e-22,2.0,0.01002699852321945,-1.1369931210716542e-17,-3.554904758188683e-19,2.134820571426882e-19,1.5272028043124417e-22,2.0,0.0014819422978531074,0.0,-1.0946274273662811e-20,-1.797060697940397e-22,0.0009999499065601464,0.0,0.0,0.0,0.5567798034669496,2.5387703227492382e-18,2.2779069907012463e-18,-1.213345468513808e-19,550.6110859245991,550.6110859245993,550.6110859245991,550.6110859245991
0.027999999999999997,2.9685680476460516e-22,2.0,0.010030998361601432,-1.206154842290333e-17,4.2533162720407075e-19,2.9635998061747623e-19,1.5272028043124417e-22,2.0,0.001968016006352204,0.0,9.371496234299549e-21,-1.9510122214687459e-22,0.0009999552756063262,0.0,0.0,0.0,0.7057888201850127,1.6163735991248807e-18,-3.0523098538421126e-18,-1.0561446431940544e-19,554.5541276314186,554.5541276314187,554.5541276314186,554.5541276314187
0.032,4.1584043393557762e-22,2.0,0.01003499822313066,-1.2018410914412117e-17,7.839241348158003e-19,1.8541904958289367e-19,1.5272028043124417e-22,2.0,0.002520185981773086,0.0,4.9459932389488106e-21,-2.0834722013667983e-22,0.0009999610302499629,0.0,0.0,0.0,0.8552677502443924,8.140916832804312e-19,-6.372451497741389e-19,1.1737268222754835e-19,558.4816339339818,558.4816339339819,558.4816339339818,558.4816339339819
0.036000000000000004,1.0852089549540618e-14,1.9999999999999893,0.010038998106645923,3.128031249789794e-11,3.128032561360827e-11,3.8800649495085335e-12,1.5272028043124417e-22,2.0,0.003137639190793574,0.0,1.0850623634002102e-12,-1.065667542570324e-12,0.0009999667184073732,0.0,0.0,0.0,1.0052058572499092,-1.607257388756103e-10,-1.6298580466924374e-10,-4.532529206182682e-12,562.393651218507,562.3936511193172,562.3936511545267,562.3936511538342
0.04000000000000001,2.7258952396424625e-14,1.999999999999973,0.010042998010367428,6.888206777059694e-11,6.888208052173807e-11,4.589166433496145e-12,1.5272028043124417e-22,2.0,0.0038195700062949476,0.0,2.72533130213638e-12,-2.708380286362112e-12,0.0009999720841431803,0.0,0.0,0.0,1.15559251638917,-1.2235828508429406e-10,-1.1997748188865794e-10,-9.879414958389279e-13,566.2902260093414,566.2902259355972,566.2902259689181,566.2902259696426
0.04400000000000001,4.159326285341244e-14,1.9999999999999587,0.010046997932349875,1.0173388320522026e-10,1.0173389631044461e-10,5.2385692140726815e-12,1.5272028043124417e-22,2.0,0.004565180147490079,0.0,3.9705900959687094e-12,-3.951212523707607e-12,0.0009999770118821263,0.0,0.0,0.0,1.3064172133148755,-3.1346654746658865e-11,-3.305269323226578e-11,-9.476423431594037e-13,570.1714053302434,570.1714053107797,570.1714053177313,570.1714053172158
0.048000000000000015,5.3952403565628064e-14,1.9999999999999463,0.010050997870674963,1.3005894176153715e-10,1.300589548620031e-10,5.817842509909574e-12,1.5272028043124417e-22,2.0,0.005373678620505558,0.0,3.461902098670398e-12,-3.462140042931581e-12,0.0009999814580904584,0.0,0.0,0.0,1.457669543701376,-3.195702332960033e-11,-2.9747605154545716e-11,-8.927523044667732e-13,574.0372364649957,574.0372364464721,574.0372364525593,574.0372364532227
0.05200000000000002,6.450245191909112e-14,1.9999999999999356,0.010054997823468637,1.5423786742252594e-10,1.5423788075506653e-10,6.325041949310951e-12,1.5272028043124417e-22,2.0,0.006244281659414513,0.0,2.9798951701904507e-12,-2.995350336885596e-12,0.0009999854279579487,0.0,0.0,0.0,1.609339212643915,-2.788720618061008e-11,-2.744705943803511e-11,-8.327516307578165e-13,577.8877669137847,577.8877668972842,577.8877669028348,577.8877669029661
0.055999999999999994,7.344017671677618e-14,1.9999999999999267,0.010058997789038923,1.747216203900381e-10,1.7472163365055553e-10,6.763215668411691e-12,1.5272028043124417e-22,2.0,0.007176212667716816,0.0,2.540344059522797e-12,-2.5508371466800347e-12,0.0009999889462078762,0.0,0.0,0.0,1.7614160334704405,-2.4049086576324653e-11,-2.5872944268901576e-11,-7.73387486780202e-13,581.7230444570539,581.7230444422654,581.7230444474997,581.7230444469594
0.06,8.096917426230982e-14,1.9999999999999192,0.01006299776595392,1.9197680856734967e-10,1.9197682162480929e-10,7.138105153388888e-12,1.5272028043124417e-22,2.0,0.00816870216026346,0.0,2.149679930016298e-12,-2.1507973066925246e-12,0.0009999920567256224,0.0,0.0,0.0,1.913889926923241,-2.5663892482861612e-11,-2.4822221793081656e-11,-7.179264786563919e-13,585.5431171113665,585.5431170965085,585.5431171015724,585.5431171018201
0.064,8.728347446154685e-14,1.9999999999999127,0.01006699775296841,2.0644811464934524e-10,2.0644812770486144e-10,7.456498289386327e-12,1.5272028043124417e-22,2.0,0.009220987705621774,0.0,1.8089849584764403e-12,-1.8174272922162013e-12,0.0009999948208641932,0.0,0.0,0.0,2.0667509205355685,-2.5348605719285165e-11,-2.411678512519469e-11,-6.678223116717178e-13,589.3480331167697,589.3480331023061,589.3480331072864,589.3480331076468
0.068,9.256145709039991e-14,1.9999999999999074,0.010070997749089055,2.1854435678861084e-10,2.1854436978011218e-10,7.725445114740673e-12,1.5272028043124417e-22,2.0,0.010332313868878387,0.0,1.5157043192472959e-12,-1.5285149444300185e-12,0.00099999729192609,0.0,0.0,0.0,2.219989147431896,-2.2909341255599448e-11,-2.3667482378295138e-11,-6.236560104276536e-13,593.1378409152536,593.1378409017218,593.1378409066758,593.1378409064556
0.07200000000000001,-2.994042658083356e-11,2.00000000002994,0.010076450306718159,2.946990197852769e-06,2.9470352318255445e-06,1.200691059014421e-07,1.5272028043124417e-22,2.0,0.01150193215487664,0.0,-3.018459065369049e-09,3.0184100796970754e-09,0.0011452548439089352,0.0,0.0,0.0,2.370646865130309,-3.091031883887803e-06,-3.0910810038957824e-06,-1.402509987273834e-07,596.8414765951795,596.8396916356695,596.8401545897888,596.8401545756063
0.07600000000000001,-9.630275436244249e-11,2.000000000096299,0.01008817912550926,9.999767832779965e-06,1.0000132547354182e-05,4.063499219273295e-07,1.5272028043124417e-22,2.0,0.01272910095188534,0.0,-9.808983103392337e-09,9.80858827599194e-09,0.0019181375577253356,0.0,0.0,0.0,2.511826306407183,-7.990630341801767e-06,-7.99097075250018e-06,-3.3936007276592863e-07,600.2920459101324,600.2874580608559,600.2887186842012,600.2887185864791
0.08000000000000002,-1.7363106189121872e-10,2.0000000001736202,0.010111058669375079,2.041615936369664e-05,2.0417356063097983e-05,8.273728065867639e-07,1.5272028043124417e-22,2.0,0.014013085475695667,0.0,-1.7273970217387158e-08,1.727286997132193e-08,0.0037794671166124644,0.0,0.0,0.0,2.643261092484089,-1.2672026272500177e-05,-1.2672977755658598e-05,-5.085440957957448e-07,603.486722277289,603.4794849696458,603.48156344214,603.4815631704417
0.08400000000000002,-2.2552197277678878e-10,2.000000000225499,0.010149457923253818,3.351113984520013e-05,3.3513878160400614e-05,1.3538894114138799e-06,1.5272028043124417e-22,2.0,0.015353157714143145,0.0,-1.927883354857599e-08,1.9276551889485944e-08,0.006824767522789751,0.0,0.0,0.0,2.7658122136768504,-1.694026502839206e-05,-1.6942084840714035e-05,-6.491237586558813e-07,606.4502563933547,606.4406284933582,606.4434861949871,606.4434856778735
0.08800000000000002,-2.0592534598719296e-10,2.0000000002058886,0.010207341896323255,4.8639472301292246e-05,4.8644616722254595e-05,1.9605273948431618e-06,1.5272028043124417e-22,2.0,0.016748596372051543,0.0,-1.3775624556783218e-08,1.3772011890547125e-08,0.01093994536567442,0.0,0.0,0.0,2.8801508555121305,-2.0790306921126137e-05,-2.079327394382923e-05,-7.644331838612476e-07,609.2021354654358,609.1903725643457,609.1939607857878,609.193959946492
0.09200000000000003,-6.08575711486062e-11,2.000000000060811,0.01028831521996204,6.519583830705344e-05,6.520436340039167e-05,2.6238534677206584e-06,1.5272028043124417e-22,2.0,0.018198686816595647,0.0,5.134883642292552e-10,-5.18057951351429e-10,0.016025431772660952,0.0,0.0,0.0,2.9868726833588934,-2.4214888455854136e-05,-2.4219228531750926e-05,-8.557012147861131e-07,611.7594534096744,611.7458099244548,611.7500755186569,611.7500742960888
0.09600000000000003,2.7004847718482465e-10,1.999999999729909,0.010395749047776598,8.25976341609449e-05,8.261057479695341e-05,3.3243018229163344e-06,1.5272028043124417e-22,2.0,0.019702721023079826,0.0,2.450473569946731e-08,-2.4509406098357765e-08,0.022001334198502014,0.0,0.0,0.0,3.0863273902552923,-2.7189558983460495e-05,-2.71954651233101e-05,-9.264873933138677e-07,614.1329653551135,614.1177047380072,614.1225783139301,614.1225766566404
0.10000000000000003,8.512412689741038e-10,1.999999999148748,0.010532668351508418,0.00010031417101123244,0.00010033258014859864,4.045021009025674e-06,1.5272028043124417e-22,2.0,0.021259997521129365,0.0,5.880560755924389e-08,-5.880906383555072e-08,0.028794681127629097,0.0,0.0,0.0,3.179100932089179,-2.97151966854739e-05,-2.9722815764472457e-05,-9.791616727739844e-07,616.3387002620689,616.3220814307341,616.3274880050417,616.3274858747419
0.10400000000000004,1.7493995482045704e-09,1.9999999982506673,0.010701797205960204,0.0001178635076194212,0.00011788841635615029,4.771475223620345e-06,1.5272028043124417e-22,2.0,0.022869821341291546,0.0,1.0375493537608088e-07,-1.0375535018148064e-07,0.036326877321263024,0.0,0.0,0.0,3.265698479654593,-3.1795578154735746e-05,-3.1805019618796975e-05,-1.0157385376928181e-06,618.3904027858033,618.3726790827565,618.3785398643903,618.3785372333062
0.10800000000000004,3.0318686029394626e-09,1.9999999969683433,0.010905653825320678,0.0001348007834546958,0.00013483315759848732,5.491098715304213e-06,1.5272028043124417e-22,2.0,0.024531503962043497,0.0,1.5950923844984577e-07,-1.5950439037323187e-07,0.04453054292528388,0.0,0.0,0.0,3.346442004111968,-3.3425718994327955e-05,-3.343704339674948e-05,-1.037922832756983e-06,620.297192401843,620.2786168900993,620.2848476934798,620.28484454737
0.11199999999999999,4.765037580582932e-09,1.9999999952354135,0.011146593417196003,0.00015071579102363556,0.00015075648758993047,6.193444329759014e-06,1.5272028043124417e-22,2.0,0.026244363257203765,0.0,2.260977054926305e-07,-2.2608484972932966e-07,0.05335471291243726,0.0,0.0,0.0,3.421573152175648,-3.459805127369264e-05,-3.46112787897319e-05,-1.0476729473040094e-06,622.0660826667356,622.0469099083178,622.0534196441163,622.0534159797372
0.11599999999999999,7.01241283523901e-09,1.999999992988402,0.011426745977841754,0.00016524492033383566,0.00016529465735461908,6.869850494418451e-06,1.5272028043124417e-22,2.0,0.028007723443744872,0.0,3.0343365493092635e-07,-3.034095514899671e-07,0.06275137293429853,0.0,0.0,0.0,3.4914650983637467,-3.531616713400532e-05,-3.533126773233619e-05,-1.0466445231756836e-06,623.7069991346982,623.6874794696699,623.6941740279539,623.6941698556853
0.12,9.833357762338926e-09,1.9999999901679792,0.011748105984472783,0.00017806388318599136,0.00017812320393314815,7.513239821755656e-06,1.5272028043124417e-22,2.0,0.029820915030003513,0.0,3.913337783562649e-07,-3.9129464846518026e-07,0.07267540689291885,0.0,0.0,0.0,3.5563162504508634,-3.5584219901307006e-05,-3.560111053764362e-05,-1.0363306560476248e-06,625.2255929738752,625.2059724609204,625.2127552895747,625.2127506340572
0.184,1.483998451319881e-07,1.9999998516593556,0.023445103333165566,1.550915426516304e-05,1.5636661709816306e-05,1.0787874990496899e-05,1.5272028043124417e-22,2.0,0.0714190263042387,0.0,2.9023973605965125e-06,-2.9013106539488794e-06,0.26892870159537946,0.0,0.0,0.0,5.265554006189964,-4.6346278723630146e-06,-4.655703764650214e-06,-6.881349757004055e-07,663.9892721135234,663.9868609829625,663.9861749215466,663.9861694516803
0.188,1.612551452586982e-07,1.9999998388118068,0.024612546051445878,-2.131044159662113e-05,-2.119230484815259e-05,1.0494058768363865e-05,1.5272028043124417e-22,2.0,0.07405713859047577,0.0,3.1010942183039034e-06,-3.099878525186017e-06,0.28202677841555557,0.0,0.0,0.0,4.517268933086095,-1.7872946592442242e-05,-1.7924643298755997e-05,-1.149877630762572e-07,647.3036063478787,647.2940762196682,647.2985234724308,647.2985097095914
0.192,1.7407734593414987e-07,1.9999998259978131,0.02583252431892253,-6.143069740578403e-05,-6.132437463562546e-05,1.0140103488870777e-05,1.5272028043124417e-22,2.0,0.07673292747228874,0.0,3.300963268282627e-06,-3.2996100012876087e-06,0.29514638876739824,0.0,0.0,0.0,4.534192900289331,3.402644211862409e-05,3.40174623336667e-05,-3.3403418239012083e-08,647.671869204456,647.6899733447506,647.6808282612732,647.6808258720613
0.196,1.8672143357830336e-07,1.9999998133623476,0.027105098325701252,-0.00010485963230845545,-0.00010476769570557054,9.726158249920217e-06,1.5272028043124417e-22,2.0,0.07944584450213095,0.0,3.501319429229735e-06,-3.499819873558144e-06,0.30828363266209113,0.0,0.0,0.0,4.549413770107184,4.21525485337035e-05,4.2147253139780704e-05,5.050097063177065e-08,648.0131357347602,648.0355531231459,648.0244876783585,648.0244862701834
0.2,1.9903021896043464e-07,1.9999998010625497,0.028430317357754347,-0.00015160374248962812,-0.0001515288928790455,9.252402863722881e-06,1.5272028043124417e-22,2.0,0.08219534647721298,0.0,3.7014700218957005e-06,-3.699815280774397e-06,0.32143531594507835,0.0,0.0,0.0,4.5629448526774254,5.080586007758859e-05,5.0804714851080054e-05,1.366875900169254e-07,648.3159683872169,648.3429764185413,648.3298580696662,648.329857765266
0.20400000000000001,2.1083433022898842e-07,1.9999997892677315,0.02980822177136769,-0.00020166827546295047,-0.00020161334247841375,8.719042114856659e-06,1.5272028043124417e-22,2.0,0.08498089539612085,0.0,3.90071585511063e-06,-3.898896858626075e-06,0.3345988227172154,0.0,0.0,0.0,4.574795875353049,6.000050462786294e-05,6.0004010949137305e-05,2.251240601106817e-07,648.5806365893148,648.6125205833621,648.5972127647194,648.5972136963129
0.20800000000000002,2.2195220841847455e-07,1.9999997781593815,0.031238844610385688,-0.0002550574546078849,-0.0002550253972985586,8.126301056336414e-06,1.5272028043124417e-22,2.0,0.08780195841576756,0.0,4.098352204875459e-06,-4.096359779572022e-06,0.3477720107609846,0.0,0.0,0.0,4.584973644057335,6.975101076171685e-05,6.975969165457318e-05,3.15782456299173e-07,648.8073366105831,648.8443901037399,648.8267520974107,648.8267544030185
0.21200000000000002,2.3219010489276944e-07,1.9999997679311676,0.032722212930771696,-0.0003117746629119014,-0.0003117685707751681,7.474421157147372e-06,1.5272028043124417e-22,2.0,0.09065800780867554,0.0,4.293669690048868e-06,-4.291494501525659e-06,0.3609531258415747,0.0,0.0,0.0,4.593482585085886,8.007226797125177e-05,8.00866670951177e-05,4.086385062598105e-07,648.996204044125,649.0387290685969,649.0186158773822,649.0186197005971
0.21600000000000003,2.4134208031204576e-07,1.9999997587889369,0.034258348885382935,-0.0003718225932717839,-0.00037184568770566036,6.763657147894892e-06,1.5272028043124417e-22,2.0,0.09354852092058752,0.0,4.48595505011406e-06,-4.4835875908109415e-06,0.37414073148814825,0.0,0.0,0.0,4.600325188879383,9.097948446719081e-05,9.100018533355719e-05,5.036709314996002e-07,649.147323997407,649.195631348862,649.1728935705453,649.1728990656748
0.22000000000000003,2.4919000480794347e-07,1.9999997509507157,0.035847270612321264,-0.000435203371388356,-0.0004352590075583364,5.994274438705831e-06,1.5272028043124417e-22,2.0,0.09647298012840341,0.0,4.6744918317286326e-06,-4.671922373724005e-06,0.38733365146714765,0.0,0.0,0.0,4.605502373438998,0.00010248821338371242,0.0001025158144496475,6.008609074766964e-07,649.2607393995708,649.3151489126733,649.2896326147313,649.2896399402296
0.22400000000000003,2.55502885277497e-07,1.9999997446473803,0.03748904080339018,-0.0005018921848494397,-0.000501983848469139,5.17115248794596e-06,1.5272028043124417e-22,2.0,0.09943087279844089,0.0,4.858516326265002e-06,-4.855735037317335e-06,0.4005357067584477,0.0,0.0,0.0,4.6089166878021235,0.00011459121416883555,0.00011462636243494643,6.948116899926894e-07,649.3342850310578,649.3951137997288,649.3666512752078,649.3666606026745
0.22800000000000004,2.600142115974582e-07,1.9999997401453065,0.03918515389561197,-0.000570843706448101,-0.0005709747013366012,4.321815327834299e-06,1.5272028043124417e-22,2.0,0.10242169124501717,0.0,5.034769838757901e-06,-5.031767368383773e-06,0.41389433654033836,0.0,0.0,0.0,4.607654005475873,0.00012637608855946514,0.00012641913620697429,7.588742214484002e-07,649.3026312258725,649.3697198757168,649.3383069382443,649.3383183625069
0.23200000000000004,2.6242204601019023e-07,1.9999997377462748,0.04093824747881821,-0.0006398687972100898,-0.0006400417066254468,3.461848936661687e-06,1.5272028043124417e-22,2.0,0.10544493268934972,0.0,5.193454487411765e-06,-5.190224432812369e-06,0.42767165855914435,0.0,0.0,0.0,4.5993403274765114,0.0001364703105862124,0.00013652105061518432,8.058656414272226e-07,649.1126330084253,649.185102361552,649.1511311299328,649.151144599532
0.23600000000000004,2.624219462643664e-07,1.9999997377545564,0.04275053894245934,-0.0007068942561481276,-0.0007071107771576189,2.6027374385815073e-06,1.5272028043124417e-22,2.0,0.10850009921877346,0.0,5.319375399235531e-06,-5.3159170391132854e-06,0.44204078131897584,0.0,0.0,0.0,4.5847381248899115,0.00014451077546181635,0.0001445686790435401,8.399382958238669e-07,648.7814267911201,648.8582058713946,648.8221760874917,648.8221914665422
0.24000000000000005,2.5971714057783296e-07,1.9999997404667418,0.04462383384674683,-0.0007700315580282437,-0.0007702923893827191,1.7542530145293497e-06,1.5272028043124417e-22,2.0,0.11158669774627224,0.0,5.396935977078939e-06,-5.3932558219711235e-06,0.4569404593523032,0.0,0.0,0.0,4.564606336903572,0.00015045895877437553,0.00015052327485902612,8.62620370250017e-07,648.3259215731891,648.405917977481,648.3683443741387,648.3683614682914
0.244,2.5402695057244255e-07,1.9999997461633219,0.0465595794549073,-0.0008275794772898065,-0.0008278842346458724,9.246292713386326e-07,1.5272028043124417e-22,2.0,0.11470423997032213,0.0,5.412017821409719e-06,-5.408130657301921e-06,0.47227077734150946,0.0,0.0,0.0,4.539608449740083,0.00015430260986043807,0.00015437238675712413,8.753071434460514e-07,647.7608339084821,647.8429463613934,647.8043519824636,647.8043705441559
0.248,2.450944387213123e-07,1.9999997551010473,0.04855891147371783,-0.0008780279329838333,-0.0008783750945847603,1.2071182943192824e-07,1.5272028043124417e-22,2.0,0.11785224233504453,0.0,5.351715517222239e-06,-5.347645015968967e-06,0.4879448742216713,0.0,0.0,0.0,4.5103245748369485,0.00015604745041675089,0.00015612152933190533,8.792805879059373e-07,647.0989821473368,647.182108919859,647.1430205797685,647.1430403059998
0.252,2.326931794566272e-07,1.999999767506161,0.050622694830590724,-0.0009200610260421543,-0.0009204479104869754,-6.518976659197685e-07,1.5272028043124417e-22,2.0,0.1210302259906662,0.0,5.204410542166554e-06,-5.200189969319746e-06,0.5038872258789927,0.0,0.0,0.0,4.477262062368954,0.00015571824877572547,0.00015579532666680382,8.757109654744694e-07,646.3515385984597,646.434586770046,646.3955300960237,646.3955506445772
0.256,2.166330250066608e-07,1.9999997835686378,0.05275156381267237,-0.000952558918107725,-0.0009529816976986827,-1.3886963698789646e-06,1.5272028043124417e-22,2.0,0.12423771675428474,0.0,4.959866518969781e-06,-4.955539036978468e-06,0.520032657862397,0.0,0.0,0.0,4.44085549660165,0.00015335998189548646,0.0001534386200437885,8.656496415233987e-07,645.5280366153968,645.6099322030852,645.5714262377622,645.5714472290343
0.26,1.9676476315122592e-07,1.999999803437533,0.054945965306567715,-0.000974596596052052,-0.0009750503482341053,-2.086140877885509e-06,1.5272028043124417e-22,2.0,0.12747424507093671,0.0,4.609330177303192e-06,-4.604948919117433e-06,0.536326302291007,0.0,0.0,0.0,4.401459123853157,0.00014903635927838806,0.0001491150314478207,8.500299926489198e-07,644.6362018002012,644.7158993715856,644.6784514360348,644.678472465477
0.264,1.729842814317586e-07,1.9999998272168218,0.05720616816941584,-0.0009854387066625296,-0.0009859174820839559,-2.741540785081494e-06,1.5272028043124417e-22,2.0,0.1307393459749663,0.0,4.145613267983339e-06,-4.141241051091175e-06,0.5527207295174904,0.0,0.0,0.0,4.359414211193235,0.0001428189599789102,0.00014289607705326028,8.297002063530046e-07,643.6834822415778,643.7599687287855,643.7240722779349,643.7240929222544
0.268,1.4523562886282346e-07,1.9999998549623426,0.059532284956758795,-0.0009845395495665292,-0.0009850364695968223,-3.352960159489987e-06,1.5272028043124417e-22,2.0,0.13403255905169245,0.0,3.563174772277263e-06,-3.558883589399557e-06,0.5691733128271752,0.0,0.0,0.0,4.315023669498267,0.0001348004702698943,0.00013487441496857003,8.054282143173602e-07,642.6764731538148,642.7487790070801,642.7149078323788,642.7149276585316
0.272,1.13513149321389e-07,1.9999998866796678,0.061924292009306006,-0.0009715422045729833,-0.0009720495872926817,-3.919123283030911e-06,1.5272028043124417e-22,2.0,0.137353428399372,0.0,2.858217444858078e-06,-2.854087668552715e-06,0.585646137386414,0.0,0.0,0.0,4.2685546914708254,0.00012509262669517719,0.00012516179326596164,7.779026847558873e-07,641.6209771778725,641.6881866124061,641.6567895007016,641.6568080763178
0.276,7.786272406560452e-08,1.9999999223228648,0.06438204689194499,-0.0009462762773884933,-0.000946785789288816,-4.439328922866547e-06,1.5272028043124417e-22,2.0,0.14070150259145703,0.0,2.0287906428078247e-06,-2.0249098628456636e-06,0.60210615829952,0.0,0.0,0.0,4.2202434849112365,0.00011382496119192639,0.00011388779761592539,7.477391627030062e-07,640.5221112255045,640.5833719678523,640.5548676274018,640.5548845320021
0.28,3.838215146873318e-08,1.999999961794119,0.06690530353820327,-0.0009087541940119201,-0.0009092570241154489,-4.913372860551017e-06,1.5272028043124417e-22,2.0,0.14407633463914374,0.0,1.0748748610554146e-06,-1.0713362974827585e-06,0.6185245577888842,0.0,0.0,0.0,4.170299373495219,0.00010114346348361515,0.00010119851354385858,7.154862362467071e-07,639.3843986561574,639.438931132389,639.4137034148245,639.4137182511256
0.28400000000000003,-4.779079923518775e-09,2.0000000049439635,0.06949371832468206,-0.00085917682302223,-0.0008596638823759233,-5.341588980685232e-06,1.5272028043124417e-22,2.0,0.1474774819542112,0.0,-1.5266196653168992e-09,4.625870815280815e-09,0.6348754811597164,0.0,0.0,0.0,4.118922721589014,8.721907290596175e-05,8.72650151555851e-05,6.817608862744804e-07,638.2121752975049,638.2592865335156,638.2376776858075,638.2376900903172
0.28800000000000003,-5.14200486021282e-08,2.0000000515715364,0.07214682880736303,-0.0007979789662700633,-0.0007984411375614106,-5.7248242762834005e-06,1.5272028043124417e-22,2.0,0.15090450631214752,0.0,-1.1960884025284117e-06,1.1986497665582478e-06,0.6511322853270924,0.0,0.0,0.0,4.066360223589042,7.228851151785815e-05,7.23242499225056e-05,6.47173015541727e-07,637.0108484731112,637.049968238375,637.0322608087615,637.0322704764694
0.29200000000000004,-1.0129180103267237e-07,2.0000001014279833,0.07486410096094033,-0.0007257657191265612,-0.000726194086454142,-6.063929835900309e-06,1.5272028043124417e-22,2.0,0.15435697381556135,0.0,-2.5020015847633666e-06,2.5039276735657212e-06,0.6672708513525561,0.0,0.0,0.0,4.012766553659744,5.6566443164909006e-05,5.659110249082685e-05,6.117590482922736e-07,635.7837522830675,635.8144222567765,635.8008428831142,635.8008495667056
0.29600000000000004,-1.5410138049881306e-07,2.000000154220483,0.07764497100092453,-0.000643247366154838,-0.0006436334101950015,-6.360092428595733e-06,1.5272028043124417e-22,2.0,0.15783445485787687,0.0,-3.91038340012904e-06,3.911580668918102e-06,0.683275072034973,0.0,0.0,0.0,3.9582138538818166,4.021283361099596e-05,4.022577211982559e-05,5.759429800351184e-07,634.532355599303,634.5542006507048,634.5449355402492,634.5449390540055
0.30000000000000004,-2.095144074080648e-07,2.0000002096148277,0.08048882534457102,-0.0005512712787027294,-0.0005516070973160558,-6.614707112202837e-06,1.5272028043124417e-22,2.0,0.1613365240873097,0.0,-5.410656495137402e-06,5.411037989750506e-06,0.6991346659491053,0.0,0.0,0.0,3.902815948847058,2.341829754905183e-05,2.3419119272610127e-05,5.400138595661748e-07,633.2590903170883,633.2718358182316,633.2670217065657,633.2670219301743
0.30400000000000005,-2.6715925275937425e-07,2.000000267239592,0.08339501476077471,-0.00045079396488898295,-0.0004510724760136191,-6.829213376388563e-06,1.5272028043124417e-22,2.0,0.16486276037112219,0.0,-6.990550334596339e-06,6.99003820397946e-06,0.7148391234439695,0.0,0.0,0.0,3.846659597040257,6.370683735411925e-06,6.3592894398235335e-06,5.040779752659219e-07,631.9657802437459,631.9692514667697,631.9689753913467,631.9689722843449
0.308,-3.266317256466294e-07,2.000000326690817,0.08636287208908566,-0.00034284440248573005,-0.00034305951677752366,-7.005337543766066e-06,1.5272028043124417e-22,2.0,0.16841274676015552,0.0,-8.636329522937488e-06,8.634857682612942e-06,0.7303806817228858,0.0,0.0,0.0,3.789796795754744,-1.0768048158607747e-05,-1.0791506863390803e-05,4.685267033544308e-07,630.6534628106114,630.6475716505666,630.6518784253657,630.6518720152758
0.312,-3.8749828806816797e-07,2.000000387535225,0.0893916644584503,-0.00022860525598166075,-0.00022875210362684263,-7.144937164449438e-06,1.5272028043124417e-22,2.0,0.17198607045363715,0.0,-1.033267796347583e-05,1.0330194911243484e-05,0.745749660628087,0.0,0.0,0.0,3.7323771496345666,-2.774930904508475e-05,-2.778434843564785e-05,4.335815470896595e-07,629.3254267307175,629.3102199938879,629.3190875644425,629.3190779696536
0.316,-4.4930205524627697e-07,2.0000004493162082,0.0924806281310952,-0.00010934127276730712,-0.00010941637189494457,-7.2499177855584135e-06,1.5272028043124417e-22,2.0,0.17558232276426067,0.0,-1.2062625628938938e-05,1.2059097117928077e-05,0.7609348244125286,0.0,0.0,0.0,3.6744817044968987,-4.436227898717259e-05,-4.440807424425137e-05,3.99372301654785e-07,627.9834013112479,627.9590412715723,627.972390176938,627.9723776099922
0.32,-5.115683062302037e-07,2.0000005115593393,0.09562897471774806,1.3621615603952468e-05,1.3620218288391128e-05,-7.322242330081788e-06,1.5272028043124417e-22,2.0,0.17920109908353718,0.0,-1.3807745737420206e-05,1.3803157253609744e-05,0.7759276185912578,0.0,0.0,0.0,3.6161799384805025,-6.0415196521796574e-05,-6.047064083624576e-05,3.6604182217231515e-07,626.6288649546835,626.595619955083,626.6133180764144,626.6133028286145
0.324,-5.738102244043776e-07,2.000000573778102,0.09883590255670473,0.0001389268238759177,0.00013899944903664598,-7.363793573836869e-06,1.5272028043124417e-22,2.0,0.18284199884741537,0.0,-1.5548677062652638e-05,1.5543035800649354e-05,0.7907228919139025,0.0,0.0,0.0,3.5575190833599235,-7.574000476081729e-05,-7.580369857626483e-05,3.335748081826e-07,625.2627945732985,625.2210269657992,625.2428950964281,625.2428775415309
0.328,-6.355347318192713e-07,2.000000635479719,0.10210061239269726,0.00026522567068770975,0.00026537094845680356,-7.3766162482489695e-06,1.5272028043124417e-22,2.0,0.1865046255021685,0.0,-1.7265601352786772e-05,1.7258937764630377e-05,0.8053183660208614,0.0,0.0,0.0,3.498515034796567,-9.0205051456232e-05,-9.027534599105803e-05,3.022356138978808e-07,623.8854501705076,623.8355970534245,623.8614193560236,623.8613999389748
0.332,-6.962472142450374e-07,2.0000006961698733,0.10542225442617395,0.00039110200468088323,0.0003913167937522581,-7.362781659006103e-06,1.5272028043124417e-22,2.0,0.19018858647054654,0.0,-1.893821905980186e-05,1.893058806493438e-05,0.8197090147703057,0.0,0.0,0.0,3.439291136851274,-0.00010359851323397991,-0.000103673497938989,2.721372398788761e-07,622.4995953883528,622.4422139554002,622.4717148431674,622.4716940843382
0.336,-7.55457742655229e-07,2.000000755358918,0.10879996282009383,0.00051514277483624,0.0005154221465484572,-7.32431950322107e-06,1.5272028043124417e-22,2.0,0.1938934931181911,0.0,-2.0545754653700777e-05,2.0537236361056344e-05,0.8338875470020499,0.0,0.0,0.0,3.3799023731853874,-0.00011576417833701314,-0.00011584168563880774,2.433142741790277e-07,621.1064242789621,621.0421620504922,621.0750208473929,621.0749993419521
0.34,-8.126867522663988e-07,2.000000812567553,0.11223286878544822,0.0006359695912465859,0.0006363068547573447,-7.26313186488059e-06,1.5272028043124417e-22,2.0,0.19761896072031165,0.0,-2.2067258052943015e-05,2.2057958322658427e-05,0.8478498049548362,0.0,0.0,0.0,3.320377741400894,-0.0001265830099593466,-0.0001266607221494985,2.1569927105408259e-07,619.7065386902395,619.6361136523786,619.6719742396662,619.6719526285556
0.34400000000000003,-8.674704388802089e-07,2.00000086733221,0.11572011535902306,0.0007522711809706901,0.0007526579502184145,-7.181209765832675e-06,1.5272028043124417e-22,2.0,0.20136460842862083,0.0,-2.3482363318836425e-05,2.3472413127622825e-05,0.8615960427088165,0.0,0.0,0.0,3.260716400955116,-0.0001359738240791157,-0.00013604925989024787,1.8947264314110674e-07,618.2998502213128,618.2240303519015,618.2625121358369,618.2624911099443
0.34800000000000003,-9.193657234267678e-07,2.0000009192100143,0.1192608066380347,0.0008627566550397269,0.0008631829887683065,-8.82691921675242e-06,1.5272028043124417e-22,2.0,0.20513005923852687,0.0,-2.4771370188990522e-05,2.4760924475227673e-05,0.8751238450812405,0.0,0.0,0.0,3.20102022235392,-0.0001438048709164027,-0.00014387550417480576,2.204756841624463e-06,616.8856676749182,616.8052995877946,616.8520280848808,616.852008352566
0.35200000000000004,-9.679551700708593e-07,2.0000009677836954,0.12285405720927421,0.0009662305112683378,0.0009666849908027278,-1.181215414748904e-05,1.5272028043124417e-22,2.0,0.20891493995658145,0.0,-2.5915486361412334e-05,2.590472201072028e-05,0.8884301764095991,0.0,0.0,0.0,3.1412920587196886,-0.00015002861159227928,-0.0001500918149303788,3.8377287821078325e-06,615.4675931371997,615.3835562805103,615.4369833915039,615.4369656942365
0.35600000000000004,-1.0128510569734456e-06,2.000001012665651,0.12649898951428454,0.0010615712152098101,0.00106204107317684,-1.5470330245277962e-05,1.5272028043124417e-22,2.0,0.21271888116818094,0.0,-2.689706545069226e-05,2.6886179728147044e-05,0.9015153984461215,0.0,0.0,0.0,3.0815398341907425,-0.00015458365768804532,-0.00015463672067411954,4.747238473865499e-06,614.0462788680557,613.9594933062286,614.017027430087,614.0170125378115
0.36000000000000004,-1.0536998176590474e-06,2.000001053502385,0.1301947078749849,0.001147738189993548,0.001148209518155953,-1.9609892610777404e-05,1.5272028043124417e-22,2.0,0.21654151720551917,0.0,-2.7699885570598474e-05,2.7689094035519418e-05,0.9143791938285103,0.0,0.0,0.0,3.0218239953850707,-0.00015741286685498835,-0.00015745315318607756,5.460870271334011e-06,612.6223419403934,612.5337663317457,612.5943560073667,612.5943446746373
0.36400000000000005,-1.0901859845311476e-06,2.000001089978446,0.13394028563594057,0.0012237783056727742,0.0012242362958982457,-2.407391082271046e-05,1.5272028043124417e-22,2.0,0.22038248611578998,0.0,-2.830912681933425e-05,2.8298660038676098e-05,0.9270168011097841,0.0,0.0,0.0,2.962231718549355,-0.00015847311730547416,-0.00015849808314883311,6.011238786574427e-06,611.1977887191773,611.1084129958467,611.1710846467181,611.1710776073572
0.36800000000000005,-1.1220347959700144e-06,2.0000011218190332,0.13773481515346372,0.0012888628970676196,0.0012892920634597024,-2.8727659943020175e-05,1.5272028043124417e-22,2.0,0.22424142962963736,0.0,-2.8711701564065048e-05,2.8701801116004916e-05,0.9394256426148772,0.0,0.0,0.0,2.9027497703972145,-0.00015778150825594077,-0.0001577887287843037,6.417862118534607e-06,609.772273146444,609.6830844307372,609.7469210725679,609.7469190319151
0.37200000000000005,-1.1490159277313933e-06,2.000001148793722,0.14157735430375093,0.0013422811963002793,0.0013426656915163939,-3.345701844790852e-05,1.5272028043124417e-22,2.0,0.2281179931298519,0.0,-2.8896549169506523e-05,2.888746309003179e-05,0.9516034510454219,0.0,0.0,0.0,2.8434729302780486,-0.00015533952039850199,-0.00015532679267718342,6.699289319303449e-06,608.3480391706651,608.260030947958,608.3241651372371,608.324168742736
0.37600000000000006,-1.1709451315555223e-06,2.0000011707181042,0.14546696006573126,0.0013834569554614607,0.001383780860875515,-3.816712823567945e-05,1.5272028043124417e-22,2.0,0.2320118256203112,0.0,-2.885488404152835e-05,2.8846861926087735e-05,0.9635469870592734,0.0,0.0,0.0,2.7844289755124043,-0.00015119615493176702,-0.00015116152886795914,6.873342193542915e-06,606.9257521492866,606.8398970790802,606.9035228622731,606.903532694078
0.38000000000000006,-1.1876858463763604e-06,2.000001187455399,0.14940269167848025,0.0014119546014331405,0.0014122022262614536,-4.277944839552152e-05,1.5272028043124417e-22,2.0,0.23592257969516264,0.0,-2.8580342112273617e-05,2.8573629570018655e-05,0.975254913896029,0.0,0.0,0.0,2.725639359259611,-0.00014541462112793344,-0.00014535642203560738,6.9551852777216574e-06,605.5059390120431,605.4231805880013,605.4855501427808,605.4855667066658
0.38400000000000006,-1.1991500347375534e-06,2.0000011989172917,0.15338361926368488,0.0014274779869222361,0.0014276341541551922,-4.72300972682633e-05,1.5272028043124417e-22,2.0,0.23984991150824683,0.0,-2.8069145531714018e-05,2.8063979211317563e-05,0.9867286527098541,0.0,0.0,0.0,2.6671080179650195,-0.00013807285175282296,-0.00013798973419269772,6.958710926276891e-06,604.0887137465855,604.0099575153532,604.0703821305616,604.0704058418427
0.38800000000000007,-1.2052983143632178e-06,2.000001205064067,0.15740883716558862,0.001429864669866794,0.0014299149713745292,-5.146723420962846e-05,1.5272028043124417e-22,2.0,0.24379348074275972,0.0,-2.732008615674009e-05,2.7316688733526422e-05,0.9979718297219955,0.0,0.0,0.0,2.608811521766501,-0.0001292581865234023,-0.00012914907986107468,6.895350475370436e-06,602.6735338222894,602.5996415518417,602.6574874791312,602.6575186773994
0.39200000000000007,-1.206141734329671e-06,2.000001205906389,0.16147740828846974,0.001419119070494231,0.0014190502562383505,-5.5449872539032106e-05,1.5272028043124417e-22,2.0,0.2477529505811517,0.0,-2.6334692460443087e-05,2.6333267198922368e-05,1.0089846898207306,0.0,0.0,0.0,2.550838690305786,-0.00011908559269172114,-0.00011894991474061819,6.775639421309524e-06,601.2625907267225,601.1943644004856,601.2490583879536,601.2490972749714
0.3960000000000001,-1.2017398832076406e-06,2.0000012015034114,0.16558840534923067,0.0013953832541652225,0.001395183510309825,-5.9146215218756634e-05,1.5272028043124417e-22,2.0,0.2517279876752621,0.0,-2.5117328532274953e-05,2.511805340497e-05,1.019765491151194,0.0,0.0,0.0,2.4931956760152403,-0.00010768775361799777,-0.00010752531394694437,6.608611907766634e-06,599.8560887395096,599.7942595243618,599.8452901099162,599.8453367761352
0.4000000000000001,-1.192198931800861e-06,2.0000011919608305,0.169740935020454,0.0013589090653742697,0.0013585682105008057,-6.253258245731116e-05,1.5272028043124417e-22,2.0,0.25571826211668686,0.0,-2.367495705490972e-05,2.3677979766549132e-05,1.0303172846519875,0.0,0.0,0.0,2.4358393726233474,-9.517578891221282e-05,-9.498675852866306e-05,6.402424486016212e-06,598.4530255292244,598.3982653861283,598.4451747014717,598.4452291338126
0.4040000000000001,-1.1776716255324863e-06,2.000001177430881,0.17393409573894833,0.0013100966582015058,0.0013096064378352239,-6.559315762327094e-05,1.5272028043124417e-22,2.0,0.2597234474073783,0.0,-2.2016958377535085e-05,2.2022392035530592e-05,1.040643694773859,0.0,0.0,0.0,2.378811271891319,-8.169162975230974e-05,-8.147664392866606e-05,6.165268561608333e-06,597.0544699973236,597.007373492455,597.0497666405688,597.049828691607
0.4080000000000001,-1.1583567177461632e-06,2.000001158111775,0.17816693925402813,0.0012495427911458838,0.0012488972611250676,-6.831940321905491e-05,1.5272028043124417e-22,2.0,0.26374322043047477,0.0,-2.0155582549504234e-05,2.0163500524076968e-05,1.050740557128713,0.0,0.0,0.0,2.322231218335546,-6.74497309620366e-05,-6.721002797554402e-05,5.90497508755971e-06,595.6634459521684,595.6244875739001,595.6620530628184,595.6621224091145
0.412,-1.1344943301243873e-06,2.000001134243076,0.18243852365681298,0.001177966073616898,0.0011771618096070645,-7.0704941464698e-05,1.5272028043124417e-22,2.0,0.2677772614213585,0.0,-1.8106234341626706e-05,1.8116664572617837e-05,1.0606028884205094,0.0,0.0,0.0,2.2661129725149283,-5.26381707763663e-05,-5.237549504645375e-05,5.6236930378305455e-06,594.2803961661955,594.2499442008651,594.2824298273484,594.282505996096
0.416,-1.1063609740153457e-06,2.000001106100725,0.18674796379374695,0.0010961259663801412,0.0010951620968762785,-7.27496142142088e-05,1.5272028043124417e-22,2.0,0.2718252539389405,0.0,-1.5886476903176966e-05,1.5899398640300276e-05,1.0702345219410883,0.0,0.0,0.0,2.2103678288328386,-3.7366406519111363e-05,-3.708275876443337e-05,5.328402250382591e-06,592.9032098614201,592.8815710331099,592.9087765531826,592.9088589937982
0.42,-1.0742694210689912e-06,2.0000010739969234,0.19109434718603255,0.0010049375354452743,0.0010038159651091657,-7.445716194475487e-05,1.5272028043124417e-22,2.0,0.2758868848371698,0.0,-1.3515625105529021e-05,1.3530966800934887e-05,1.0796404101278851,0.0,0.0,0.0,2.1550759657080523,-2.1828117337584888e-05,-2.152605470485511e-05,5.023626642670296e-06,591.5339594640801,591.5213293976284,591.5431238283692,591.5432118238454
0.424,-1.0385635420936048e-06,2.00000103827498,0.1954767736048812,0.0009053989472252868,0.0009041244410934105,-7.58330735976613e-05,1.5272028043124417e-22,2.0,0.2799618442367662,0.0,-1.1014933664537395e-05,1.1032571012772527e-05,1.0888204807759156,0.0,0.0,0.0,2.100238164096697,-6.201736216640647e-06,-5.884177799213761e-06,4.71153875757684e-06,590.1727683487267,590.1692393506901,590.1855499572141,590.1856426796447
0.428,-9.99613828659047e-07,2.000000999304846,0.19989437016355233,0.0007985546962575175,0.0007971348867451914,-7.688678528208462e-05,1.5272028043124417e-22,2.0,0.2840498254971749,0.0,-8.407280944817485e-06,8.42703581701681e-06,1.097777564090855,0.0,0.0,0.0,2.045824234484245,9.375198224654828e-06,9.704967218848837e-06,4.396951752322537e-06,588.8189755387313,588.8245595728622,588.8353686581972,588.8354651667228
0.432,-9.578147690286732e-07,2.000000957480495,0.20434624912739927,0.0006855543947747669,0.0006839998381950259,-7.762810292055281e-05,1.5272028043124417e-22,2.0,0.2881505251887408,0.0,-5.716847039384337e-06,5.738487261351469e-06,1.1065140576406987,0.0,0.0,0.0,1.9918887899755586,2.4710904370596232e-05,2.5049261769180032e-05,4.080662610609579e-06,587.4740465758434,587.4886426992347,587.4939914729023,587.4940907209553
0.436,-9.135783602570465e-07,2.0000009132134506,0.20883157463803506,0.0005675252738688826,0.0005658493469722628,-7.806993326436306e-05,1.5272028043124417e-22,2.0,0.2922636430651011,0.0,-2.968556624998816e-06,2.991796833041097e-06,1.115034284981498,0.0,0.0,0.0,1.9383515478817208,3.970785770523158e-05,4.005091920184424e-05,3.766674444289402e-06,586.1360621395411,586.1595109675272,586.1594823983572,586.1595832553303
0.44,-8.673327653095485e-07,2.000000866931451,0.2133494668064667,0.00044572531606665517,0.0004439442050127027,-7.822664360145144e-05,1.5272028043124417e-22,2.0,0.2963888820357948,0.0,-1.8827342215099678e-07,2.1277671501024412e-07,1.1233390368114953,0.0,0.0,0.0,1.8853252643659495,5.41453244571826e-05,5.44889039333382e-05,3.457202475694913e-06,584.8079508400359,584.8399612557545,584.8347111464532,584.8348123845144
0.444,-8.195158429557357e-07,2.0000008190719893,0.21789906461840028,0.0003214212055717535,0.00031955377439540287,-7.811414001956756e-05,1.5272028043124417e-22,2.0,0.3005259481390868,0.0,2.5974617620485974e-06,-2.572081536255846e-06,1.13142785141846,0.0,0.0,0.0,1.8327964796542768,6.78747946304612e-05,6.821449277991305e-05,3.1546143282830637e-06,583.4894829756056,583.529673690865,583.5194104946006,583.5195108146231
0.448,-7.705718611816487e-07,2.0000007700790348,0.2224794709247548,0.0001959658953401103,0.00019403351813967562,-7.775076082243559e-05,1.5272028043124417e-22,2.0,0.3046745505150063,0.0,5.36105045224526e-06,-5.335225662558824e-06,1.1392968135143065,0.0,0.0,0.0,1.7808628222181917,8.068762555209628e-05,8.10189138319153e-05,2.862385575389142e-06,582.1832324610654,582.231095450748,582.2161020404851,582.2162000959061
0.452,-7.209457107610742e-07,2.000000720397256,0.22708979117386405,7.071968145232644e-05,6.874602149786369e-05,-7.715229637307437e-05,1.5272028043124417e-22,2.0,0.30883440137859625,0.0,8.074391461537954e-06,-8.048596180888552e-06,1.1469433412849352,0.0,0.0,0.0,1.7295445118259534,9.242884411153027e-05,9.274710260208538e-05,2.57827533470475e-06,580.8898402070233,580.9447715280949,580.9253719322967,580.9254663404284
0.456,-6.710774456004326e-07,2.0000006704665663,0.23172916803033575,-5.301930365419744e-05,-5.500854622953052e-05,-7.633566981541661e-05,1.5272028043124417e-22,2.0,0.3130052159933735,0.0,1.0709606769896047e-05,-1.0684351444704242e-05,1.1543693427251356,0.0,0.0,0.0,1.6787914724928683,0.00010302222389576008,0.0001033228434029943,2.304238864535435e-06,579.608148559271,579.6694945820084,579.6460440485998,579.646133421126
0.46,-6.213984208303089e-07,2.000000620718269,0.23639675330220805,-0.0001739849174815866,-0.0001759623092863493,-7.531787334049673e-05,1.5272028043124417e-22,2.0,0.31718671264499765,0.0,1.324001792348879e-05,-1.3215843150509622e-05,1.1615807686191497,0.0,0.0,0.0,1.6286094621643978,0.00011237377020197762,0.00011265218054641773,2.0410365109738864e-06,578.3384076890369,578.4054540455392,578.3783408175021,578.3784237687837
0.464,-5.723270121455844e-07,2.000000571570781,0.24109170793454038,-0.00029095661669564934,-0.0002928933291677505,-7.411580790538581e-05,1.5272028043124417e-22,2.0,0.3213786126151471,0.0,1.5640297513812322e-05,-1.5617767097250927e-05,1.168580716810522,0.0,0.0,0.0,1.5790040059032209,0.00012039847999635415,0.00012065024849174991,1.7892454080586616e-06,577.0808609266458,577.1528374517126,577.1224797225807,577.122554899262
0.468,-5.242645637667414e-07,2.0000005234255873,0.24581320197245093,-0.0004027720805840377,-0.00040463825836593425,-7.274615409091693e-05,1.5272028043124417e-22,2.0,0.3255806401556006,0.0,1.7886520064978e-05,-1.786621319568119e-05,1.1753714689632717,0.0,0.0,0.0,1.5299804576616465,0.00012702733664299488,0.00012724820414626933,1.5492892647793764e-06,575.8357440725046,575.9118339805468,575.8786748292528,575.87874092151
0.47200000000000003,-4.775916009585985e-07,2.0000004766634536,0.2505604145469556,-0.0005083390064087339,-0.0005101041611336814,-7.12252629212043e-05,1.5272028043124417e-22,2.0,0.32979252246252305,0.0,1.995644180335044e-05,-1.9938944591865915e-05,1.1819552999006173,0.0,0.0,0.0,1.4815439547479952,0.00013220771922625404,0.00013239369840722993,1.3214563652261446e-06,574.6032839447538,574.6826333839595,574.6471355635815,574.6471913351488
0.47600000000000003,-4.3266434187110195e-07,2.0000004316409403,0.25533253387887433,-0.0006066459891445607,-0.0006082794134263343,-6.956906437949232e-05,1.5272028043124417e-22,2.0,0.3340139896509538,0.0,2.182975355512195e-05,-2.181565045214568e-05,1.188334481891443,0.0,0.0,0.0,1.4336993811766232,0.0001359038039905292,0.00013605121644574565,1.1059157343917953e-06,573.3836971602735,573.4654251043876,573.4280657179428,573.428110018073
0.48000000000000004,-3.898115871460887e-07,2.000000388687292,0.2601287641187653,-0.0006967756152595184,-0.0006982467778251346,-6.779215798613943e-05,1.5272028043124417e-22,2.0,0.33824477472949593,0.0,2.3488322419744497e-05,-2.3478187076853975e-05,1.1945119711334677,0.0,0.0,0.0,1.3864374932825174,0.00013810101184229143,0.0001382065200233019,9.017578713771551e-07,572.1768356021857,572.2600465862865,572.2213072747036,572.221339048703
0.48400000000000004,-3.493318881432079e-07,2.0000003481016035,0.26494832275276353,-0.0007779143654835741,-0.0007791933346105716,-6.591073963387598e-05,1.5272028043124417e-22,2.0,0.3424846135752053,0.0,2.4916458970517577e-05,-2.491084565109658e-05,1.2004911487968046,0.0,0.0,0.0,1.339753847872881,0.0001388023493821973,0.0001388630381420528,7.114386678355923e-07,570.9826612727624,571.0664560100696,571.0268283773354,571.0268466921079
0.48800000000000004,-3.114567029676755e-07,2.0000003101842423,0.26979040015184613,-0.0008460048009959879,-0.0008537350383173066,-6.495862861418852e-05,1.5272028043124417e-22,2.0,0.34673324490867746,0.0,2.611623695590399e-05,-2.6085126395012005e-05,1.2062717748066973,0.0,0.0,0.0,1.293725715020557,0.00013450439828541178,0.00014151380492855972,1.7243609293081588e-06,569.8013306609391,569.8848010122058,569.8475387284648,569.8496584145842
0.49200000000000005,-2.7637753377789403e-07,2.0000002752066215,0.2746542173141367,-0.0008958594344402995,-0.0009258567689961282,-6.424691553671027e-05,1.5272028043124417e-22,2.0,0.35099041026933125,0.0,2.7140664667493856e-05,-2.6926803699081993e-05,1.21185378741117,0.0,0.0,0.0,1.2483140829133488,0.00012325520990922212,0.00014819662686441006,1.9706219653596504e-06,568.635073771433,568.7173316518212,568.67875933881,568.686317236595
0.49600000000000005,-2.4433470178208656e-07,2.0000002433189614,0.27953901031244627,-0.0009284977088336664,-0.0009935732683435824,-6.370262291849457e-05,1.5272028043124417e-22,2.0,0.3552558539908875,0.0,2.8035559105435094e-05,-2.7374359679913406e-05,1.2172414407651675,0.0,0.0,0.0,1.2035105695386348,0.00011084146301870132,0.00015321575136504622,2.1414555875638856e-06,567.4826405096895,567.5628202345357,567.5231956459305,567.536062241866
0.5,-2.1555112727015124e-07,2.0000002146142197,0.2844440306158064,-0.0009449009188816288,-0.00105517524751605,-6.3270468758964e-05,1.5272028043124417e-22,2.0,0.3595293231770414,0.0,2.8794891891403243e-05,-2.7423915775449872e-05,1.2224391381493627,0.0,0.0,0.0,1.1593057015073964,9.792377111623153e-05,0.00015602785874430143,2.2545479153764024e-06,566.3438242858875,566.421090742373,566.3808956568333,566.398573981155
0.504,-1.9022748398289672e-07,2.000000189131827,0.289368555155749,-0.0009460497619648802,-0.0011091862582116574,-6.290380651966952e-05,1.5272028043124417e-22,2.0,0.36381056767732706,0.0,2.938352348843908e-05,-2.7106345932887646e-05,1.2274515910447925,0.0,0.0,0.0,1.1156691262446836,8.455527281543587e-05,0.00015671699098949017,2.317724305989644e-06,565.217888615162,565.2914437553593,565.2511625450563,565.2731617372789
0.508,-1.68537150467342e-07,2.000000166860015,0.2943118438245843,-0.0009330026669989185,-0.00115432769874228,-6.256412441495531e-05,1.5272028043124417e-22,2.0,0.3680993400631729,0.0,2.977269563892446e-05,-2.645196700991606e-05,1.2322807324508056,0.0,0.0,0.0,1.0726559782402418,7.086701845887469e-05,0.00015533449293212573,2.3385765522363074e-06,564.1062996194806,564.1753963884736,564.1355253627238,564.1613269196416
0.512,-1.5062261105315892e-07,2.0000001477406153,0.29927316444596525,-0.0009068555053908873,-0.0011895335395623549,-6.222025000162889e-05,1.5272028043124417e-22,2.0,0.3723953956041463,0.0,2.9938958495787138e-05,-2.5491731344836657e-05,1.2369263216816209,0.0,0.0,0.0,1.030271297527327,5.697892966605844e-05,0.00015197381770834701,2.3240986324028883e-06,563.0092291658403,563.0731816900941,563.0342141979648,563.0632881466975
0.516,-1.365923551259593e-07,2.0000001316731884,0.3042517949257617,-0.0008687375848148256,-0.0012139484659209974,-6.18472114474449e-05,1.5272028043124417e-22,2.0,0.3766984922443863,0.0,2.9864026843014933e-05,-2.425726654629725e-05,1.2413894938020458,0.0,0.0,0.0,0.9885155461974773,4.300496891160634e-05,0.00014674236884733245,2.280253507069685e-06,561.9267306724464,561.9849173151085,561.9473360074307,561.9791470010366
0.52,-1.2651865475491392e-07,2.0000001185193517,0.30924702915531044,-0.0008197973436426761,-0.0012269192294458752,-6.142523331898695e-05,1.5272028043124417e-22,2.0,0.3810083905792226,0.0,2.9534760415762003e-05,-2.2780458618542196e-05,1.2456733632456767,0.0,0.0,0.0,0.9473769239237213,2.9050472067825807e-05,0.00013975837521265885,2.2120839319431435e-06,560.8585383014955,560.9104029660261,560.8746732924732,560.9086866427702
0.524,-1.2043632348874808e-07,2.0000001081074323,0.31425819212185774,-0.0007611677541784045,-0.0012279765399749681,-6.093909198984357e-05,1.5272028043124417e-22,2.0,0.38532485383198,0.0,2.894286476488496e-05,-2.1092999691187366e-05,1.2497831415391243,0.0,0.0,0.0,0.9068124932025521,1.5189215330921455e-05,0.00013114127792131236,2.124091677822003e-06,559.8035753138709,559.8486187466968,559.815186567116,559.8508784733115
0.528,-1.1834075908456764e-07,2.0000001002353947,0.31928460935308334,-0.0006940228841161025,-0.001216849042359331,-6.03778547890666e-05,1.5272028043124417e-22,2.0,0.3896476478309664,0.0,2.8084666151182238e-05,-1.9226287938102152e-05,1.2537230885838102,0.0,0.0,0.0,0.8668403769066642,1.543922215615297e-06,0.00012102909647361264,2.0206596486896315e-06,558.7623435255528,558.8001444870242,558.769429844456,558.8062780928618
0.532,-1.2018711759279862e-07,2.0000000946745615,0.32432559669181155,-0.0006195935873121868,-0.0011934697919860533,-5.973354618590149e-05,1.5272028043124417e-22,2.0,0.39397654098664303,0.0,2.696114740276608e-05,-1.7211914350854306e-05,1.257493574635524,0.0,0.0,0.0,0.8274994715428154,-1.1729588992878777e-05,0.00010959165917641837,1.9047880785733457e-06,557.735884377154,557.7661203414469,557.738502864012,557.7759864760615
0.536,-1.258916339620167e-07,2.000000091174956,0.3293804939452628,-0.0005390917741882544,-0.0011579298874679373,-5.9001486515132244e-05,1.5272028043124417e-22,2.0,0.39831130426897604,0.0,2.557765932053318e-05,-1.5081574712576964e-05,1.2610956719238815,0.0,0.0,0.0,0.7887607288080742,-2.453770507254275e-05,9.698223013993989e-05,1.7799937591612018e-06,556.7234726462851,556.7458963360153,556.721721597333,556.7593351605143
0.54,-1.3533100102434046e-07,2.0000000894682226,0.33444862870232867,-0.00045377749854342485,-0.0011105248256155337,-5.8179450059053854e-05,1.5272028043124417e-22,2.0,0.40265171118496734,0.0,2.3943770664637796e-05,-1.2866880925995136e-05,1.2645306273403918,0.0,0.0,0.0,0.7506678076015085,-3.673309072054877e-05,8.339688059942643e-05,1.648945000895427e-06,555.7262762324906,555.7407460550875,555.7203092919962,555.7575596399603
0.544,-1.4834473887552692e-07,2.0000000892726635,0.33952934375138766,-0.00036489468369742934,-0.0010516987766468972,-5.726660314817444e-05,1.5272028043124417e-22,2.0,0.4069975377563641,0.0,2.2072990209521365e-05,-1.059908844247696e-05,1.2677994980258438,0.0,0.0,0.0,0.7132091488382919,-4.821256955632292e-05,6.901444669241244e-05,1.5131702595174433e-06,554.7440261857205,554.7504880398199,554.7340352597103,554.770450101642
0.548,-1.6473763204532602e-07,2.000000090297722,0.3446220125635602,-0.0002736325367016489,-0.0009819997602965721,-5.626390376666939e-05,1.5272028043124417e-22,2.0,0.41134856249754476,0.0,1.9982111552991785e-05,-8.30860554152479e-06,1.2709064231213882,0.0,0.0,0.0,0.676341322396302,-5.892078921348687e-05,5.397400803443668e-05,1.3747218969067487e-06,553.7756216386155,553.7740822819567,553.7618239565376,553.7969546663304
0.552,-1.8425349350680577e-07,2.0000000922200254,0.34972600343259247,-0.00018380886614533033,-0.0009047702576383803,-5.599699930241238e-05,1.5272028043124417e-22,2.0,0.41570456639358144,0.0,1.7703210430988247e-05,-6.037028651088517e-06,1.2738550803165045,0.0,0.0,0.0,0.6400927352870267,-6.599981412862078e-05,4.1231327390605544e-05,2.197000609618889e-06,552.8193878737984,552.8116669542832,552.8060785023301,552.8395045304535
0.556,-2.0659967697953714e-07,2.000000094709208,0.3548406748386564,-0.00010023183940542177,-0.0008245072050027057,-5.589619180945272e-05,1.5272028043124417e-22,2.0,0.42006533287847553,0.0,1.5311551096627093e-05,-3.865046044543296e-06,1.2766452548329588,0.0,0.0,0.0,0.6045014050541342,-6.776265463352994e-05,3.258906798595395e-05,2.383977508827992e-06,551.8784937501922,551.8675105906709,551.8652305263205,551.8965654942264
0.56,-2.3152270737705166e-07,2.0000000975032837,0.35996542287771066,-2.283867927684498e-05,-0.0007409619974197572,-5.589793252122515e-05,1.5272028043124417e-22,2.0,0.42443064781356726,0.0,1.2876927494614313e-05,-1.8641396573738495e-06,1.2792788630890102,0.0,0.0,0.0,0.5695094393669096,-6.86970859672972e-05,2.365770154844255e-05,2.5035328381768636e-06,550.9519276782922,550.9378401735205,550.9387465286187,550.9676330001544
0.5640000000000001,-2.5875865776001987e-07,2.000000100360342,0.36509963370570103,4.8344619862243365e-05,-0.0006541388789578125,-5.595337297992979e-05,1.5272028043124417e-22,2.0,0.4288002994661166,0.0,1.0425841415757979e-05,-5.895614758533736e-08,1.2817592406477103,0.0,0.0,0.0,0.5351542975048631,-6.920996679173343e-05,1.4163534350608527e-05,2.5702365252235458e-06,550.040840285003,550.0235941876284,550.0276982880484,550.0538188762024
0.5680000000000001,-2.880341030815397e-07,2.000000103059111,0.3702426938197423,0.00011327474368434025,-0.0005642128798011853,-5.602270342649012e-05,1.5272028043124417e-22,2.0,0.43317407848805456,0.0,7.959633101295882e-06,1.5545330012871307e-06,1.284086600064865,0.0,0.0,0.0,0.501452924973528,-6.92558063552569e-05,4.302365219058203e-06,2.592645073444763e-06,549.1457077272264,549.125324524886,549.1326045134691,549.1556876250961
0.5720000000000001,-3.190671645820705e-07,2.000000105398958,0.37539400233163084,0.00017190579435134493,-0.0004714879083430286,-5.6074287101203175e-05,1.5272028043124417e-22,2.0,0.4375517778949037,0.0,5.484208410033408e-06,2.9792890779254336e-06,1.286261886751889,0.0,0.0,0.0,0.46839738196218383,-6.881089814303405e-05,-5.765493631545507e-06,2.5786720913940457e-06,548.2663542848073,548.2429136785134,548.2533233108256,548.2731392243738
0.5760000000000001,-3.51569079097351e-07,2.00000010719984,0.3805529900090675,0.0002242002130173644,-0.000376348687887712,-5.608254992334808e-05,1.5272028043124417e-22,2.0,0.4419331930448664,0.0,3.0081471615156355e-06,4.218274143792734e-06,1.2882893157074675,0.0,0.0,0.0,0.43594071653283795,-6.786430796742127e-05,-1.592002847384692e-05,2.5340994006952395e-06,547.4015715469454,547.3751950544947,547.3886691451422,547.4050216851738
0.5800000000000001,-3.8524438750635524e-07,2.0000001083022734,0.3857190793206966,0.0002701327881444152,-0.000279311255518043,-5.6027163679100287e-05,1.5272028043124417e-22,2.0,0.44631812161807993,0.0,5.423787424052298e-07,5.274669568822433e-06,1.2901727780170966,0.0,0.0,0.0,0.40411609089092093,-6.640986489576789e-05,-2.599140767549673e-05,2.4640018249945085e-06,546.5522796580609,546.5231451558356,546.5395813576483,546.5523252717035
0.5840000000000001,-4.197939456755314e-07,2.00000010856701,0.39089173659361626,0.00030969244230451173,-0.00018091144576543505,-5.589238874038238e-05,1.5272028043124417e-22,2.0,0.45070636359603666,0.0,-1.9004893150239415e-06,6.151985642405886e-06,1.2919162695060125,0.0,0.0,0.0,0.37285111103459334,-6.444740018646123e-05,-3.5897788185237636e-05,2.3729003726186935e-06,545.716590650229,545.6849028720621,545.7041874694502,545.7132029549919
0.5880000000000001,-4.549159264443997e-07,2.000000107874967,0.39607044618165516,0.000342888422606902,-8.173652995073062e-05,-5.5667007977680624e-05,1.5272028043124417e-22,2.0,0.4550977212411685,0.0,-4.3068326963987476e-06,6.854130216203921e-06,1.293526595132315,0.0,0.0,0.0,0.34212444399244624,-6.198195667120311e-05,-4.553967133849636e-05,2.2654261748773485e-06,544.8939719335109,544.8599665901422,544.8819692163484,544.8871692655873
0.5920000000000001,-4.903068106101387e-07,2.000000106127354,0.4012546723283439,0.0003697655189897091,1.7516660066254804e-05,-5.5342831560214445e-05,1.5272028043124417e-22,2.0,0.45949199907659405,0.0,-6.661995621301194e-06,7.385582788221497e-06,1.2950053188595836,0.0,0.0,0.0,0.3119916147345214,-5.9035164287494314e-05,-5.474514343175106e-05,2.1446486584831458e-06,544.0859460725359,544.0499078167186,544.0744531051172,544.0758118887646
0.5960000000000001,-5.256646317813081e-07,2.0000001032449135,0.40644391054196366,0.0003903892386202452,0.00011615369449036063,-5.4915085609417564e-05,1.5272028043124417e-22,2.0,0.4638890038660277,0.0,-8.950358380910256e-06,7.751449891813464e-06,1.2963541962657037,0.0,0.0,0.0,0.2824045554659296,-5.562369484933687e-05,-6.343804042416065e-05,2.014214997742123e-06,543.2912688974657,543.2535026041427,543.2804023700974,543.2779236964504
0.6000000000000001,-5.606900873139991e-07,2.0000000991681732,0.41163763389186286,0.0004048753960050099,0.00021339486827317045,-5.4381931731036014e-05,1.5272028043124417e-22,2.0,0.468288544593849,0.0,-1.1155445796242673e-05,7.95761046804246e-06,1.2975732600222791,0.0,0.0,0.0,0.25342322644791127,-5.1788786014475864e-05,-7.146168786722494e-05,1.8773510411851946e-06,542.5115914109449,542.4724402151209,542.5014662808164,542.4952171474271
0.6040000000000001,-5.95089428420844e-07,2.0000000938566376,0.4168353214014309,0.00041337796431566186,0.000308442381248494,-5.374327780495132e-05,1.5272028043124417e-22,2.0,0.47269043244533104,0.0,-1.326036224065457e-05,8.01079465163427e-06,1.2986623633125,0.0,0.0,0.0,0.22505071126287302,-4.7572816195836074e-05,-7.87098286657634e-05,1.7360138638951546e-06,541.7470481430075,541.7068771097912,541.7377729268184,541.7278682210834
0.6080000000000001,-6.28576938992673e-07,2.000000087288103,0.42203646380043947,0.00041608701688921056,0.00040050421025402793,-5.300074829163006e-05,1.5272028043124417e-22,2.0,0.4770944807870273,0.0,-1.5247968015384664e-05,7.918638378765619e-06,1.2996219378546345,0.0,0.0,0.0,0.197278260901109,-4.301740092807908e-05,-8.510463371440515e-05,1.5921975553966798e-06,540.9974576488429,540.956645001259,540.9891347302118,540.9757281813567
0.6120000000000001,-6.608772534530926e-07,2.000000079457938,0.4272405631257561,0.00041322881101763225,0.0004888058971652489,-5.215737898121151e-05,1.5272028043124417e-22,2.0,0.4815005051473149,0.0,-1.7101747934126848e-05,7.689534592330084e-06,1.3004548894061192,0.0,0.0,0.0,0.17009759486809473,-3.8167528151218895e-05,-9.058160871793221e-05,1.4476102256110016e-06,540.2626520537656,540.2215838534656,540.2553755899489,540.2386567792823
0.6160000000000001,-6.917275992881953e-07,2.0000000703782654,0.4324471323802985,0.00040506513480715624,0.0005726016454375828,-5.121734744392878e-05,1.5272028043124417e-22,2.0,0.4859083231970937,0.0,-1.8806129518276674e-05,7.332597710601908e-06,1.3011640250626197,0.0,0.0,0.0,0.14350079537298965,-3.307150217051195e-05,-9.508870027900482e-05,1.3037032736035199e-06,539.5424741248517,539.5015392180941,539.5363280584288,539.5165196671425
