Time_s,X,Y,Z,Roll_deg,Pitch_deg,Yaw_deg,Ref_X,Ref_Y,Ref_Z,Ref_Yaw,vx,vy,vz,p,q,r,T_pert,tau_x,tau_y,tau_z,RPM_0,RPM_1,RPM_2,RPM_3
0.0040000000000048885,0.019625969444375335,4.079140826743279,1.9984645675261525,1.985802438433221,-2.03186715525707,-0.014640046433491906,0.02013411954177677,4.079310288096372,7.200000000017598e-05,0.0,-0.1263517691375318,-0.04209059088151933,0.0024226648617371245,0.05588104342137133,-0.005046304379638765,5.478252475603336e-06,-10.19,-1.0,1.0,0.01710188926259137,0.0,0.0,0.0,603.9855457795136
0.008000000000009777,0.019112293456719782,4.078963345782521,1.998450274992687,1.9985452050930965,-2.0327181982033893,-0.014668396675330536,0.020132678557327782,4.079304611916117,0.00021513340800052478,0.0,-0.1275530579296495,-0.043375407521639736,0.002482413271083394,0.05571976265229541,-0.004287649709349061,5.5056533302101145e-06,-10.19,-0.32012674637185734,0.6137773104649824,0.0006353070512211563,0.0,195.77865602111177,0.0,388.5664470051635
0.012000000000000455,0.018593821095230292,4.078780673260866,1.998435824891762,2.011248606127958,-2.033392511376567,-0.014690739440432143,0.020130530088264122,4.079296148883997,0.0004285414703013474,0.0,-0.1287532806368954,-0.04466703821117238,0.0025423762346823324,0.0555530301735336,-0.0035216121246625294,5.532897641825866e-06,-10.19,-0.32793551741722843,0.6272215507432861,0.0006304775678628423,0.0,198.2655932924275,0.0,393.23974086612463
0.016000000000005343,0.018070557497227566,4.078592782098234,1.9984212165283228,2.0239113730421847,-2.0338884066880007,-0.014706936272638745,0.02012768270174604,4.079284932746901,0.0007113732083625512,0.0,-0.12995231970365065,-0.04596544702593975,0.0026025381798667406,0.055380807170088156,-0.0027481915978698427,5.559980842490304e-06,-10.19,-0.33585983897651983,0.6407917932742442,0.0006252412193103829,0.0,200.72805887353675,0.0,397.9095197094877
0.020000000000010232,0.017542508279252886,4.078399645364084,1.9984064492228286,2.0365322292217365,-2.034204196412075,-0.01471684797389348,0.020124144887288913,4.079270996945873,0.0010627853561316913,0.0,-0.13115005660216056,-0.047270597247414656,0.002662883230058159,0.05520306491944042,-0.001967389495536367,5.586899321704921e-06,-10.19,-0.34390066137962355,0.654488203640315,0.0006195910243863781,0.0,203.16664118103253,0.0,402.57612884349254
0.02400000000000091,0.01700967954098349,4.078201236280671,1.9983915223115079,2.049109889956821,-2.0343381933360685,-0.014720334633257956,0.020119925057389344,4.079254374618566,0.0014819422978532219,0.0,-0.13234637183390874,-0.04858245135816565,0.0027233952053234605,0.05501976976830354,-0.0011792073786681474,5.613648944584577e-06,-10.19,-0.35205893444345165,0.6683109366892648,0.0006135199956273342,0.0,205.5818879942718,0.0,407.23989527512765
0.028000000000005798,0.016472077869141136,4.077997528226307,1.9983764351466113,2.0616430624653774,-2.0342887109113215,-0.014717255656645632,0.020115031548146485,4.079235098601701,0.0019680160063530122,0.0,-0.1335411449310813,-0.04990097103774293,0.0027840576230521736,0.05483088066279277,-0.00038364711687693487,5.640224790256398e-06,-10.19,-0.360335607858864,0.6822601365944974,0.0006070211412622469,0.0,207.9743093161904,0.0,411.90112886873266
0.03200000000001069,0.015929710341393483,4.077788494738644,1.9983611870966607,2.0741304459173895,-2.034054063405651,-0.014707469797273899,0.020109472619878808,4.079213201433488,0.002520185981774745,0.0,-0.1347342544581213,-0.05122611715865123,0.0028448536986993293,0.054636364369584044,0.0004192883672331902,5.666622680364794e-06,-10.19,-0.3687316308639445,0.6963359369430405,0.0006000874672254573,0.0,210.34438026331307,0.0,416.5601232807275
0.036000000000001364,0.015382584530247862,4.077574109517977,1.998345777546695,2.0865707314600224,-2.0336325660570407,-0.014690835186837267,0.02010325645773605,4.079188715356042,0.0031376391907938154,0.0,-0.1359255780133701,-0.0525578497820536,0.002905766346605621,0.05443618344728525,0.0012295955043994911,5.692837960682424e-06,-10.19,-0.37724795218694795,0.7105384602357734,0.000592711979203711,0.0,212.69254334462974,0.0,421.21715676363516
0.04000000000000625,0.014830708506937022,4.077354346430567,1.9983302058985126,2.0989626022435983,-2.0330225352285702,-0.014667209367404387,0.020096391172306504,4.079161672317773,0.0038195700062961225,0.0,-0.13711499223080045,-0.053896128153381184,0.002966778180969551,0.05423030520415064,0.00204727016433738,5.718866431360411e-06,-10.19,-0.3858855199134831,0.7248678179533398,0.0005848876847187931,0.0,215.01921078523026,0.0,425.87249301337056
0.04400000000001114,0.01427416591489903,4.0771292621610975,1.998311853755518,2.1102384731916954,-2.031210679363952,-0.013887339976980474,0.020088884800219906,4.07913210397576,0.004565180147492341,0.0,-0.13830427462207048,-0.055242012789983995,0.0027654147913573424,0.052204078657905786,0.004684752730103772,0.0012465282744265464,-10.19,-0.39243706956389196,0.7372680401431643,-0.0002984705786681249,0.0,221.03351642926424,0.0,427.80670546473596
0.04800000000000182,0.013713703195089985,4.076899663024822,1.998264985789447,2.111777806403308,-2.018286324940542,-0.011290259364454326,0.02008074530474557,4.079100041698108,0.005373678620505963,0.0,-0.13951108084631542,-0.05660598884330927,-0.00028305383897018484,0.03337924382195826,0.026493138381872765,0.00493972890945213,-10.19,-0.380169885787286,0.730373221914293,-0.0024523150689564114,0.0,231.77272091571498,0.0,419.26064824754593
0.05200000000000671,0.013150176534282887,4.0766665407620595,1.9981605098110213,2.099929037327061,-1.984434200654787,-0.006842627633467579,0.020071980576385925,4.079065516566286,0.006244281659416086,0.0,-0.14075026453109596,-0.0579915970352752,-0.009113470317548491,-0.008616026095986596,0.08459024003769974,0.010323968001303379,-10.19,-0.360230604091754,0.709492915258465,-0.004719907681131086,0.0,240.21101721539313,0.0,405.7096622412257
0.056000000000011596,0.012584190995222833,4.076430602177241,1.9979784539047845,2.0734155557277654,-1.923567630106688,-0.0003084815659713876,0.020062598433465844,4.079028559377449,0.007176212667719711,0.0,-0.1420106557303971,-0.05938685874559092,-0.024502776263279423,-0.06761956239978166,0.18097704075238347,0.0151813411947298,-10.19,-0.3404448062137599,0.6823958910805228,-0.0073394427320232665,0.0,247.4462233093751,0.0,389.52921304279914
0.060000000000002274,0.012016176321912257,4.076192341146083,1.997705285589784,2.0316165035696505,-1.8317508027275742,0.008276306171812495,0.020052606622717233,4.078989200646742,0.008168702160264074,0.0,-0.14324886184126295,-0.06076590221207904,-0.044655413317715345,-0.13160584715596277,0.30226696768889194,0.019779415104248507,-10.19,-0.32086637580099053,0.6504739615125466,-0.010003207998696806,0.0,252.9260612533543,0.0,371.4688652129429
0.06400000000000716,0.011446472382846113,4.075952134995215,1.9973312441586335,1.975000889816399,-1.7070495959574294,0.018784750456976664,0.02004201281985915,4.078947470609579,0.009220987705623782,0.0,-0.144410700380332,-0.06210315873723395,-0.06813695536091084,-0.19696054031025892,0.43854490091679654,0.023935049578742998,-10.19,-0.3017603452192309,0.6149168128418121,-0.012603439838724822,0.0,256.68964089524127,0.0,351.8754396047351
0.06800000000001205,0.010875363281864217,4.075710281063472,1.996849053913591,1.9044466077544033,-1.5489161085688403,0.03103702829836071,0.02003082463017385,4.078903399223921,0.01033231386888193,0.0,-0.14543577057573784,-0.06337195863721316,-0.09404479990675178,-0.2603027304865976,0.5820973843552164,0.027547875352148848,-10.19,-0.2832904751646432,0.5768597755798553,-0.015073335145628763,0.0,258.89938034409613,0.0,330.9994025370905
0.07200000000000273,0.010303097175114177,4.075467022757048,1.9962531048563965,1.821112727500999,-1.3577298274027276,0.04475989260372346,0.02001904958907813,4.078857016172519,0.011501932154877496,0.0,-0.14626121841352935,-0.06454699435385891,-0.12180268909943566,-0.3196273529042596,0.7272041093889172,0.03063792791012799,-10.19,-0.2655933959245569,0.537135985417768,-0.017296497428096178,0.0,259.4162886628508,0.0,309.195458106447
0.07600000000000762,0.009729899391741799,4.075222568123831,1.9955388788147028,1.7264042609122434,-1.1345192340848027,0.059674374265589934,0.020006695162690307,4.078808350865151,0.012729100951887803,0.0,-0.1468245877798452,-0.06560527609936133,-0.15102033841179544,-0.37376229059414906,0.8700541371363073,0.03319935098768553,-10.19,-0.24885107846303864,0.49637934569727504,-0.01925512472874429,0.0,258.33829826175196,0.0,286.55390675331466
0.0799999999999983,0.009155976153179977,4.074977096744729,1.9947026729081858,1.6217925671791842,-0.8806616693232622,0.07546921688967133,0.01999376874839333,4.07875743244084,0.014013085475695112,0.0,-0.14706548754434204,-0.0665266762844998,-0.18143068175879856,-0.42188121835143705,1.0081334648753806,0.035226978927135846,-10.19,-0.23317488503312522,0.4550174100688985,-0.020900128212539074,0.0,255.5762993369921,0.0,263.20549533533494
0.08400000000000318,0.008581519534301103,4.074730768388154,1.9937413139481344,1.508810952586976,-0.5977866356946305,0.09184708848523858,0.019980277675392923,4.078704289770053,0.01535315771414427,0.0,-0.14692672746997845,-0.06729446903661025,-0.21284095978973294,-0.46361590216145043,1.1399366628505523,0.03676783583839477,-10.19,-0.21865079875704146,0.41337237039213787,-0.02223505405608602,0.0,251.16867428890131,0.0,239.07668685990546
0.08800000000000807,0.008006706451018274,4.074483723385242,1.9926520983984761,1.3889134084913037,-0.2875749538091866,0.10849528892924261,0.019966229205272207,4.078648951456884,0.016748596372054485,0.0,-0.14635481427442337,-0.06789538640962242,-0.24510742362460775,-0.49890917893798614,1.264643347274634,0.03781881692305654,-10.19,-0.20529476779697564,0.3716159758344822,-0.02322978114562286,51.83666044363138,244.96906205518567,0.0,214.10775972432558
0.09199999999999875,0.007431703662685301,4.074236094295596,1.991432403315634,1.26367003480115,0.04801536000422584,0.1250837621484736,0.019951630532541603,4.078591445841221,0.018198686816595193,0.0,-0.14530023565906097,-0.06831965653171816,-0.27813934290217573,-0.5276606105830507,1.3815176271446976,0.03834636233053325,-10.19,-0.19321496199639893,0.33011940118489863,-0.023851213386075456,94.29850992066841,236.80474368184503,0.0,188.3444815826325
0.09600000000000364,0.0068566640561838355,4.073987998572419,1.9900798812857465,1.1345021098810304,0.40695645789657026,0.14121055060867962,0.01993648878518454,4.078531801000895,0.019702721023081255,0.0,-0.14371777837187322,-0.06856114840173361,-0.3118694659839833,-0.549953752407065,1.489892667198714,0.03812306251677575,-10.19,-0.1824310752863823,0.2891295922117119,-0.024001801166759373,119.88627863924033,226.15589857367192,0.0,162.10013430057367
0.10000000000000853,0.006281727467918873,4.073739541033688,1.9885923535526036,1.0026700206273111,0.7870491559734984,0.15651013524314933,0.019920811025199495,4.078470044753817,0.021259997521132806,0.0,-0.14156708977016108,-0.0686171327485369,-0.34623666005871967,-0.5662092552350713,1.5891265108969124,0.037032812985105176,-10.19,-0.17283157029345145,0.24896862701294548,-0.023707572478453343,138.20790507890834,212.9369674394036,0.0,135.05283231582183
0.1039999999999992,0.005707018003235578,4.073490815478259,1.9869677007961022,0.869277733148871,1.1858878922964229,0.1707186764658038,0.019904604249137422,4.078406204660093,0.022869821341291223,0.0,-0.1388134826544524,-0.06848758441841094,-0.38118870877648875,-0.577116493515189,1.6785074891789349,0.0352007362900195,-10.19,-0.1643081210015284,0.210053087981255,-0.023072237894259485,152.2413892788816,197.3410698264424,0.0,105.95109723803563
0.10800000000000409,0.005132641204237804,4.0732419022434,1.985203942817094,0.7352059154212451,1.601040560658348,0.18364975416511853,0.019887875388635068,4.078340308024125,0.024531503962045256,0.0,-0.13542892234954051,-0.06817447283995005,-0.4166837902999026,-0.5834408811213968,1.7574721060790703,0.032902821426893415,-10.19,-0.15671050757458452,0.17260958641652896,-0.022175325330986803,163.34379966983278,179.33441751976952,0.0,71.43775072533207
0.11200000000000898,0.004558683360034201,4.072992868267868,1.9832992486407708,0.6011035981017062,2.0301112220810413,0.19512699668531105,0.01987063131094475,4.078272381896701,0.026244363257207755,0.0,-0.13139207631629937,-0.06768107688807455,-0.4526732829798378,-0.5861026926660282,1.8258985554147824,0.03029944305552628,-10.19,-0.14983715959053287,0.1367726948869309,-0.021020828780622926,171.9362335047135,158.30156381574236,0.0,0.0
0.11599999999999966,0.003985206918711993,4.07274377026319,1.9812517293430703,0.4674601606976912,2.4705261922060076,0.20496864790293154,0.01985287881945958,4.078202453077058,0.028007723443744748,0.0,-0.12668805910594852,-0.0670113222745258,-0.4891234067134457,-0.5859660354460465,1.8835592721019547,0.02736707078009191,-10.19,-0.1435191237625486,0.10297228658998597,-0.019595114448883292,178.0223046660142,133.10681929625068,0.0,0.0
0.12000000000000455,0.00341224556161594,4.072494655163451,1.9790594048043415,0.3347098634490411,2.9195565218187003,0.2130542490910832,0.019834624654234672,4.078130548114939,0.02982091503000566,0.0,-0.12130896507855851,-0.06616955078816525,-0.5260276825596557,-0.5835769085975197,1.9298603431572512,0.02410794527211024,-10.19,-0.1377281850493096,0.07163406379265813,-0.017962209710644623,181.96051159025728,101.63764235758856,0.0,0.0
0.12400000000000944,0.0028398163914623094,4.072245554775471,1.9767205623700068,0.20287107006211333,3.3747253000713546,0.21944786112167847,0.01981587549250491,4.078056693312633,0.03168327476429051,0.0,-0.11525441063878236,-0.06515998187736448,-0.5633555211729667,-0.579880078811805,1.9648214592975968,0.020848654915599108,-10.19,-0.13207873841167253,0.042525764190114945,-0.01633259361711221,184.86058458376178,57.5230105848418,0.0,0.0
0.1280000000000001,0.0022679265863404965,4.071996486975393,1.9742338025410582,0.07147608172748532,3.833892871256085,0.22426223033841752,0.01979663794919824,4.0779809147269965,0.03359414558386561,0.0,-0.10853008678628769,-0.06398468569551127,-0.6010375049475031,-0.5765199830842208,1.9893595851168926,0.01803176746872149,-10.19,-0.12600321505322526,0.015354771231409325,-0.014765650920359516,186.93456631570996,0.0,0.0,0.0
0.132000000000005,0.0016965701174878095,4.071747459089847,1.971597870632589,-0.060302688516552704,4.295108828980558,0.2276549806881243,0.019776918577445013,4.077903238171457,0.03555287656437164,0.0,-0.10114587978285532,-0.06264120457519326,-0.6389956277325011,-0.5754531417391918,2.0047140277588915,0.01587143964591509,-10.19,-0.11902160232356804,-0.009909832601013524,-0.013318325233004514,188.28067529909094,0.0,0.0,0.0
0.1360000000000099,0.0011257273836436138,4.0714984702771,1.9688116031512177,-0.19351518666973638,4.756572196081221,0.2297404964886713,0.019756723869084034,4.077823689218009,0.03755882286955542,0.0,-0.09311517836521833,-0.06112156930452746,-0.6771810578180656,-0.5780968868265651,2.011729776353582,0.014374700011795642,-10.19,-0.11079832374236098,-0.0332950891334341,-0.01194647912977867,188.55988689380018,0.0,0.0,0.0
0.14000000000000057,0.0005553846691782477,4.07124951778524,1.965874160018123,-0.32906551956311264,5.216884739529702,0.2305157605243482,0.019736060255164174,4.077742293199192,0.03961134570144638,0.0,-0.08445437877954523,-0.05941315461824135,-0.7155360734902472,-0.5848683478237274,2.0115062842093563,0.013278132590208899,-10.19,-0.10136480606978901,-0.05536327733484847,-0.010517574780743156,187.40393129425053,0.0,0.0,0.0
0.14400000000000546,-1.4457935597979082e-05,4.071000600319553,1.9627850329517178,-0.4676234708392953,5.675050465054278,0.22997180230876624,0.01971493410644209,4.077659075210045,0.041709812250916745,0.0,-0.07518107009460358,-0.05750118616274756,-0.7539800269156619,-0.5952304160769666,2.005598944221636,0.012273193218254598,-10.19,-0.09089367529673065,-0.07658442581249303,-0.009024442454930824,185.04988687226907,0.0,0.0,0.0
0.14800000000001035,-0.0005837905585873756,4.070751718557702,1.9595439166397493,-0.6096820451413023,6.130362626791524,0.2280965787943328,0.01969335173387684,4.07757406011006,0.043853595648552575,0.0,-0.06531221090531503,-0.05537119215821652,-0.7924316897465007,-0.6082541875541612,1.9956207903419951,0.01127470544796454,-10.19,-0.0795363384243529,-0.09719103972121496,-0.007463032458876096,181.61296197564315,0.0,0.0,0.0
0.15200000000000102,-0.0011525965683877606,4.070502875157703,1.9561506296065105,-0.7556029303246337,6.582320706682245,0.22488042235618608,0.01967131938912003,4.0774872725251115,0.04604207491596563,0.0,-0.05486356396639145,-0.05300983546333149,-0.8308358157702014,-0.6232144591048296,1.9827558779832064,0.010280391210053164,-10.19,-0.06740830947233659,-0.11734646741381055,-0.005835532195798772,177.17705520518507,0.0,0.0,0.0
0.1560000000000059,-0.0017208577335361204,4.070254074437065,1.9526050421231957,-0.9056280082437187,7.030594320174852,0.22031280181251553,0.019648843265002217,4.0773987368493705,0.04827463491748058,0.0,-0.0438497439871399,-0.05040484128516578,-0.8691588533182879,-0.6395289473164046,1.9678941111379988,0.009290217506574567,-10.19,-0.05462417991292157,-0.13715837297815608,-0.004140442296102085,171.76828309294098,0.0,0.0,0.0
0.1600000000000108,-0.0022885548872258565,4.070005322021113,1.9489070572152023,-1.0599169874762921,7.474969005143745,0.21438195680449518,0.019625929496016277,4.077308477247212,0.05055066631212046,0.0,-0.032284226484768565,-0.04754496764879297,-0.9073803875077223,-0.6567371785005917,1.9517022691879984,0.008309778171016963,-10.19,-0.04126321676282904,-0.15673064765965744,-0.0023758000924163575,165.3757716166383,0.0,66.65091586563908,0.0
0.16400000000000148,-0.0028556703077795734,4.06975662442108,1.9450565856787148,-1.218553753853008,7.915323395876451,0.20711826584082083,0.019602584158796392,4.077216517655099,0.05286956550602918,0.0,-0.020179389551745135,-0.04441997318316449,-0.9454881216128864,-0.6744727161851742,1.9346846302214378,0.007404773830239843,-10.19,-0.027403866230470447,-0.1761277796801308,-0.0005902523562040726,158.23927830633215,0.0,115.91835845151049,0.0
0.16800000000000637,-0.003422192322200522,4.069507988881968,1.9410535177846573,-1.3815078637158846,8.351627899605793,0.19868233199404553,0.019578813272593348,4.077122881783455,0.055230734605261046,0.0,-0.007546664089877031,-0.041020624136050836,-0.9834759648949298,-0.6923816393017962,1.917249906625314,0.006878716500746562,-10.19,-0.013171856781326485,-0.19539109330685595,0.0010629236403494283,151.2774736602274,0.0,149.1005865884738,0.0
0.17200000000001125,-0.003988109384677537,4.0692594245301805,1.9368977686784496,-1.5486332600865607,8.783872198165904,0.18916069926965176,0.019554622799746926,4.077027593118527,0.057633581368856476,0.0,0.005603337168128888,-0.03733918871781135,-1.0213375617305391,-0.7100248937478031,1.8996639907796253,0.00689836998713385,-10.19,0.0013127777231181914,-0.21460224147395343,0.0026637275576367574,144.12940668440726,0.0,175.96510487094577,0.0
0.17600000000000193,-0.0045533995702277804,4.069010943850762,1.932589337153028,-1.719652170721151,9.21198960137515,0.17860014158267393,0.019530018646153956,4.076930674924226,0.06007751916235079,0.0,0.01926025923380289,-0.03337027449820738,-1.0590575635847148,-0.7268581020214703,1.8819396434615396,0.007327469123645935,-10.19,0.015908017819180414,-0.23381418807938859,0.004255139170872656,136.6014025759244,0.0,199.24477670907407,0.0
0.18000000000000682,-0.0051180244213940105,4.068762564352786,1.928128330120559,-1.8941052727363954,9.635823245566094,0.16708360557080695,0.019505006661732754,4.076832150243959,0.06256196691164204,0.0,0.033412944076383344,-0.02911172772614848,-1.096608766774044,-0.742228174433466,1.8638144662154505,0.008054604138333329,-10.19,0.03040792368762396,-0.25299468439248873,0.0057930548630527314,129.05577784396843,0.0,219.80357432065543,0.0
0.1840000000000117,-0.005681922563342853,4.068514310737517,1.923514985097274,-2.071304801079555,10.055094426528509,0.1546844890988118,0.01947959264088478,4.076732041902447,0.0650863490571331,0.0,0.04804823664080492,-0.024565755418469653,-1.133956996165651,-0.7553127128975234,1.8448556376965688,0.009092348418175546,-10.19,0.04454638894543678,-0.27207630920321435,0.0072852897950511615,121.57134125412125,0.0,238.25599411436258,0.0
0.1880000000000024,-0.006245007117284296,4.0682662152481806,1.9187496660595311,-2.250396071946112,10.469401791163317,0.1414736079080994,0.019453782322952,4.076630372507524,0.06765009550830312,0.0,0.06315013471374499,-0.01973998180754429,-1.1710655876890497,-0.765258535372267,1.8245491499913276,0.010404094219477546,-10.19,0.0580937803344341,-0.2909435953629074,0.008731907958483328,114.24575098102686,0.0,254.9432303954036,0.0
0.19200000000000728,-0.006807166522000903,4.0680183176100355,1.913832843842344,-2.430400804646586,10.878238229047547,0.1275282270508696,0.0194275813926707,4.07652716445193,0.07025264159862991,0.0,0.07869930322828586,-0.014647750697325166,-1.207899893055694,-0.7713688701438223,1.8023838712684586,0.01189921387368768,-10.19,0.07085468867534858,-0.30945500339672055,0.010122524288004111,107.24346810122687,0.0,270.0499206965339,0.0
0.19600000000001216,-0.007368267066962128,4.067770664540836,1.9087650712867559,-2.6102536005094836,11.28101568749213,0.11296852868736332,0.019400995480622636,4.076422439915083,0.07289342804077538,0.0,0.0946729926952957,-0.009307544901320484,-1.244431322796939,-0.7731682163132667,1.7779245364686038,0.013610118018171519,-10.19,0.0826622428186863,-0.32747018955424007,0.011403883341175418,101.13711857496013,0.0,283.56367835551015,0.0
0.20000000000000284,-0.00792814901284536,4.067523311453532,1.9035469945201524,-2.7887587199940187,11.67705142900519,0.09794538605683158,0.019374030163681943,4.076316220864841,0.0755719008821961,0.0,0.11104499299982998,-0.003742790220556908,-1.280635069504505,-0.770219071084125,1.7507709406874672,0.015590412519826024,-10.19,0.09331766208538048,-0.34489983428768334,0.012535240905756452,96.58207010677442,0.0,295.49302519683175,0.0
0.20400000000000773,-0.008486630881993945,4.067276321097501,1.8981793240689244,-2.9646691229649713,12.0655946862311,0.08259358877754701,0.01934669096545855,4.076208529059251,0.07828751146109755,0.0,0.12778555539766423,0.002018069297671853,-1.3164904551998389,-0.7621460464987913,1.7205625333631134,0.01783420129299522,-10.19,0.10267060581355106,-0.3615872642235948,0.013529222207975299,93.67567038609397,0.0,305.97456682174095,0.0
0.2079999999999984,-0.009043515664684306,4.0670297615663955,1.8926628011528417,-3.136747986662883,12.44586292304527,0.067076583366861,0.019318983356739178,4.076099386048282,0.08103971636262981,0.0,0.14486161726041807,0.007942152312895913,-1.3519843250803618,-0.7487883631077303,1.6870371769274584,0.020299055073085708,-10.19,0.11062981620621168,-0.37738748313274734,0.014346839507388291,92.90762223246354,0.0,314.97508586935174,0.0
0.2120000000000033,-0.009598590908923215,4.066783706271224,1.8869981965985025,-3.303771381256437,12.817041708087466,0.05156955516895804,0.019290912755923498,4.075988813175547,0.08382797737556441,0.0,0.16223723353710606,0.013993294006146661,-1.3871111822227866,-0.7301971428197772,1.6500326115577515,0.022969167445148733,-10.19,0.11712834424541627,-0.3922190488984645,0.014967679891484991,94.51452986614278,0.0,322.5210867489928,0.0
0.21600000000000819,-0.010151629499004817,4.066538233499406,1.881186307309342,-3.4645457939990068,13.178288120115424,0.03626094599624425,0.01926248452945839,4.07587683158001,0.0866517614491584,0.0,0.17987381334189845,0.020132839184726626,-1.4218688159291069,-0.7064831892732961,1.6094081547972539,0.025841218365357688,-10.19,0.12211498424544961,-0.40599393565624153,0.015369063338812754,98.55837317469806,0.0,328.6131858602252,0.0
0.21999999999999886,-0.010702394082752755,4.066293424837241,1.8752279385572839,-3.6179403542410635,13.528748144411413,0.021335188641664327,0.019233703992267908,4.075763462197683,0.08951054065044695,0.0,0.1977301698968004,0.02632012373440632,-1.4562595379449568,-0.6778474476424255,1.565066210027392,0.028876480838665182,-10.19,0.12556389068548796,-0.41859901153259305,0.015547921138568501,104.71228940104146,0.0,333.28676792289974,0.0
0.22400000000000375,-0.011250645649719754,4.066049362293657,1.8691238706450428,-3.762924767545239,13.867592143020508,0.006980944629171006,0.019204576408179887,4.075648725763305,0.09240379212186677,0.0,0.2157630134137515,0.03251341980540266,-1.4902927678753473,-0.6446201328909248,1.5169995224411978,0.032034532856500104,-10.19,0.12748063478900057,-0.42990937581930644,0.015491713331991692,112.63288244084697,0.0,336.53632420479545,0.0
0.22800000000000864,-0.01179614449452411,4.06580612762861,1.8628748603888858,-3.898572768407711,14.194013278838503,-0.006612610973799532,0.019175106990350226,4.0755326428120116,0.0953309980391133,0.0,0.23392751838458126,0.038670923866847534,-1.5239850522887814,-0.6072436469988631,1.4652938742147321,0.03528085603550846,-10.19,0.12790430359273555,-0.4398810636645911,0.015192053070829015,121.98065062638781,0.0,338.3789867215804,0.0
0.23199999999999932,-0.0123386559502744,4.065563800281215,1.8564816230126902,-4.024079772826184,14.50724616025765,-0.01926684510077031,0.019145300901682975,4.075415233680993,0.09829164556941294,0.0,0.2521778700385262,0.044751591026267336,-1.55735708964846,-0.5662084298771022,1.4100783674314847,0.038577739397499825,-10.19,0.12688419858359043,-0.44843654132038124,0.01465343383610015,132.34021226822327,0.0,338.8426501191196,0.0
0.2360000000000042,-0.012877947569793704,4.065322457607116,1.849944849988271,-4.138772779990656,14.806548619149861,-0.03080886555761814,0.019115163255247165,4.075296518511134,0.10128522683011901,0.0,0.27046743397260953,0.05071578695817626,-1.5904317699854418,-0.522055802466652,1.351493377859862,0.04188529563398519,-10.19,0.12451410785499928,-0.45557415281636554,0.01387516104881152,143.4396958000203,0.0,337.95460238888484,0.0
0.2400000000000091,-0.013413796560393666,4.06508217236826,1.8432651846359576,-4.242122484086323,15.091227575398273,-0.041076352606006,0.019084699114691392,4.0751765172486465,0.10431123884753084,0.0,0.288749028855016,0.05652601904088441,-1.6232344287556042,-0.4753756081485321,1.2896987808248934,0.04516497694469973,-10.19,0.12087864637345133,-0.46120636448604,0.012862407852280714,154.99419743439879,0.0,335.71745086262786,0.0
0.24399999999999977,-0.01394599327322353,4.064843011321378,1.8364432144017748,-4.333752987510585,15.360647372969007,-0.04992199501540523,0.01905391349465427,4.075055249646688,0.10736918351612436,0.0,0.3069753048948642,0.06214764696123102,-1.6557945260355627,-0.42679901712749047,1.2249083717176912,0.04838565508052413,-10.19,0.11609388456928998,-0.46529793490869237,0.011625952206893053,166.77206215236163,0.0,332.1545603267788,0.0
0.24800000000000466,-0.014474343921036378,4.06460503408235,1.8294794661311413,-4.413449387179903,15.614235056023345,-0.05721664189627343,0.019022811361171676,4.074932735266966,0.11045856755809903,0.0,0.3250992979083137,0.06754957373631967,-1.6881449344959951,-0.3769906619708829,1.1573825953017414,0.05151094331772248,-10.19,0.11029693378969425,-0.46782917688436987,0.010180859925856994,178.57644235596214,0.0,327.29561935784915,0.0
0.25200000000000955,-0.01499867288398961,4.064368292191973,1.8223744026357196,-4.481163153195431,15.851484303155454,-0.06285210326690993,0.01899139763208187,4.074808993481331,0.11357890248313804,0.0,0.34307478663224666,0.07270488192380434,-1.720320313495618,-0.3266395285521257,1.0874047465935708,0.054504022961875766,-10.19,0.10364334004569119,-0.4687911960342602,0.008546205033141048,190.2363633865074,0.0,321.17542761558525,0.0
0.2560000000000002,-0.015518824596972548,4.064132828401758,1.8151284204244817,-4.537014895118439,16.071958165176635,-0.06674346165691185,0.0189596771774265,4.074684043473359,0.11672970454857601,0.0,0.3608566030131115,0.07759141729996344,-1.7523564901273108,-0.2764492676499394,1.0152751250626753,0.057327806336567325,-10.19,0.09630488472558202,-0.4681851856856176,0.00674461504019962,201.60145852385332,0.0,313.8335848707388,0.0
0.2600000000000051,-0.01603466458405976,4.063898676408784,1.8077418497480926,-4.581281009238867,16.275290134465504,-0.06881966530094714,0.018927654819848493,4.074557904239916,0.11991049471987615,0.0,0.3784009089681451,0.08219225597068203,-1.7842897395921078,-0.22710950379684966,0.9413031157639468,0.059963789577665114,-10.19,0.08845390724952079,-0.46602608851405813,0.0047886785371364805,212.60111509518904,0.0,305.2724971662222,0.0
0.26400000000001,-0.01654608004038178,4.063665860892585,1.800214955567719,-4.614382061079299,16.461181272483906,-0.0690527264595134,0.018895335334987908,4.074430594592722,0.1231207986313109,0.0,0.39566539401017187,0.08649578253111902,-1.8161561357526268,-0.17925560951862818,0.8657998841625716,0.06236489511110075,-10.19,0.08026317995429083,-0.4623341376975289,0.0027256567800416328,223.03689725318847,0.0,295.58863119754125,0.0
0.2680000000000007,-0.01705298382657488,4.063434395896399,1.792547928134766,-4.636939268947814,16.629412182937322,-0.06743921657802394,0.018862723451873706,4.07430213315989,0.1263601465470462,0.0,0.41260949005041897,0.09049624674266613,-1.8479920851366523,-0.1335750156053213,0.789092461946524,0.06448346961504527,-10.19,0.07196217551786896,-0.4571073656001581,0.0005829608381474791,232.7913891515645,0.0,284.82424818095615,0.0
0.27200000000000557,-0.01755531298338197,4.063204285883125,1.7847408894984347,-4.649725763452684,16.779836463151035,-0.0639983432564936,0.018829823853312493,4.074172538387457,0.12962807332252846,0.0,0.4291946304679903,0.09419443188093171,-1.8798337254017305,-0.09078413522065729,0.7115177530914996,0.06627263224890202,-10.19,0.06376725612344775,-0.4504015731885601,-0.0016132363829628664,241.79091012536108,0.0,273.02505319514773,0.0
0.27600000000001046,-0.018053028912638835,4.062975526092598,1.7767938944221107,-4.65365124293041,16.912379783230925,-0.05877443493422603,0.018796641176275292,4.074041828540912,0.13292411836606546,0.0,0.44538447899661093,0.09759794204336304,-1.911715712829404,-0.051517752953384045,0.6334045570518588,0.06771963001922358,-10.19,0.05588036739451299,-0.4422577935840495,-0.0038329286188336763,249.95183580943169,0.0,260.2361242191178,0.0
0.28000000000000114,-0.018546117503639478,4.062748102961801,1.7687069309978358,-4.649746705116336,17.027039536420368,-0.05183539169427943,0.01876318001228031,4.073910021706698,0.13624782560080706,0.0,0.46114501188453855,0.10072076339557816,-1.9436711019550341,-0.016314594725945014,0.5550737876239095,0.06879798440769865,-10.19,0.04849647421728061,-0.4327216138988167,-0.006046884673161266,257.200089354445,0.0,246.49588018525995,0.0
0.284000000000006,-0.019034592493400997,4.062521993477578,1.760479910140952,-4.639179011171129,17.123895037291362,-0.043288585337373134,0.018729444907772706,4.073777135793713,0.1395987434270219,0.0,0.4764447109132708,0.10358321718553423,-1.9757326676741798,0.014307291133053745,0.4768647569694284,0.06945672205883349,-10.19,0.04182432263553273,-0.421817237011516,-0.008206326881072914,263.38143424487873,0.0,231.91403268216882,0.0
0.2880000000000109,-0.019518492697835666,4.0622971666672205,1.7521126746632485,-4.623199751709842,17.20310189803798,-0.03322839666869095,0.018695440364502512,4.0736431885347955,0.1429764246845589,0.0,0.49125492620332467,0.10621215004651721,-2.0079317999271193,0.03988862650430277,0.39911879139822165,0.06970324751221893,-10.19,0.03604726775103621,-0.40963612585911036,-0.01032213399108551,268.5770872396025,0.0,216.38394634437017,0.0
0.2920000000000016,-0.019997872078218938,4.062073587575405,1.7436050313026186,-4.6030606257582605,17.264855297547133,-0.021764599635061145,0.01866117083989856,4.073508197488198,0.14638042661570475,0.0,0.5055496678535042,0.1086398673216638,-2.040295029425431,0.06017091853829396,0.3221166740315464,0.06956013835329466,-10.19,0.03128658919103418,-0.396317538459079,-0.012372554454103343,272.7761727117102,0.0,199.89636477893788,0.0
0.2960000000000065,-0.02047280062428034,4.061851217402627,1.734956747063262,-4.580011651888409,17.309393651775093,-0.00902464901525089,0.018626640747439503,4.073372180039049,0.14981031082833074,0.0,0.5193051045993815,0.11090240374587523,-2.072842844810807,0.07514209773793816,0.24605468175766262,0.0690320658759199,-10.19,0.027620853994538758,-0.38188978913977395,-0.014332524581261087,275.9254832962623,0.0,182.36771581249053,0.0
0.30000000000001137,-0.02094337093965502,4.061630011775514,1.7261675263099747,-4.555330510854752,17.337023985847555,0.004857395393114462,0.018591854457023042,4.07323515340081,0.15326564325921552,0.0,0.5324996118855786,0.11303882294481953,-2.1055964964855214,0.0847774777311673,0.17116607005112067,0.06811055504024963,-10.19,0.025141927377856782,-0.3663464850750338,-0.01618918405518596,277.9879637980216,0.0,163.5803468315909,0.0
0.30400000000000205,-0.021409693070842707,4.061409922836932,1.7172370262634262,-4.530286634992386,17.348103614281072,0.019721595594852367,0.01855681629533125,4.073097134616707,0.15674599413776,0.0,0.5451140866180498,0.11509123889302515,-2.138576927384585,0.08906528125963295,0.09770388311257741,0.06675528330290804,-10.19,0.023945503083643474,-0.34979589594110777,-0.017906877855527387,278.87477707126374,0.0,143.38938728732748,0.0
0.30800000000000693,-0.021871917703679442,4.061190892496503,1.7081647770263797,-4.506236491353593,17.343126833213518,0.03539415110407909,0.018521530546193002,4.072958140561166,0.1602509379499853,0.0,0.5571330703978556,0.1171056060670062,-2.171810875145431,0.08787504181446595,0.026055899991352632,0.06494366877792743,-10.19,0.024137522555810982,-0.33212462793997477,-0.01946291339954706,278.4548358473103,0.0,121.2606224219322,0.0
0.3120000000000118,-0.0223302171372459,4.06097285870078,1.6989502418413687,-4.484509263695502,17.322661474704766,0.05170980950609322,0.01848600145094475,4.072818187941232,0.1637800534026978,0.0,0.5685455076008878,0.11913192562233321,-2.205324750853254,0.08111758255991247,-0.0433603352038158,0.06265493614175388,-10.19,0.025843276364527882,-0.31362700111480607,-0.020860195812882364,276.78440946106593,0.0,96.21016458364312,0.0
0.3160000000000025,-0.02278477813880234,4.060755757855262,1.6895928377715066,-4.466362171760326,17.28732665598931,0.0685167438852191,0.01845023320878737,4.072677293297971,0.16733292338804268,0.0,0.5793448089230875,0.12122338492634636,-2.239138406057985,0.06888257590420734,-0.1102087013136636,0.059960627464959504,-10.19,0.029095222123213294,-0.2944537133788552,-0.022107667302503117,273.90765523320806,0.0,65.05770585995529,0.0
0.3200000000000074,-0.023235797691568222,4.060539526203036,1.6800919463233313,-4.452968550951069,17.237778123816728,0.08563835063676391,0.018414229977140234,4.07253547300787,0.170909134948334,0.0,0.5895275480187423,0.12343394027471206,-2.273262814336049,0.051489691083007126,-0.17428384681430498,0.056843360809123486,-10.19,0.03389766872568778,-0.2747142325594043,-0.023170184573303765,269.70050437678066,0.0,0.0,0.0
0.32399999999999807,-0.02368351163535491,4.06032409154016,1.6704468079724317,-4.445509267392754,17.174819579314697,0.1028542411298476,0.018377995871993815,4.072392743284223,0.17450827924103096,0.0,0.599094605589029,0.12581823640326223,-2.3077159581747795,0.02917845003999515,-0.23522318966039837,0.05321394850569379,-10.19,0.040245282201740715,-0.254271014872349,-0.023989369847212345,263.85411432526513,0.0,0.0,0.0
0.32800000000000296,-0.024128197466842916,4.06010937208928,1.6606564978975427,-4.44517552888993,17.099432629057315,0.11996416080675801,0.018341534968257633,4.072249120178501,0.1781299515041756,0.0,0.608053870421674,0.1284331560838647,-2.3425281078975226,0.0019896716306980707,-0.29239934450385724,0.04902269897091533,-10.19,0.04821374652754522,-0.2333088637214161,-0.02457969962107332,256.34461923484696,43.80994991617884,0.0,0.0
0.33200000000000784,-0.024570095215791163,4.059895299900927,1.6507202073716052,-4.452830156255692,17.01248208642347,0.13687982799928475,0.01830485130010743,4.072104619581721,0.18177375102190846,0.0,0.6164188620320492,0.13133587948130748,-2.3777048962306315,-0.02959343039045772,-0.3455846243676509,0.044439049848175594,-10.19,0.05776945390125742,-0.21263290239375898,-0.02506374544157726,247.76532087823713,89.51973343728697,0.0,0.0
0.3359999999999985,-0.02500940266795125,4.0596818233518395,1.640637307554568,-4.468959540154148,16.914656467107054,0.15345957868778703,0.018267948861328355,4.0719592572257985,0.18543928109037874,0.0,0.6242014125096498,0.13457693066368806,-2.413216161635808,-0.06437439034403328,-0.3951545315524645,0.03958417056055079,-10.19,0.0685768791303594,-0.192171206000391,-0.02537550959014233,237.8424975942053,118.2037310432323,0.0,0.0
0.3400000000000034,-0.02544629441466787,4.059468901784954,1.6304072977476365,-4.493674049467947,16.80661683971328,0.16966976106223253,0.01823083160565549,4.071813048684886,0.1891261489839211,0.0,0.6314076994611882,0.13819360801892425,-2.4490137855851435,-0.10073425240530354,-0.44165427115559786,0.034513938740053866,-10.19,0.08018633711575723,-0.1717410828885722,-0.025635326775434064,226.9861891570692,141.3091580124679,0.0,0.0
0.3440000000000083,-0.025880913476739455,4.059256506725672,1.6200298060389227,-4.526790612597265,16.68905215922575,0.1855315801661139,0.018193503447112895,4.071666009376711,0.19283396592137764,0.0,0.638042716877789,0.14220911266062547,-2.4850579656702716,-0.13726001799343718,-0.48521589833672457,0.029454969540119013,-10.19,0.09229130800469998,-0.15152720744406178,-0.02590587082472872,215.51772412845358,161.3448675311332,0.0,0.0
0.347999999999999,-0.02631337449833203,4.0590446205058095,1.6095045687432727,-4.5678962267915555,16.562711879109877,0.20106563197867544,0.018155968260348848,4.071518154563898,0.19656234703279832,0.0,0.6441149287237585,0.14663401442334217,-2.521311555904886,-0.17278042131358973,-0.5257019361738468,0.02458826218111927,-10.19,0.10461024052533303,-0.13162735229410416,-0.026187276681647418,203.49482935964843,179.16100552064762,0.0,0.0
0.35200000000000387,-0.02674377269136746,4.058833233893848,1.5988313998746218,-4.616355244104791,16.42845444136829,0.21629350912878312,0.018118229880968464,4.071369499355273,0.20031091132640197,0.0,0.6496379870233463,0.15146749336697066,-2.5577417464379586,-0.20628264576928226,-0.5627907516227877,0.01996380767471974,-10.19,0.1168415387040739,-0.11213137745499502,-0.02648153144507297,190.9989231189567,195.202334269919,0.0,0.0
0.35600000000000875,-0.027172184928957257,4.058622345330573,1.5880101833173543,-4.671358299894425,16.28723707561113,0.23123287742830181,0.01808029210586493,4.071220058707175,0.2040792816556747,0.0,0.654631905416964,0.1566979325595558,-2.5943201566899097,-0.23687113914902008,-0.5960491385767412,0.01560465402252382,-10.19,0.12874195689905293,-0.09320966975950987,-0.026784913259789427,178.11146767412234,209.69010445067298,0.0,0.0
0.35999999999999943,-0.027598669805975834,4.058411960253908,1.5770408685998936,-4.731989028315289,16.14007575860681,0.24589013911910085,0.018042158693546962,4.071069847424742,0.20786708468684317,0.0,0.6591233935115273,0.16230407941599803,-2.631019597138407,-0.263863526709662,-0.6251033741711334,0.01151872057310315,-10.19,0.14013424564003096,-0.07500471062204597,-0.02708496976829744,164.83871132484848,222.7527157903838,0.0,0.0
0.3640000000000043,-0.028023275376366025,4.0582020893317425,1.5659234456616486,-4.79720069557089,15.988085837554884,0.2602588910369845,0.018003833364463706,4.07091888016319,0.2116739508666023,0.0,0.6631455734053102,0.16825630129948732,-2.66781519179271,-0.28669996597855374,-0.6495992417905692,0.007702389767211609,-10.19,0.1507927462277499,-0.05762193774356217,-0.02736698543311701,151.1789145044934,234.44934219259156,0.0,0.0
0.3680000000000092,-0.02844604396673464,4.0579927474476625,1.5546579278649164,-4.865791034915687,15.832518729393039,0.27431953647171264,0.017965319801328327,4.070767171429091,0.2154995143899732,0.0,0.6667387906565913,0.17451641911131208,-2.7046860373897204,-0.3047734874629082,-0.6690663294655604,0.004157816900738244,-10.19,0.16046016646658673,-0.04124504522058453,-0.027615265030041743,137.18888211574543,244.76197127641703,0.0,0.0
0.3719999999999999,-0.028867007982413578,4.0577839538818115,1.5432443622242331,-4.936492797859849,15.674679231103516,0.28803628056698716,0.01792662164943786,4.07061473558163,0.21934341316853198,0.0,0.6699516347092369,0.18103716049203217,-2.7416122188137066,-0.3175638162695472,-0.683074461511876,0.0008862327240853924,-10.19,0.16898663795242874,-0.026072411813474278,-0.027810060349187846,122.8531266433513,253.6699599819206,0.0,0.0
0.3760000000000048,-0.02928618870275364,4.057575731719692,1.5316828305510741,-5.008051400443667,15.515851009971133,0.30136541072773415,0.017887742516990567,4.070461586833857,0.2232052887988876,0.0,0.6728391430318265,0.18776428486390231,-2.7785728485239547,-0.3248342481038324,-0.6914458686461007,-0.002118625803229431,-10.19,0.17629886371980769,-0.012188775563551607,-0.0279406283586408,108.06925870343636,261.2272986888964,0.0,0.0
0.38000000000000966,-0.029703601829606067,4.057368106364627,1.5199734293662386,-5.079208727041099,15.357316557698978,0.3142538845949316,0.017848685975402026,4.0703077392539315,0.22708478653128228,0.0,0.675460364213217,0.1946392421208249,-2.8155481810983325,-0.32657207586801296,-0.6942059394371316,-0.004866481192597067,-10.07432111532535,0.18229375643861417,0.0003758847430310186,-0.02799424837858287,109.3694443217229,273.713324959364,0.0,0.0
0.38400000000000034,-0.03011925804109754,4.0571611048989755,1.5081162667595331,-5.148740265771729,15.200324769193472,0.32662421535976643,0.017809455559617573,4.070153206766353,0.2309815552385593,0.0,0.677877204391151,0.20160047423472144,-2.8525219591595325,-0.32281674458933995,-0.6914183124883078,-0.00739211117471753,-9.247606648603071,0.18691917344958187,0.011574938120546802,-0.027940156572693272,182.51792623961768,318.9420399262359,0.0,0.0
0.38800000000000523,-0.030533127543239565,4.056954767490325,1.4961116149999807,-5.215571478391613,15.046000243587999,0.33822091592084613,0.017770054768422246,4.069998003153181,0.23489524738537415,0.0,0.6801523079005131,0.20858505213456127,-2.889464057735932,-0.3137998204015508,-0.6833326576599171,-0.010033853386251793,-8.41682609109419,0.19040016612615376,0.021049935481585846,-0.02756720242099983,233.86810647839403,357.17057552943174,139.77308469609972,0.0
0.3920000000000101,-0.030945004915690123,4.056749195862936,1.4839605208046596,-5.278779728346166,14.89529505557135,0.3487784097177916,0.0177304870647496,4.069842142055253,0.23882551899752147,0.0,0.682343220656127,0.2155313598618756,-2.926267107886212,-0.30000552235593086,-0.670476852827088,-0.01316000332110252,-7.583563070853984,0.19341514135344007,0.027314528642424812,-0.026853054708002217,275.9678718176736,390.17048753611806,211.30633353760606,0.0
0.3960000000000008,-0.03135451390710117,4.056544556787557,1.4716649095670566,-5.337391062705437,14.748985842777133,0.35825717691516573,0.017690755875986838,4.069685636973388,0.24277202963162514,0.0,0.6844971864524277,0.22237825306247858,-2.9627402207646565,-0.281815071025368,-0.6535942577083522,-0.016659093238349,-6.749637391181828,0.19593199983534917,0.030412728128108912,-0.0260508054562325,313.2284627783583,419.6689759373276,265.3383673786932,115.57696792246321
0.4000000000000057,-0.031761087156394474,4.056341095574162,1.4592276592839482,-5.390176614185129,14.607545415678787,0.36669108968697306,0.01765086459427755,4.0695285012695726,0.24673444234506678,0.0,0.6866504893302648,0.22905990675596027,-2.9986445112101316,-0.2589694500971954,-0.6337290534843472,-0.01992958594823819,-5.917046859931524,0.1977972767449028,0.030258791092423326,-0.02524449001713211,347.4076936586318,446.4212141063686,310.76528217536304,197.0602000169728
0.4040000000000106,-0.03216395542557913,4.056139143669628,1.4466526542995763,-5.435628544704045,14.471059566111087,0.37408870582978015,0.01761081657682338,4.069370748168158,0.25071242366602275,0.0,0.688826859370412,0.23549790224225062,-3.033735886262204,-0.2305054691803484,-0.6122662671921489,-0.022961874087702516,-5.087928688547386,0.19875496807322696,0.026975307108351027,-0.02440585515087279,379.21922222168666,470.7498551149558,350.8362883185717,252.74896026476975
0.40800000000000125,-0.032562151732634805,4.055939118889932,1.4339446957598958,-5.472145876783362,14.33934854392946,0.3804383159545852,0.017570615146182036,4.069212390757026,0.25470564356386116,0.0,0.6910372735403474,0.24159984189055111,-3.0677693892905125,-0.19549952546044963,-0.5906418056017901,-0.025788497613558198,-4.264270401354324,0.19866790268242362,0.020730625308983203,-0.023511504643364184,409.0857437973166,492.91693942600335,387.1299048713363,297.5622105490433
0.41200000000000614,-0.0329544289026758,4.055741559074869,1.4211098508569067,-5.498151754051857,14.212052034934,0.3856994970222849,0.017530263590562985,4.0690534419887605,0.2587137754197713,0.0,0.6932808787644392,0.24726414352516005,-3.1004831589681605,-0.15359666754186524,-0.5699437470112173,-0.02869650961495617,-3.4487975167947695,0.1979195242494928,0.010603183196991689,-0.022527342420911336,437.3495039242268,512.9738662958888,420.8716546498106,335.5207149285963
0.416000000000011,-0.03333927622906245,4.055547116395226,1.4081553643842086,-5.512206594905353,14.088690648646091,0.3897887356928429,0.017489765164122102,4.068893914681802,0.26273649599749554,0.0,0.695548076955013,0.25238715412824225,-3.1315858329876045,-0.10499009937635007,-0.5508868231954586,-0.031880824394374584,-2.6440963889521,0.19659742970254282,-0.0033060808998161273,-0.021401296311489862,464.0843010805809,531.0295016027371,452.6516392530393,368.777065493023
0.4200000000000017,-0.03371497940108583,4.055356532596892,1.3950894007076458,-5.513050172887044,13.968692693332116,0.39268375721459825,0.017449123087252744,4.0687338215216,0.26677348541441687,0.0,0.6978240328870176,0.25686945258601296,-3.160805458082718,-0.05027697627703555,-0.5339868740011642,-0.035369454995090414,-1.8522672187041138,0.19462189020489729,-0.02040566553870228,-0.02020139152645808,489.5148892567594,547.4199993290728,482.54512913402965,398.42226222381544
0.4240000000000066,-0.034079622870489,4.055170634786072,1.3819210602594303,-5.499619549776709,13.851360017911285,0.39436061826246116,0.017408340546874533,4.068573175061744,0.27082442711287447,0.0,0.7000887901416059,0.26061990052815526,-3.1879147078370274,0.00971869666620587,-0.5197146962583561,-0.03913518551310808,-1.0754729821759383,0.19216595851408586,-0.04068222140934552,-0.018924680863097763,513.7368869827209,562.2585162145893,510.85368532134225,425.1118510347728
0.4280000000000115,-0.03443119945206279,4.054990285815259,1.3686599134199855,-5.471050200479108,13.735892851494606,0.3948425611263402,0.017367420696721172,4.068411987725105,0.2748890078315746,0.0,0.7023159574699862,0.26355756835797906,-3.2127291881342948,0.0741231344970468,-0.5085830377542038,-0.04309647795146809,-0.3149604903743395,0.1888857738540972,-0.06289437063219572,-0.017625216347594633,536.8279039932315,575.8535276859187,537.4477875282834,449.52619313943717
0.43200000000000216,-0.03476760957766926,4.054816377657799,1.3553160263304598,-5.42665893728938,13.621345730652736,0.3941758381629292,0.017326366657624714,4.068250271804947,0.278966917577354,0.0,0.7044720555384688,0.26561292640513806,-3.2351291708689174,0.14206311395486132,-0.5011282293236349,-0.047183040152194974,0.4279560854276312,0.1848910462208968,-0.08693861222109547,-0.016330748358707625,558.906258297234,588.332923049362,562.4923325534379,471.9228849823724
0.43600000000000705,-0.03508672554675115,4.0546497972369195,1.341899694952255,-5.365926143375795,13.50664174993819,0.3924469874010396,0.017285181517797597,4.068088039466046,0.2830578495971656,0.0,0.7065150484003831,0.2667276594730594,-3.2550293565756028,0.21273519668744764,-0.4979553326965619,-0.05129782463056356,1.1524865058689286,0.1799568028106253,-0.11196253728996514,-0.015090156010446882,580.0514823120922,599.9116822877057,585.9316267635644,492.6515236688383
0.44000000000001194,-0.03538630820164874,4.05449145193293,1.3284218367164593,-5.2884850861917005,13.39046955329129,0.3897695044287345,0.01724386833311376,4.067925302745791,0.2871615003501541,0.0,0.7083916637871466,0.2668541832633554,-3.2723403312860277,0.2854008905380268,-0.49983512087745946,-0.055369883421406606,1.8570383512734665,0.17452356283277748,-0.13865092439071036,-0.013938409374235435,600.4116853850228,610.6207820040684,608.019976711503,511.6173696202922
0.4440000000000026,-0.0356640997362612,4.054342222708911,1.3148935997331719,-5.1941138196639995,13.271340637825794,0.3862740611277273,0.017202430127386287,4.06776207355528,0.29127756948007955,0.0,0.7100360975993468,0.26595555262306714,-3.2869764203874974,0.35937738564616417,-0.5076357887301202,-0.05934102411757073,2.5407925077336984,0.16821074838562514,-0.16575731010108585,-0.012900167344178832,619.96090178804,620.6424898169271,628.6218875471602,529.2097781356039
0.4480000000000075,-0.035917873241632266,4.054202935442791,1.3013261650712482,-5.082720722592662,13.147615713021171,0.3820977110752794,0.01716086989264281,4.067598363680408,0.29540575978795913,0.0,0.7113705346388439,0.264005571182797,-3.298902588755842,0.434040784499271,-0.5221347771277234,-0.06319436296519819,3.2033237839709585,0.16080363269804218,-0.1924807210200629,-0.011988193453412448,638.7030420769137,630.098428679672,647.7164746478525,545.6892514931612
0.4519999999999982,-0.03614548504283897,4.054074332150421,1.2877305382492366,-4.954327108533953,13.017548958182633,0.37738663772937747,0.017119190589400268,4.067434184782941,0.29954577720477715,0.0,0.7123078607531994,0.26098812529361093,-3.308145781212277,0.5088357045193296,-0.5439349836233995,-0.0668954504116739,3.8446291108240054,0.15205019637053233,-0.21798662619713433,-0.011218733170925883,656.653321051355,639.1154161435588,665.2704180261472,561.2941283042071
0.45600000000000307,-0.03634478515855336,4.053957099314601,1.2741179885555016,-4.8090844129679144,12.879189115494306,0.3722885782430457,0.017077395146935268,4.067269548401592,0.30369733076462857,0.0,0.7127508481188007,0.2568964096005545,-3.314722538468318,0.5832271399389999,-0.573698389765606,-0.07042084257734992,4.463819407081811,0.14236653162582952,-0.24292532425608135,-0.010599566890748844,673.8962268789553,647.6715349793016,681.5081174358054,575.9010489128219
0.46000000000000796,-0.03651370207376819,4.053851828147208,1.2604997058358955,-4.647264890031066,12.730481568415179,0.3669372859217032,0.01703548646355456,4.067104465953077,0.3078601325778544,0.0,0.7125924141027048,0.2517329304404115,-3.3186397096425773,0.6566813215543431,-0.612081778771587,-0.07375686229932713,5.0606937370454546,0.13139634297556235,-0.26609428332021545,-0.010120398813745074,690.3612631031364,655.8771747705671,696.3380673420677,589.8229287829594
0.46399999999999864,-0.036650268831332385,4.053758999946835,1.2468867267403791,-4.469258927736026,12.569303394130364,0.361445283166433,0.01699346740686188,4.06693894873317,0.3120338978045339,0.0,0.7117176955673603,0.24550971971515026,-3.319933812293457,0.7286855920079158,-0.6595458178754343,-0.07691165862176919,5.63520337919169,0.11904664279436974,-0.28693593885425484,-0.009761902548553438,706.020128072461,663.7779567331626,709.793416151163,603.2282440305411
0.4680000000000035,-0.0367526425676016,4.053678975751922,1.2332898959665943,-4.275575645785163,12.3934971763027,0.3558962188379755,0.016951340814022716,4.066773007917747,0.316218344628187,0.0,0.7100076329238175,0.2382478293154074,-3.3186693201795956,0.798746854139354,-0.7163415767198472,-0.07989148423707146,6.187383150636137,0.10526964140054572,-0.30497936819787463,-0.009494959942791786,720.8385703148783,671.4000668658491,721.9266848837068,616.2672550678773
0.4720000000000084,-0.03681913737020838,4.05361198324497,1.219719768162663,-4.066837499950184,12.200924797393471,0.35033548806138987,0.01690910949202832,4.066606654563824,0.3204131942295497,0.0,0.7073414534600029,0.22997694000860314,-3.314925954704866,0.8663893726041566,-0.7825420087724164,-0.08270952218280761,6.717473076925739,0.08997715374201021,-0.31963936155144435,-0.009278315491812485,734.7626162418327,678.7656071027037,732.7806117074044,629.1205020739884
0.4759999999999991,-0.03684827804019823,4.053558098860014,1.2061864096409407,-3.8437577845078588,11.989542782132236,0.34476551600038857,0.016866776217956292,4.066439899610584,0.324618170760689,0.0,0.7036003954565457,0.22073452973997626,-3.308813706505174,0.9311900034790442,-0.8579618677000402,-0.08537877719990608,7.22612485442674,0.0729939588305143,-0.33014530967948785,-0.009063636741371905,747.7272940823599,685.9071275758365,742.3738730180539,642.0097657953035
0.480000000000004,-0.03683875857510723,4.053517264450304,1.1926996592859014,-3.607177329099287,11.757385040026167,0.33914577120480266,0.01682434373922913,4.066272753880397,0.328833001319322,0.0,0.698670383348821,0.21056528180647502,-3.3004417491472453,0.992714994332253,-0.9422557466234949,-0.08791094199166968,7.713476230923337,0.05457977487242406,-0.3367739096768798,-0.008800842513663644,759.7260481942297,692.766284109245,750.8800002975019,654.9353116155571
0.48400000000000887,-0.03678945614413813,4.053489285480832,1.1792691303429803,-3.3580725610945947,11.502607070035872,0.33339036130526084,0.016781814773872084,4.066105228079832,0.33305741592320404,0.0,0.6924438225480083,0.19952133408498307,-3.289892556405841,1.050457163502832,-1.0349894185722686,-0.09031504899140094,8.179668575995024,0.03480930790584873,-0.3392425280011979,-0.008435276255512367,770.7019124001799,699.326938346893,758.380548567491,667.9997355500656
0.48799999999999955,-0.03669945298680447,4.053473828377877,1.1659041728516801,-3.0975538488687513,11.22353251803253,0.32736714053450905,0.016739192010767612,4.065937332800663,0.33729114748485123,0.0,0.6848215916800859,0.1876630932661043,-3.2772368172882276,1.1038670112704898,-1.1355784894907721,-0.09260179478213479,8.62492669674744,0.013751652258201158,-0.33722311558240925,-0.007909370195850546,780.5910093154539,705.5760055383864,764.949010942186,681.3098550025768
0.49200000000000443,-0.036568087575813625,4.05347041173716,1.1526136770904105,-2.826819454297304,10.918698852980752,0.3209025653617854,0.016696478109907858,4.065769078520863,0.3415339317864642,0.0,0.6757161465781669,0.17505850740441214,-3.262565501329802,1.1524683503743984,-1.2432355194955051,-0.09477447456178402,9.04988270535025,-0.00864407077966639,-0.33008883355897023,-0.007169320173582159,789.320728073607,711.5353215072672,770.6092519681315,695.0196398214252
0.4960000000000093,-0.03639489233722642,4.053478430342654,1.1394064729617503,-2.547252793787205,10.586880934414404,0.313787702775896,0.01665367570264646,4.065600475605594,0.34578550745491354,0.0,0.6650535982307677,0.16178276326595037,-3.2459464712310813,1.1956938265202932,-1.357015677744785,-0.09682753505135135,9.45437281635759,-0.031935807758712687,-0.3185293146584385,-0.00616662861117755,796.8973133053345,717.1172198715476,775.5609729617227,709.0275241867602
0.5,-0.03617962901213114,4.053497152382712,1.1262912194052876,-2.2603989504946522,10.227143732779467,0.3057864386169948,0.01661078739194706,4.065431534308187,0.3500456159370581,0.0,0.6527759583451967,0.147919257549677,-3.2274217849687425,1.232875048115265,-1.4758044287963852,-0.09873924731672754,9.838459611316008,-0.055989885556518626,-0.3022217755374959,-0.0048609187684480835,803.2596338286403,722.3350778281251,779.8452703958899,723.3909954283106
0.5040000000000049,-0.03592229935982788,4.053525725052827,1.113276417751935,-1.9679714769241965,9.83888992423173,0.296637797214503,0.016567815752629788,4.065262264771113,0.35431400147525816,0.0,0.6388438475320122,0.1335612139390112,-3.207011555203568,1.26325632234893,-1.598296404010203,-0.10049491677963476,10.19,-0.08055935502055486,-0.2811724381295249,-0.0032133909798938067,808.1471530546003,726.9322723723438,783.3195499200043,737.8671830312245
0.5080000000000098,-0.03562321474484818,4.053563169876488,1.1003700600072692,-1.6717242947149338,9.421827248485197,0.2860746735950736,0.016524763331617228,4.065092677026953,0.3585904110829468,0.0,0.623238368017923,0.11880927877751553,-3.1847747088378457,1.2863187337054587,-1.7231033131769606,-0.10206819964358553,10.19,-0.10565145443699903,-0.2546730355219907,-0.0012060886476728191,805.7233931904997,724.5715442092362,779.979551875188,746.3294422253479
0.5120000000000005,-0.03528297364233543,4.053608400208591,1.087579791943898,-1.3735052225052184,8.976023422705572,0.2738355872781467,0.016481632648177032,4.06492278099935,0.36287459452052906,0.0,0.6059613270969171,0.10376888601742255,-3.1607867441717556,1.301684322132908,-1.8487842753132917,-0.10342481513077566,10.19,-0.13095456041222825,-0.22311020887871547,0.0011654848704832025,802.3568468381429,722.3210270914066,776.4686808232739,755.7394117962363
0.5160000000000053,-0.0349025304294056,4.053660223205721,1.0749124761717594,-1.0752746719289727,8.501962747651348,0.2596837891941899,0.016438426194162633,4.064752586503961,0.3671663042714727,0.0,0.5870358693685214,0.0885487521022197,-3.135156278202268,1.3089101500021616,-1.9737152218105565,-0.1044985687269721,10.19,-0.15629597152982802,-0.1859113760103335,0.0038832936098081756,797.9757685811309,720.2937999526171,772.7186892857221,766.0856273444348
0.5200000000000102,-0.03448323370001139,4.053717352933619,1.0623738664946942,-0.7791474458452808,8.000640743736817,0.2434135112389674,0.016395146434253417,4.064582103249403,0.3714652955184513,0.0,0.566509286957822,0.07326237231172186,-3.108056040875636,1.3073943781691133,-2.0959611439615085,-0.10521994508797763,10.19,-0.18131564330058453,-0.14293532538817805,0.006921002115083882,792.5392091455865,718.5853577344012,768.7192953629967,777.2754834942477
0.5240000000000009,-0.034026780813527245,4.053778440714983,1.0499687717866009,-0.487290470483273,7.473498094261241,0.22486540230149993,0.016351795806191633,4.064411340838184,0.3757713261198123,0.0,0.5444538048180908,0.05802740988888968,-3.07970056376057,1.2966031875111972,-2.213463609458041,-0.10551957644636464,10.19,-0.20555089626778264,-0.09493694149171406,0.01023298539660967,786.1103445026879,717.2210143080258,764.5492654587227,789.0873274076496
0.5280000000000058,-0.03353517514596504,4.053842102195104,1.0377012064584985,-0.2018959178769852,6.92243253052904,0.20394087792460414,0.016308376721017412,4.064240308767628,0.3800841565862318,0.0,0.5209653606092439,0.04296348926872478,-3.050272578931871,1.276224937955562,-2.3242137437355432,-0.10533774553482522,10.19,-0.2285796953527013,-0.04271653851980689,0.013754960885512021,778.7818967737265,716.2392570523697,760.2670493745215,801.2889268159973
0.5320000000000107,-0.03301068667497673,4.053906941667288,1.025574517166447,0.07484055828120502,6.349806008881031,0.1806133018452641,0.016264891563303324,4.064069016430803,0.3844035500574172,0.0,0.49616203238510614,0.028189464819588138,-3.019914545946901,1.24611310725603,-2.4262141312957044,-0.10460795307973743,10.19,-0.2500124558088673,0.01289342744425473,0.017407095814217753,770.6724001423408,715.6902915608443,755.9135135134484,813.6436965896921
0.5360000000000014,-0.032455814966424495,4.053971574055,1.0135914892189266,0.3407430486885101,5.75843695145634,0.1549369937458676,0.01622134269138568,4.0638974731174295,0.38872927227913107,0.0,0.4701836337559513,0.01382210219929431,-2.9887360320955296,1.2062233529198605,-2.517448836871765,-0.1032668572369162,10.19,-0.26949247597626735,0.07103626318223577,0.02109608237230398,761.925395255041,715.6340813287694,751.5130623532818,825.9149577932088
0.5400000000000063,-0.031873253912477,4.054034644805913,1.0017544357320576,0.593678970981307,5.151579570637819,0.12705327151634496,0.016177732437594006,4.063725688014784,0.39306109158039754,0.0,0.443190776062206,-2.5135743031654348e-05,-2.9568202622394932,1.1566236192979331,-2.595944511528075,-0.10125739941328568,10.19,-0.2866965547146927,0.13084016135724086,0.024718226327509765,752.7073811721285,716.1370752084537,747.0758358942304,837.8704135794522
