Time_s,X,Y,Z,Roll_deg,Pitch_deg,Yaw_deg,Ref_X,Ref_Y,Ref_Z,Ref_Yaw,vx,vy,vz,p,q,r,T_pert,tau_x,tau_y,tau_z,RPM_0,RPM_1,RPM_2,RPM_3
0.0040000000000000036,3.907672823421635e-23,-2.0,0.010006999594037988,3.1588276933026285e-18,-1.2404722931936249e-18,-1.2671305083394822e-20,1.7237725853920012e-06,-6.829611139297497e-05,7.200000000000012e-05,0.0,-7.173352330779748e-20,-400.0,2.0013999188075973,0.0,0.0,0.0,-10.19,-1.0,0.020087020683230247,1.4802088048930945e-20,397.17896423365204,0.0,0.0,405.8006224473306
0.008,2.148712348402806e-16,-1.99999999999999,0.010010999365430017,-5.7279950145567016e-11,1.2298947418255042e-12,1.4308484733925969e-11,5.1505704293382165e-06,-0.0002040663221821987,0.000215133408,0.0,2.386976757864309e-14,-222.22222222222112,1.1123332628255573,0.0,0.0,0.0,-0.03433847600847206,-1.0,0.02130317012832838,-1.6714572781998808e-11,674.1958539017317,342.3901633615994,331.49488835468793,679.6191670763644
0.012000000000000004,2.5088208692805053e-14,-1.9999999999988316,0.0100149991385222,-2.7121982292528106e-09,5.823547602672964e-11,2.9430842789412984e-11,1.0259833864013628e-05,-0.00040649605544732843,0.0004285414703013123,0.0,2.50855765309045e-12,1.1682761232875227e-10,0.0009999430161482942,0.0,0.0,0.0,0.11268126572374448,-1.0,0.022533376114365178,-1.8253856852987198e-11,677.2204887452851,348.9162605553169,337.60391282948365,682.9302637642201
0.016,1.3680562398464685e-13,-1.9999999999926465,0.010018998920576002,-1.68871798741333e-08,3.142731844658513e-10,1.223972226587091e-11,1.7031189368845817e-05,-0.0006747781094482548,0.0007113732083620774,0.0,1.3678680532939897e-11,7.352469982069629e-10,0.0009999440860743863,0.0,0.0,0.0,0.26021500304782647,-1.0,0.023777672875866754,1.887036850734547e-11,680.2409386900679,355.3470831890441,343.6226802570475,686.2381058727652
0.020000000000000004,4.074726003098603e-13,-1.9999999999783218,0.010022998720512924,-4.9717089353455526e-08,9.345965819367707e-10,1.5283779313725342e-12,2.227898921218652e-05,-0.0010072723500740306,0.001062785356130613,0.0,4.007662954473318e-11,2.13653655385318e-09,0.000999946895709204,0.0,0.0,0.0,0.40825153479901,-1.0,-0.011850810993852707,1.2006033507798414e-11,687.8929472734811,352.790479555129,358.5324512517579,684.9177402144892
0.024000000000000007,8.237333023692129e-13,-1.9999999999549973,0.010026998542406615,-1.0317260725196562e-07,1.8885959703463417e-09,1.6336372037981424e-11,2.6021327141179266e-05,-0.0014031962612924944,0.0014819422978531054,0.0,7.586591875001655e-11,4.164332543742351e-09,0.000999951468116244,0.0,0.0,0.0,0.5567797892363537,-1.0,-0.012811509928640556,-1.7364853594308664e-11,691.1627252647017,358.6631042105504,364.7666711473982,687.9610531202762
0.027999999999999997,1.1518355422016947e-12,-1.9999999999227387,0.010030998387533336,-1.771039018455993e-07,2.640550642031459e-09,3.569877791280043e-11,2.827613397463078e-05,-0.0018617744337957284,0.0019680160063522034,0.0,9.023698517524906e-11,6.3825362963601375e-09,0.0009999569558815295,0.0,0.0,0.0,0.7057888058846407,-1.0,-0.013783824455460413,-2.3294331111520998e-11,694.4286716522188,364.4576521108638,370.9177692907322,690.9996877342985
0.032,1.3800184997242715e-12,-1.9999999625525295,0.010035110245385302,-8.582395137974218e-05,3.1180963949520297e-09,6.327556812590044e-11,2.9061178912641563e-05,-0.0023822385076341084,0.0025201859817730854,0.0,7.63074229432525e-11,3.7412081315292277e-06,0.0010111616858935162,0.0,0.0,0.0,0.8550404510447134,-1.0,-0.01476778911927939,-3.3687605895540533e-11,697.6858536865407,370.168375220161,376.9805856529875,694.0286840195246
0.036000000000000004,1.4642933418332152e-12,-1.9999982596782853,0.01004421822283012,-0.003988251873257076,3.1458029045318282e-09,1.1820816018823417e-10,2.839407083633913e-05,-0.0029638271152849535,0.003137639190793573,0.0,4.58988033894499e-11,0.00017398859219489967,0.0015219840454837284,-0.006811019811995162,4.835352188238213e-11,9.586897892956406e-11,0.994835325347078,-1.0,-0.0157634300493966,-6.678031743942037e-11,700.732026753214,375.42149654321497,382.5887932515011,696.8446657430239
0.04000000000000001,1.1759594259208894e-12,-1.9999914241019643,0.010068713172855322,-0.019646307728983313,2.3455368423032548e-09,1.6409281486767907e-10,2.6292262923772955e-05,-0.003605785778809152,0.0038195700062949463,0.0,-8.772699825674596e-12,0.0008569567348373399,0.0035716594648686427,-0.03413948114276334,-1.3483886679145997e-09,1.756634069754849e-10,1.1138310533920852,-1.0,-0.01677073542899699,-5.847485731476235e-11,703.3341617010911,379.7995534077736,387.3341638044757,699.2130497258091
0.044,5.194781936202931e-13,-1.9999762485342272,0.010118153698044146,-0.054367078984391706,7.244908826954581e-10,2.029619700005446e-10,2.277304723806307e-05,-0.004307366947024334,0.004565180147490074,0.0,-9.523578344031333e-11,0.0023246740575881015,0.007978004659846275,-0.09303694584615538,-4.3832918538839255e-09,1.9126348130792427e-10,1.2133748803535231,-1.0,-0.01778981451678352,-5.217527190033137e-11,705.5251080672914,383.38389252510416,391.2984660981037,701.166454708761
0.048,-4.978415902542276e-13,-1.9999498890883658,0.010200879970799931,-0.11453663179709243,-1.7005178556559303e-09,2.3797940953046705e-10,1.7853559364251858e-05,-0.005067829892952158,0.005373678620505554,0.0,-1.8653850241150678e-10,0.004563087070946459,0.014701854863939216,-0.18267918661243493,-7.943196535729407e-09,1.5907873283579298e-10,1.2956244126223257,-1.0,-0.01882065730895588,-4.928612101267579e-11,707.353288869677,386.2782999545276,394.5852084691929,702.753237763779
0.052000000000000005,-1.87145650123744e-12,-1.9999098015049763,0.010324110894277054,-0.20570164448575134,-4.907899495746492e-09,2.714768401480321e-10,1.155077967016e-05,-0.005886440658594015,0.006244281659414509,0.0,-2.754651162143157e-10,0.007473623724908199,0.02345132012703113,-0.29931899914206894,-1.1419895768756514e-08,1.297392421362116e-10,1.3625789846594414,-1.0,-0.01986329262134299,-4.8965053093172823e-11,708.8627576949059,388.5734338428277,397.2848105779132,704.0174015330123
0.05600000000000001,-3.5942720579838065e-12,-1.9998536847252966,0.010494013751802363,-0.33263048372878656,-8.863508467346014e-09,3.068477426258931e-10,3.6473052909362426e-06,-0.006764245367116597,0.007176212667716818,0.0,-3.6189754788722025e-10,0.01096471355213335,0.033955849207549904,-0.4393439308206147,-1.4794413987497158e-08,9.831345292480961e-11,1.4161324002568503,-1.0,-0.023647209247274134,-5.2548029431269594e-11,710.4256642240887,389.74786371199707,400.06678922929933,704.6662936652037
0.06,-5.6583071095270235e-12,-1.999779416810494,0.010715800184225464,-0.49939453405702233,-1.3518523881715712e-08,3.466873286455678e-10,-5.83737091212014e-06,-0.007700502090235825,0.008168702160263459,0.0,-4.4443670070429295e-10,0.014952749909301033,0.0459687527214282,-0.5994597303621483,-1.7996931446095838e-08,6.010021597068449e-11,1.4580172825292241,-1.0,-0.024878768740954425,-5.924202353198064e-11,711.4364070083436,391.0448512047516,401.8588964406198,705.3844794075528
0.064,-8.072447565216831e-12,-1.9996849988759624,0.010993807457785117,-0.7094380218904357,-1.8890575360387684e-08,4.070926035547128e-10,-1.688393306877992e-05,-0.008694475698534512,0.009220987705621773,0.0,-5.241177636071811e-10,0.019362232770833945,0.05926738342036296,-0.7766929906996032,-2.1114881307417227e-08,3.0303996583829874e-11,1.4898318703370814,-1.0,-0.02612411699213034,-8.492614514981506e-11,712.2406701882657,391.9590233077368,403.2810231189484,705.8916800712257
0.068,-1.0925695688014547e-11,-1.999568479888625,0.011331646245606323,-0.9656985011371996,-2.5106364460806166e-08,4.854583638709582e-10,-2.947324087136218e-05,-0.009745437806340605,0.010332313868878385,0.0,-6.095584175541548e-10,0.024127849605143442,0.0736592756752095,-0.9684731490000352,-2.4430407003251404e-08,-1.2280335590812138e-11,1.5129024396654562,-1.0,-0.027383286514305934,-1.0841568758896757e-10,712.8663616370011,392.5424549823196,404.38504028381067,706.2158076106033
0.07200000000000001,-1.4217286368211453e-11,-1.999427911273839,0.011732271182529546,-1.2706683098414404,-3.210696738885366e-08,5.888878454784957e-10,-4.3586328157034965e-05,-0.010852666717024133,0.011501932154876639,0.0,-7.017745287917247e-10,0.029193943223711705,0.08898050155139195,-1.1726108394108483,-2.7949459939548372e-08,-7.933211340107797e-11,1.5284353273586477,-1.0,-0.02865631277008934,-1.4094591906359635e-10,713.3386839818473,392.8415169798959,405.21708897551974,706.382081666638
0.076,-1.795029023741177e-11,-1.9992613068109173,0.012198047300373292,-1.6264525773530853,-3.983531950883044e-08,7.258750651544637e-10,-5.920440150085883e-05,-0.012015447368709778,0.012729100951885333,0.0,-7.921215314745012e-10,0.034512942489307544,0.10509095041926204,-1.3872348366498486,-3.1315876196216784e-08,-1.7403300041224807e-10,1.5375230443868355,-1.0,-0.02994322803683179,-1.8443492308182265e-10,713.6803300089068,392.89751330816927,405.81821597296073,706.4132244241923
0.08,-2.2137655370296688e-11,-1.9990666035692808,0.01273082287335767,-2.0348324457287514,-4.8259527888973295e-08,9.099330326878602e-10,-7.630883881949572e-05,-0.013233071280402062,0.01401308547569566,0.0,-8.780171578186307e-10,0.040043682403935424,0.12186929864519618,-1.6107249900066982,-3.446747912767193e-08,-2.825537329438994e-10,1.5411291499247257,-1.0,-0.031244065455712774,-2.4509681156846433e-10,713.9112272060829,392.7464165218397,406.2241389713121,706.3291974331951
0.084,-2.6817617120800693e-11,-1.9988416281575188,0.01333199422560611,-2.497322500847211,-5.737735302141308e-08,1.149925409812783e-09,-9.488172464261362e-05,-0.01450480974957077,0.015353157714143138,0.0,-9.630280173735415e-10,0.04575176444540663,0.13921415853164876,-1.8417274086179514,-3.751707052215539e-08,-4.1492916597941006e-10,1.5401022434207046,-1.0,-0.032565111628265725,-3.1805858461913036e-10,714.0496194503769,392.4182287608986,406.46730437094794,706.1467648109593
0.08800000000000001,-3.201308697761145e-11,-1.9985840729164734,0.014002548863817991,-3.015212055395604,-6.715802162846858e-08,1.4598245252146881e-09,-0.00011490476896426911,-0.015829967618941298,0.016748596372051536,0.0,-1.048201617408599e-09,0.05160852025063275,0.15704101874402282,-2.0791136886539427,-4.0505324098195784e-08,-5.715727917679471e-10,1.5352178889772163,-1.0,-0.03389427152780254,-4.096558484979113e-10,714.1099819841434,391.94409940337323,406.57333473789384,705.8833925737353
0.09200000000000001,-3.775390962593199e-11,-1.998291475484927,0.014743104283662009,-3.5896037626850226,-7.757439575146277e-08,1.8528883213321243e-09,-0.0001363598490528842,-0.017207856150027925,0.01819868681659564,0.0,-1.1323617356757846e-09,0.05759005439810257,0.17527942129179913,-2.3219431819445946,-4.33759010826344e-08,-7.554185381483174e-10,1.527186021359432,-1.0,-0.035237457377142956,-5.196327162918983e-10,714.1075849820218,391.3487230302798,406.569124107209,705.5529813342616
0.09600000000000002,-4.407282367522085e-11,-1.9979612022230402,0.015553939828892423,-4.221447684820322,-8.860166931051845e-08,2.3441196682553983e-09,-0.00015922900809637214,-0.018637792970902938,0.01970272102307982,0.0,-1.215608834351183e-09,0.06367654641785368,0.19387091789171754,-2.5694356828486296,-4.6132512969011664e-08,-9.664924996683663e-10,1.5166638091288438,-1.0,-0.03659470225539646,-6.505777591935774e-10,714.0558893165199,390.65613664194086,406.4783171798325,705.1690599207653
0.10000000000000002,-5.1003870314572925e-11,-1.997590435292629,0.016435021257871805,-4.911570656494086,-1.0021698961571071e-07,2.951201308525571e-09,-0.00018349445385754893,-0.020119102024363327,0.021259997521129354,0.0,-1.2981587679862541e-09,0.0698518212041237,0.21276783564006432,-2.8209549007030845,-4.878661207367919e-08,-1.2037986856672034e-09,1.5042694399500554,-1.0,-0.03796603916236241,-8.062444115057535e-10,713.9675490836141,389.88899994517266,406.3231101538815,704.7443633564542
0.104,-5.858546914259121e-11,-1.9971761628587057,0.017386018777660023,-5.660701622174536,-1.1239882115689644e-07,3.691650287947043e-09,-0.00020913855733975469,-0.021651113516492133,0.022869821341291525,0.0,-1.3803034980584983e-09,0.07610283990311187,0.2319317950688204,-3.0759886419393743,-5.134702015742414e-08,-1.4682314017853203e-09,1.490594595526125,-1.0,-0.03935150099045206,-9.871733114257886e-10,713.8546745220691,389.06910235243026,406.12473992141224,704.2910983026394
0.108,-6.685585522487212e-11,-1.9967151719575262,0.01840631923636257,-6.469493560334607,-1.2512631423868677e-07,4.58595410177297e-09,-0.00023614385146261208,-0.02323316386561164,0.024531503962043472,0.0,-1.4620808240024943e-09,0.08241926427962862,0.2513324439252239,-3.3341318744299784,-5.382053352424058e-08,-1.7579750232315907e-09,1.4762157329394945,-1.0,-0.040751120663684595,-1.1975630306931856e-09,713.729068062014,388.21781525500256,405.9039170379605,703.8211818745175
0.112,-7.585421714500567e-11,-1.9962040436554631,0.019495033085232247,-7.33854254028523,-1.3837873121514722e-07,5.656237039944824e-09,-0.0002644936315298691,-0.02486451703655967,0.026244363257203765,0.0,-1.543384816191584e-09,0.0887930874568996,0.2709463856452518,-3.5950723937175377,-5.62117937853145e-08,-2.0700165814536966e-09,1.4617043111393244,-1.0,-0.04217194351868359,-1.4401776279068208e-09,713.6032834298734,387.35493713283125,405.6826992922437,703.3455981294767
0.116,-8.562185275161012e-11,-1.995639150197225,0.02065099663966785,-8.268404390019567,-1.5213500367843878e-07,6.92489503635137e-09,-0.0002941707431181106,-0.026544522666760138,0.028007723443744872,0.0,-1.6242307517358556e-09,0.09521832353398459,0.2907562805586222,-3.8585787968846703,-5.852328814763208e-08,-2.40367189097838e-09,1.447636110234324,-1.0,-0.04360040181016468,-1.716255206352818e-09,713.4874822429882,386.50519876070473,405.47896701469807,702.8779771387824
0.12000000000000001,-9.619555375920274e-11,-1.9950166539101908,0.021872770087257916,-9.25960939040981,-1.6637340172785242e-07,8.419542278686479e-09,-0.000325158344261694,-0.028272499925435172,0.029820915030003513,0.0,-1.7041713781167387e-09,0.1016907487140265,0.310750098362164,-4.1244904775036675,-6.075702698990895e-08,-2.752259494195508e-09,1.4345997911231485,-1.0,-0.045044920272643924,-2.0328250099436465e-09,713.3947526857995,385.68912287820194,405.31577489186617,702.4295554907299
0.12400000000000001,-1.0761434657173732e-10,-1.9943325076937404,0.023158631613853838,-10.312675353673136,-1.8107046340831547e-07,1.0166778680228401e-08,-0.00035743959353231404,-0.03004781094586177,0.03168327476428597,0.0,-1.7828968769445638e-09,0.10820768703868207,0.33092050180497196,-4.392709373720325,-6.291251382772213e-08,-3.11175524653137e-09,1.423204837798182,-1.0,-0.04650204225434935,-2.3898519102085992e-09,713.3371798164442,384.93085045606995,405.21443091260926,702.0134893632542
0.128,-1.1990510350506162e-10,-1.9935824566616527,0.02450656850614597,-11.42811985914523,-1.9618791381146644e-07,1.2196268722528277e-08,-0.00039099780502747255,-0.03186982381170217,0.033594145583865524,0.0,-1.8590206561008794e-09,0.11476785418721258,0.35126440462573955,-4.66319403911972,-6.496555058543404e-08,-3.471574683477525e-09,1.4140878811444477,-1.0,-0.04797349195797186,-2.7920257195767928e-09,713.3280306612623,384.25456400994966,405.19832276080643,701.6428921519544
0.132,-1.330992074847857e-10,-1.9927620409394913,0.025914265176504615,-12.606471705412492,-2.1170160247844453e-07,1.4542379535948314e-08,-0.00042581644710486125,-0.03373791250834824,0.035552876564369104,0.0,-1.9319708130391075e-09,0.12137124500629855,0.3717826609764266,-4.93595546654309,-6.692020469461988e-08,-3.822705931895916e-09,1.4079192292419993,-0.9181651629405305,-0.04945930173143678,-3.246077699581798e-09,703.4275274601422,401.64333028338825,422.3311023486239,691.204794113129
0.136,-1.4724770227859116e-10,-1.9918666414211208,0.027379021148194956,-13.848224483523666,-2.2759885745419726e-07,1.7230817039565874e-08,-0.00046187940484287786,-0.03565135855304412,0.03755882286955031,0.0,-2.0031204869491494e-09,0.1280166414630934,0.39247234222580535,-5.210954435816937,-6.87999987548583e-08,-4.1756530045013e-09,1.4055453960913986,-0.786150368882738,-0.05096257694252951,-3.743323515111484e-09,687.2047659975754,428.64719624225904,448.66771431241654,674.3041331775489
0.14,-2.2684896518612586e-08,-1.990891915052903,0.0288971323759635,-15.153322119530806,-3.0019670698261403e-07,-1.9499715513781702e-05,-0.0004991704481871167,-0.03760954877355562,0.03961134570144605,0.0,-2.26398237602769e-06,0.13467694176722075,0.41325680281411425,-5.487181414641816,8.618943123329414e-06,-3.294669169288817e-05,1.4090808865199231,-0.6489986410969824,-0.05221487105468305,2.2798165123901776e-05,669.9948914314791,455.2132294791126,474.65602972652385,656.49111348894
0.14400000000000002,-5.291150967240451e-07,-1.9898346506315352,0.030463506639751975,-16.520801159700344,-1.655043449863045e-06,-0.00046575322088730846,-0.0005376734976327425,-0.03961187574492501,0.041709812250913796,0.0,-5.3344128485681915e-05,0.14123771622470258,0.4339239607391966,-5.762018533087561,0.00022138455291539802,-0.0007821782057273079,1.4214528667007664,-0.5077291677709117,-0.048347288253627406,0.0005220967358303965,650.6392841076993,481.33051704708345,500.2506210508755,639.2004337801602
0.14800000000000002,-2.321215985331169e-06,-1.988693122860147,0.0320718047005348,-17.948855641063194,-6.7124175206188435e-06,-0.0020799599680403646,-0.0005773726229967587,-0.04165773774237101,0.04385359564854689,0.0,-0.00023527696443181352,0.14748796770489217,0.45415528444296804,-6.031789418224842,0.0010521298046381746,-0.0034741939917403604,1.4453463867279845,-0.36334810704906984,-0.040133918485574994,0.001904807931162145,628.6548101717877,506.1089910019206,526.2528459377486,623.1678843122303
0.15200000000000002,-5.599402162338936e-06,-1.9874687465968288,0.03371509775144881,-19.435361275791752,-1.6582525044923318e-05,-0.005115063935827633,-0.0006182520421996314,-0.04374653869454881,0.04604207491596504,0.0,-0.0005550171544590767,0.1530032800398126,0.47360318012420777,-6.293660341930518,0.0026724782182088605,-0.008257188158606816,1.4821520552361065,-0.21630838357733073,-0.03825479178174594,0.0036310703032163007,606.1891599914686,528.8948825551494,553.3432235717044,606.2632308456423
0.15600000000000003,-1.021238728352298e-05,-1.9861649442697602,0.035385888083116115,-20.97785198212784,-3.145791117167122e-05,-0.009527727455532075,-0.000660296120056203,-0.04587768813716734,0.0482746349174772,0.0,-0.0009257732904463968,0.15732343494789036,0.4919353781486818,-6.545794269850681,0.004840720634497549,-0.01389834298455712,1.533237449689305,-0.0671135784389405,-0.04029649244929456,0.005365265927733083,583.4647481450576,550.8285611289452,580.4433901845754,588.3511449495358
0.16000000000000003,-1.5981091166632232e-05,-1.9847857559900008,0.0370761417341721,-22.573494242818782,-5.148573445160906e-05,-0.015257111282968607,-0.0007034893670758264,-0.04805060116696138,0.05055066631211418,0.0,-0.0012736384827719276,0.16016194053701455,0.5088652664242774,-6.786797889444571,0.007276410208261011,-0.019326450295031012,1.5999221349407309,0.0836776904683727,-0.042778471841425934,0.007085266784707144,560.0712709021717,572.5170676865582,606.977402516091,569.9458751063023
0.16400000000000003,-2.2703388171506612e-05,-1.9833348365966634,0.038777880612167165,-24.21849284711285,-0.0009331497292105657,-0.021443552595553233,-0.0007465074569673499,-0.05026802457258948,0.05286956550602828,0.0,-0.0015844342289282804,0.16158394098145304,0.5242455893151448,-7.013989008723148,0.00800224343605396,-0.023715439259056528,1.6823411694741721,0.23478576664419903,-0.029417836336844614,0.00785551428599298,535.1075114619762,597.595473587968,629.2672048724805,552.1948291986769
0.16800000000000004,-2.9708809064380705e-05,-1.9818134579549462,0.04048471584487809,-25.906398311549943,-0.004932865623958146,-0.026061777620853904,-0.0007893509429650747,-0.05252934440229902,0.0552307346052572,0.0,-0.0017946752598238954,0.16190655766865697,0.5382618317029391,-7.220752014049628,0.0019376457087985101,-0.025694214433345935,1.7775159859796725,0.38288610157231817,-0.03331554613048421,0.006279121911061411,516.8704511961279,622.6033815082828,649.6708814585287,527.8521210910445
0.172,-3.664219369604642e-05,-1.9802178148084395,0.04219389591775124,-27.627256982845786,-0.012252374195464934,-0.028641226235702037,-0.0008320203779502301,-0.05483395249148715,0.057633581368849565,0.0,-0.0018721030788587212,0.1617603567885823,0.5517090389379238,-7.395131666188163,-0.01129809750691112,-0.025355103151730875,1.8782607364788149,0.5234756862878358,-0.03364135262741448,0.004088967308380742,499.93361569091155,647.1132862871928,667.3068795878996,503.2766853651285
0.176,-4.35177565548887e-05,-1.9785429601088849,0.04390332484844668,-29.369742895243476,-0.022590985383276935,-0.029091202578675045,-0.0008745163144353081,-0.057181246415148934,0.06007751916234956,0.0,-0.0018380224455790983,0.16172813912303216,0.5654251495091439,-7.526043780017415,-0.02716186931008687,-0.024181833479252707,1.98332537771875,0.6542943783139057,-0.03008045338438843,0.0017093269572010343,483.94097249105454,670.3245004237466,682.6061165099393,479.66708379232847
0.18,-5.035880720647539e-05,-1.976783849699758,0.04561086095544455,-31.121675448302202,-0.035785301453925056,-0.027295267406481014,-0.0009168393045485959,-0.05957062944068943,0.0625619669116377,0.0,-0.0017658946628790668,0.162110461805744,0.5798259630848517,-7.606649911009565,-0.042427401939884674,-0.023052672406399632,2.0928622207805136,0.7735847953005914,-0.026382914766150053,-0.0008937444124338489,470.070605693444,691.7299981943577,695.9281335848061,456.73421723928936
0.184,-5.719862578554994e-05,-1.9749353567639527,0.0473143578864815,-32.87074840977686,-0.051715434537031674,-0.023143276673765523,-0.0009589899000189109,-0.062001510481097165,0.06508634905712558,0.0,-0.001662833554731575,0.16300013527969684,0.5949837401834025,-7.634407899195618,-0.05738969696781367,-0.02210976827814054,2.2069418562150744,0.880373889567214,-0.02248898418378167,-0.003717831178103545,458.684185003654,711.380512582414,707.263419071275,434.79740293532564
0.188,-6.408102478770096e-05,-1.9729922969485072,0.0490116756173306,-34.604775898265956,-0.07027545891674322,-0.016550373848856128,-0.0010009692148965329,-0.06447298062814309,0.06765009550830155,0.0,-0.0015293101585821128,0.16448429609008602,0.6109640022014451,-7.608705541702983,-0.07223348044592397,-0.021447312527541607,2.3256127910930955,0.9739586729683638,-0.01837983660479619,-0.006738080877766114,450.05241525262585,729.3069024706575,716.6521471264116,414.2217442495742
0.192,-7.106076380234186e-05,-1.970949457116991,0.05070068836795879,-36.31196180053543,-0.09135795864916259,-0.007454397796094828,-0.0010427777932932388,-0.06698446383962224,0.0702526415986251,0.0,-0.0013656076450360823,0.16664813637514525,0.6278300390024572,-7.530404543633824,-0.08696350620508547,-0.02113916905001611,2.448907353868793,1.0,-0.01403559987998465,-0.00993163659012386,454.7022384831086,739.3023250711275,717.7029402598578,406.9507782617981
0.196,-7.820399946363532e-05,-1.9688016239455572,0.052379296057290706,-37.98125869147462,-0.11486134563188295,0.004152917114526181,-0.0010844161789379772,-0.06953538954536581,0.07289342804076722,0.0,-0.0011720089990632592,0.16957335358844666,0.6456397026021209,-7.401638717511814,-0.1015142530804217,-0.021279004552555013,2.5768342595942726,1.0,-0.009445970656446034,-0.013238267125828635,464.4873880639473,746.4208980263618,715.5442890437498,405.0887263543022
0.2,-8.558889062439343e-05,-1.9665435437575274,0.05404552415923714,-39.60259229370847,-0.14067305527338841,0.018230723348211117,-0.0011258849151618883,-0.07212519260211721,0.07557190088219415,0.0,-0.0009489785196509011,0.17333653924260786,0.6644546591115523,-7.225861051429568,-0.11575377952851115,-0.02195427712309867,2.709198832132704,1.0,-0.004611393358776309,-0.016601115280026182,474.27130225340824,753.654519187656,713.3684576490925,403.3039124725814
0.20400000000000001,-9.330614937101544e-05,-1.9641699650761282,0.055697512647986086,-41.16757205301405,-0.1686373560039062,0.03468036744647257,-0.0011671845448835184,-0.07475331324875432,0.07828751146109221,0.0,-0.0006974313484324106,0.17800529374424098,0.6843378855212608,-7.008320829871897,-0.12945963854825743,-0.023221058371741727,2.845824914856864,1.0,0.00042935166448310885,-0.019951149734608892,483.92528236293276,760.9092218019983,711.2650725451186,401.73970631754156
0.20800000000000002,-0.00010145887319223663,-1.9616757191320184,0.05733344636848646,-42.66933182500726,-0.19858318958041962,0.053318871632247855,-0.0012083158337261777,-0.07741876388012899,0.0810397163626309,0.0,-0.0004189822486630846,0.18363551120040666,0.7053367788800149,-6.755690619935963,-0.14233293395204827,-0.025114575386274957,2.9866741004325172,1.0,0.0056566371266152625,-0.02318598090834121,493.26956985721733,768.0596484692977,709.3683009035142,400.62671488882097
0.21200000000000002,-0.00011016250380786607,-1.9590556928571237,0.05895161631743027,-44.10225373638994,-0.2303164659007683,0.07388768980109402,-0.0012492793210540155,-0.0801210005802016,0.08382797737556207,0.0,-0.00011617175273060209,0.19027230117118607,0.7274823722212924,-6.474307587752942,-0.15405359756810783,-0.02768274834278577,3.131582264627008,1.0,0.011049873233117725,-0.0262099722001546,502.1461665921878,774.9905244040436,707.8024203862782,400.1767483171806
0.21600000000000003,-0.00011954388504967003,-1.9563049046861467,0.06055036072023832,-45.461732111788685,-0.2636285308203503,0.09606548546288705,-0.0012900755457996658,-0.08285948463562662,0.08665176144915254,0.0,0.00020745327848312208,0.19795387349093913,0.7507906996550435,-6.169382492764422,-0.1643225580663528,-0.030966110525782548,3.2805015676363967,1.0,0.01657885148054511,-0.028939292536837795,510.43311424227096,781.6054460731681,706.6807508785392,400.575106783537
0.22000000000000003,-0.0001297402151370605,-1.9534185275626446,0.06212807073464386,-46.74398753838391,-0.29830528891538366,0.11947389843930828,-0.0013307050464500241,-0.08563368249271379,0.08951054065044776,0.0,0.000547326622514827,0.20671484353074837,0.7752584440473039,-5.845159382687767,-0.1728811414964435,-0.0349498748428624,3.433371170851237,1.0,0.022223517486945104,-0.03129424645091844,518.0197346201546,787.81660017993,706.1097572816449,401.99398339736973
0.22400000000000003,-0.00014089763573103586,-1.9503919141187087,0.06368319501837102,-47.945916004433016,-0.3341288442509695,0.14369528679755839,-0.0013711683610322105,-0.08844306571472033,0.09240379212186403,0.0,0.000897881723785748,0.216588934450121,0.8008645874581031,-5.505100602859135,-0.17952390817928462,-0.03960341665834435,3.590119359486592,1.0,0.027960303963685325,-0.033213495868370475,524.8314601850539,793.5589467327766,706.1715558553243,404.55361812125756
0.22800000000000004,-0.00015316951782725705,-1.9472206253620667,0.06521424058711771,-49.06496578634886,-0.37089749734311306,0.16827547617651192,-0.0014114661834246278,-0.09128674290372597,0.09533099803910691,0.0,0.0012526162183603886,0.22761097508545242,0.827573344611611,-5.1520376799535,-0.18410545179430615,-0.044895909732371994,3.750670924959787,1.0,0.033782230237784094,-0.03463727217071347,530.7942782418656,798.772082613574,706.9425495126374,408.36217473728385
0.23200000000000004,-0.00016671597089089516,-1.9439003301698703,0.06671989030951102,-50.099040226400774,-0.40840077958193,0.19271754455001025,-0.001451599048811947,-0.09416420015974794,0.09829164556941347,0.0,0.0016039906684541122,0.23981807866126603,0.8553492274485712,-4.78829298305739,-0.18648735576481412,-0.05078603723040109,3.9147104199939955,1.0,0.03967246122322052,-0.03549701451375956,535.813692112506,803.3807701909203,708.504405609377,413.5220251950683
0.23600000000000004,-0.00018170154900569482,-1.9404268617077676,0.06819897105132586,-51.0464135949148,-0.44642761887066457,0.21650522116220516,-0.001491567491895075,-0.09707492853352082,0.10128522683011584,0.0,0.0019433475721338256,0.25325051667380555,0.8841563559136298,-4.415772020679826,-0.18653965732860325,-0.05722167309586479,4.081981521466246,1.0,0.04559642444329275,-0.03574970566148396,539.8417667787103,807.3383326583912,710.9061344027712,420.06095444420407
0.24000000000000005,-0.00019829333190362516,-1.936796220606214,0.06965047159066845,-51.90566348342393,-0.4847661633495045,0.23911106516990926,-0.0015313720468777116,-0.10001842398541012,0.10431123884752391,0.0,0.0022609336031061,0.2679524737092106,0.9139472269437586,-4.0360339246126475,-0.18417916468403367,-0.06411118001966662,4.252187033701995,1.0,0.051523431498212986,-0.03536105176181163,542.8396992538924,810.6070190491669,714.1807670915794,427.9726528943758
0.24400000000000005,-0.00021665895542321927,-1.933004573233943,0.07107356393293474,-52.67561522300951,-0.5232001991234767,0.2600042655927634,-0.0015710132474530832,-0.1029941873446422,0.10736918351612457,0.0,0.0025460036226389844,0.2839726621383233,0.9446625332147219,-3.650353094969953,-0.17936643467483335,-0.07135775773162205,4.4249814161715655,1.0,0.05741629674351673,-0.034305375035819985,544.778025634554,813.156123059769,718.3464624526739,437.21739063055975
0.24800000000000005,-0.00023696418649491556,-1.929048276194582,0.07246760370730687,-53.35529618654369,-0.5615156986786461,0.278657729536403,-0.0016104923005893527,-0.10600115626574459,0.11045856755809544,0.0,0.0027868653438536933,0.30136456770607223,0.9762322399430149,-3.2597710126522275,-0.17209711239018027,-0.07886713955307387,4.600012556987605,1.0,0.06323027438209823,-0.03256510242382961,545.636233635775,814.9616414370274,723.4082409374711,447.72835951049524
0.25200000000000006,-0.0002593691016841795,-1.9249239910701972,0.07383206288332414,-53.94389907491716,-0.5995105676346875,0.29457971408321904,-0.0016498097308098765,-0.10903884803109369,0.11357890248313057,0.0,0.002971119537174712,0.32018672865746634,1.0085609571987293,-2.8651383628804616,-0.16244863396355785,-0.08654406598120173,4.777059116410948,1.0,0.06893679069826036,-0.030159727795065726,545.4506663048206,816.0433594850138,729.3219558655562,459.3674714114923
0.256,-0.00028402740796644183,-1.9206285802294838,0.07516663126999094,-54.44075111686941,-0.6369572717387563,0.3073086971039558,-0.001688966062162155,-0.11210678460965492,0.11672970454857584,0.0,0.003085851427703588,0.3405025251406052,1.041541114598514,-2.4671493324686145,-0.1505282042346719,-0.09425864653782565,4.955690123718851,0.9368853908196446,0.07447507246379685,-0.027104170569290847,554.1453687428768,809.718269042967,728.62135059876,483.3821795226667
0.26,-0.0003110880246261373,-1.9161588717258018,0.07647140645861901,-54.845352229117694,-0.6735649421420357,0.31637734522704036,-0.0017279618182046799,-0.11520449261795303,0.11991049471987206,0.0,0.0031175028941353806,0.3623790522548087,1.0750944914869394,-2.0664804750932966,-0.1363351896957254,-0.10182378298487607,5.135082242062654,0.8628544479705369,0.07977128079441573,-0.02337246779919988,563.3355753314574,801.3888244940373,727.520691863039,509.3091526207442
0.264,-0.0003406903665275782,-1.9115118283974593,0.07774679270260082,-55.158011670878984,-0.7090252794150391,0.3213369328105715,-0.0017664003417488356,-0.11833148367170111,0.1231207986313028,0.0,0.0030516563146726914,0.38588231272102713,1.1091525646766147,-1.6649600479199023,-0.11984080953033094,-0.1090675031321278,5.31460442839732,0.7829404871185506,0.08935682010916533,-0.0189669105038069,571.5448876608557,792.0239025076511,726.0621314631545,536.7697678600858
0.268,-0.00037296123361607033,-1.9066845991684056,0.07899348417054827,-55.38026072190564,-0.742989610703446,0.3217941113069956,-0.0018042869357977553,-0.12148729380267584,0.12636014654704567,0.0,0.0028733503465519323,0.4110679036489425,1.1436321061784414,-1.266339701285132,-0.10108339828066377,-0.11583440940302629,5.493649918066656,0.7058532956842059,0.09414482892065441,-0.01393347490069956,578.9284311855674,781.5871242282166,726.2876095010671,562.7323002279164
0.272,-0.00040801255798299024,-1.9016745413892109,0.08021245733430885,-55.51469483720329,-0.7750962891374719,0.3173522251407481,-0.001841626859587996,-0.12467146357278577,0.1296280733225239,0.0,0.002567342418250067,0.43797202436154714,1.1784251323784933,-0.875480089405167,-0.08013691502788677,-0.12201667003317981,5.6716182175110905,0.6257695832677888,0.09841241830056871,-0.008251831373626766,585.6982198565462,769.8263389665974,727.0129416534534,588.8917928955792
0.276,-0.00044593759685069033,-1.8964792875955343,0.08140492207958952,-55.56453074602043,-0.8049524322926834,0.307686380564953,-0.0018784253289254051,-0.12788353803624958,0.1329241183660568,0.0,0.002118278407115896,0.4666111832508507,1.2134164927691289,-0.49644999898296593,-0.05709721838135011,-0.12749440321132013,5.847999118333231,0.5435310089093551,0.10204269404051958,-0.001989179112593272,591.8609664671254,756.8336326550284,728.2554672138716,614.9768720560761
0.28,-0.00048680915940617716,-1.8910966970153789,0.08257235699428328,-55.53364868612545,-0.8321647669701517,0.292534519022546,-0.0019146875165185209,-0.13112306670206633,0.13624782560080612,0.0,0.0015111500331920402,0.496984097691649,1.2484860249164629,-0.13223616523351686,-0.03214300459737544,-0.13217375769080747,6.022203414251769,0.46007327988956087,0.10497261636487443,0.004794786328421291,597.3864977609688,742.7074574316379,730.0438878476235,640.763772786309
0.28400000000000003,-0.0005306773937217607,-1.8855248511039846,0.08371650736921812,-55.426534362243245,-0.8562782758594799,0.27174965463415846,-0.0019504185523095212,-0.1343896034967758,0.1395987434270168,0.0,0.0007321120885554501,0.5290720248542191,1.283524195727931,0.21436597178793723,-0.005528309251853318,-0.13583126622207756,6.193637450241045,0.3763124076787183,0.10706027269762529,0.011976785829326942,602.3542636349866,727.6164014285233,732.332971583284,665.9681020743299
0.28800000000000003,-0.0005775688721003851,-1.8797619668926773,0.08483944117321784,-55.24854644510932,-0.8768706998315566,0.245249659427271,-0.001985623523802743,-0.13768270672750668,0.1429764246845496,0.0,-0.0002309506717748786,0.5628341061132645,1.318440565797087,0.5402795921929661,0.02247026767833646,-0.1383346102549701,6.361585524787761,0.29352130593800657,0.10828248853429454,0.019487484069940587,606.6876806704016,711.7247340976777,735.1695154486198,690.3849925207453
0.29200000000000004,-0.0006274835088053238,-1.8738065042714638,0.08594345112136755,-55.00530274655642,-0.8934869264129461,0.21302392864666225,-0.0020203074763907865,-0.14100193904531041,0.14638042661570336,0.0,-0.0013883097799499498,0.5982079525507331,1.3531548943263272,0.8428495217446741,0.05160130090649525,-0.13953844336930596,6.525520459976875,0.2123195416360547,0.10851501045840681,0.02724710205273908,610.4371639986146,695.1327505119976,738.5248262270777,713.8925436836049
0.29600000000000004,-0.0006803932415760329,-1.8676571191177804,0.08703107185496972,-54.70281045392546,-0.9056642603534526,0.1751414268012346,-0.0020544829176025996,-0.14434543001191297,0.1498103108283251,0.0,-0.0027484262230336263,0.6351117857185725,1.3875895103924074,1.1204006481875264,0.08166189192596289,-0.13936151037488487,6.684873100858784,0.1335004033377571,0.10759063996969989,0.03516352549207686,613.6491385390594,677.9805158016288,742.3787349742868,736.3398369009415
0.30000000000000004,-0.0007362404163740464,-1.861312658387713,0.08810506111958605,-54.34737897318331,-0.9129387375118889,0.13174941898518044,-0.002088154719258814,-0.14771276815785397,0.15326564325920558,0.0,-0.00431756691825051,0.6734463701690043,1.421681119217088,1.3714619317667716,0.11242704697437615,-0.1376709046329379,6.83910483270716,0.05778622392183136,0.1056007211987266,0.043142849935135376,616.3447263440504,660.4485797464541,746.6708480178147,757.6256850098029
0.30400000000000005,-0.0007949362935250737,-1.8547721548819003,0.08916837775953007,-53.945535036889325,-0.9148536781695338,0.08307262877004976,-0.002121327712849237,-0.1511035460928081,0.15674599413775817,0.0,-0.0060994633771947375,0.7130949859351848,1.4553825595436165,1.5948190889385763,0.1436622274414248,-0.13436683919593484,6.987714640632218,-0.014174723687738533,0.1023939468705546,0.05108892908928013,618.5916691728715,642.697839793723,751.3586480657924,777.6344570913583
0.30800000000000005,-0.0008563597454880733,-1.8480348020868855,0.09022417304048574,-53.504055219134486,-0.9109524519186958,0.02944878495961269,-0.0021540066898428894,-0.15451736047130155,0.16025093794997916,0.0,-0.008094855925658822,0.753924562220156,1.4886649118493847,1.7894259937220816,0.1750931054067842,-0.12930419126878914,7.130212760058397,-0.08167677999241374,0.09789341209110161,0.05886089604819052,620.5034849628516,624.9909250340538,756.3442460862178,796.2070702285246
0.31200000000000006,-0.0009203562168707672,-1.8410999558469667,0.09127575646604462,-53.02981314480535,-0.9008541884029719,-0.0287431010810825,-0.0021861964019957597,-0.1579538119586942,0.1637800534026873,0.0,-0.01030113787295046,0.7957862927455276,1.5215180472882885,1.9545194663173242,0.2064334454062954,-0.12245701700770155,7.266172717021256,-0.14417088848818638,0.09211172373382656,0.06639700339030112,622.0861619994332,607.4939834714316,761.6001980319371,813.3080257390137
0.31600000000000006,-0.0009867367685488769,-1.83396717079668,0.09232652982383012,-52.529446756707294,-0.884178212086773,-0.0910754595154374,-0.002217909583983642,-0.1614113923517202,0.16733292338804046,0.0,-0.012712765610901126,0.838520418237862,1.5539438368972356,2.090087299941313,0.23746270748865878,-0.11381632858925543,7.395296895263732,-0.20148510037152934,0.084884216246768,0.07362528262551363,623.4397315834163,590.3308103430838,767.0673377013695,828.9088163653965
0.32,-0.0010552773344662814,-1.8266361574397005,0.09337998585989098,-52.00949922807712,-0.8605950283024736,-0.1570517066634562,-0.0022491508124939637,-0.16488972363061774,0.17090913494832735,0.0,-0.015321499754017299,0.881960743465295,1.5859553642267457,2.1967935765500153,0.2680009296077107,-0.10338741727291037,7.517287473687384,-0.2532944010744041,0.07638138443261759,0.08044784633770127,624.6335895512299,573.754163187636,772.6369951989215,842.9656443745838
0.324,-0.0011257182426378705,-1.8191067720014755,0.09443967856142559,-51.476348525868694,-0.8298379847003886,-0.22610994632327927,-0.0022799246262842307,-0.1683884315648304,0.1745082792410327,0.0,-0.018115847759455666,0.9259364682945105,1.617585125646983,2.2752454351439453,0.2977708663320783,-0.09115234090498665,7.63190408905303,-0.29935793983319203,0.06652325617577536,0.08676826224099916,625.7817304735617,557.9928528058579,778.224728726096,855.4151725337285
0.328,-0.001197764097461309,-1.8113790049815188,0.09550919354573187,-50.936143492758895,-0.7917141024414355,-0.2976283790498947,-0.002310235526473786,-0.17190714568100876,0.17812995150417293,0.0,-0.02108071844069912,0.9702734304989319,1.6488822104934815,2.326238518800293,0.3264577595233311,-0.07713685640804667,7.738964566943162,-0.33951634953335574,0.0553376874346524,0.09249369577237593,626.9897590738489,543.2988536587519,783.7329588685943,866.2125973936701
0.332,-0.0012710840602755623,-1.8034529684082286,0.09659211910024355,-50.394745691768165,-0.7461142826411694,-0.3709313202288248,-0.0023400959779190495,-0.17544448530773607,0.18177375102190133,0.0,-0.024197387328252377,1.0147968146783795,1.679909816588026,2.3508383574405114,0.3537305785560677,-0.061391368257468125,7.83834454365698,-0.373689548340428,0.042780022236939996,0.09753583920077838,628.3780289731251,529.9156403500664,789.0723893659423,875.3124973811181
0.336,-0.0013453123354647816,-1.7953288678763237,0.09769203100578087,-49.8577369215765,-0.693023346604791,-0.4452586621765265,-0.0023695103110287006,-0.1790000995946592,0.1854392810903802,0.0,-0.027443220116503308,1.0593333577385544,1.7107457943963946,2.350250959107776,0.37919334167415536,-0.043950738862631566,7.9299504156008815,-0.40180423126348785,0.029099038973146647,0.10176845182932473,630.0822606234726,518.2184556001446,794.0803821639327,882.6522404035412
0.34,-0.0014200497462492578,-1.7870070019701245,0.0988124532348669,-49.330310948086264,-0.6325651934957157,-0.5198466668848367,-0.0023984828203067747,-0.18257364124374148,0.18912614898391802,0.0,-0.03079150991150968,1.103713033171072,1.741479422267906,2.3259028811285276,0.4024429440600309,-0.024965331940497434,8.013768784565656,-0.4239287559917974,0.014346638883223184,0.10515615191397705,632.1529873352041,508.38414216777886,798.7094681615646,888.2504996902622
0.34400000000000003,-0.0014948665043124747,-1.7784877976841726,0.09995678664288843,-48.817047559885474,-0.564891837903731,-0.5939644372304776,-0.0024270177646289167,-0.1861647664791376,0.19283396592137,0.0,-0.03421298288121342,1.1477736071058744,1.7722006738410436,2.279756654663173,0.4232500115186257,-0.004597384972352983,8.089932669328075,-0.4404182316391383,-0.001442996663743007,0.10770595945880326,634.6231499157235,500.4583349168438,802.9348394350699,892.1870279094754
0.34800000000000003,-0.0015693031880541306,-1.7697717343226036,0.10112834141804003,-48.32212884096332,-0.49027187936365246,-0.6668224501036658,-0.002455119367516602,-0.18977313501730333,0.19656234703279937,0.0,-0.03767639376677407,1.1913635261754862,1.8030021345723406,2.2140107337442374,0.44141445551621283,0.017009191477324815,8.158513198682469,-0.45141400659246794,-0.018149502698379623,0.10931934422461366,637.6338152663743,494.71331181541586,806.6245452737943,894.4094605805254
0.35200000000000004,-0.0016428728936707735,-1.7608593103527284,0.10233033408360209,-47.849350572209964,-0.40913387847873156,-0.7375619882833341,-0.0024828027106302236,-0.19339698702991615,0.20031091132639842,0.0,-0.04114695820846255,1.2343413893763355,1.8339898206994831,2.1304995664908573,0.4564411906451601,0.03973939535538909,8.219590518447884,-0.45706839167659874,-0.03570672572193486,0.10988296824056831,641.3523050138616,491.42369636083413,809.6361802889828,894.8371602309231
0.35600000000000004,-0.0017150656063994539,-1.751751063086939,0.10356583743517263,-47.40201633053148,-0.32201999603118453,-0.8053226459124777,-0.0025100718164867176,-0.19703600625661022,0.20407928165566652,0.0,-0.0445855939740459,1.2765754832661664,1.8652733806173967,2.0310732682586172,0.4678018570182343,0.06340873054532614,8.273349406171164,-0.4576811279778876,-0.05369115919954218,0.10935944932301717,645.806967219591,490.7357460420416,811.8617849472757,893.5072359413089
0.36000000000000004,-0.0017853528404461936,-1.7424475670558246,0.10483775234760384,-46.98291511531813,-0.22956241697581997,-0.869263433068163,-0.002536930674245359,-0.2006898796861244,0.2078670846868438,0.0,-0.04795029496013469,1.317945934020439,1.8969554956851287,1.9178265374274672,0.47514469792852293,0.0877998310172253,8.320036482189165,-0.45360943462473247,-0.07205791952639529,0.10773592935485704,651.0476177348152,492.6369071356677,813.2551960263348,890.441574141695
0.36400000000000005,-0.0018531906728112334,-1.7329493746839608,0.10614883840581087,-46.5943483094489,-0.13257693635553858,-0.9284806806022066,-0.0025633832399644427,-0.2043582975285814,0.21167395086659824,0.0,-0.051196213634604484,1.3583460767796052,1.9291373414528146,1.7929270893914573,0.4780168839477902,0.1126774209394296,8.359841724546595,-0.44521228844944916,-0.09054215705324631,0.10490438865976284,657.222251701257,497.28531229461936,813.6367244287442,885.5745036967584
0.36800000000000005,-0.0019180267251502972,-1.7232570385469121,0.10750166973229601,-46.238127064012694,-0.03197589617497671,-0.982060867318971,-0.0025894334368560773,-0.20804095318798357,0.21549951438996442,0.0,-0.054274702591561176,1.3976829029449254,1.9619164047635067,1.658496877905779,0.47589155221907387,0.13783148638065482,8.393049307086155,-0.43288345793543553,-0.10891938006394837,0.10081588115993277,664.400369330724,504.67302166639195,812.8923513741685,878.8905388865886
0.37200000000000005,-0.0019793083983948856,-1.7133711349516807,0.10889859159313843,-45.91562118826001,0.0712949323545814,-1.0291791709871132,-0.0026150851555391042,-0.21173754323492386,0.21934341316853218,0.0,-0.05713472263276893,1.4358769083633742,1.9953759272137739,1.5165654933274557,0.4685104656921838,0.1630385049302494,8.42003742793208,-0.41699187997646575,-0.12701139907594797,0.0955361156105603,672.49320536224,514.5442008862206,811.0417160214173,870.4773302436902
0.37600000000000006,-0.0020364880527769668,-1.7032922202507894,0.11034174673051739,-45.62775035962719,0.17619570838804063,-1.069014635251325,-0.0026405606003486186,-0.2154455557420476,0.22320528879888304,0.0,-0.05972449064453258,1.47286183084117,2.029586286064454,1.3690726348666264,0.45577563476152394,0.1880784367906626,8.441138182101193,-0.397945979500245,-0.14713949413502925,0.08903528698655849,681.8602934810702,526.3735399736006,808.2534600269503,860.066514214465
0.38000000000000006,-0.0020890308977374377,-1.6930208323211164,0.11183306050951178,-45.37504501068308,0.28162149368601813,-1.1007930757230089,-0.0026658609694550895,-0.21916472015138233,0.22708478653127295,0.0,-0.06199156187272131,1.5085839953516866,2.064611169877928,1.2178462988957708,0.4375059599036568,0.2126906953818593,8.456720309481959,-0.37611322079967363,-0.16413666883013658,0.08133381279322721,691.8332725650929,540.7730675248474,803.9548008345854,848.1752721719821
0.38400000000000006,-0.0021364209683832087,-1.6825574706242725,0.11337425201813939,-45.1575700417497,0.3863151241081263,-1.1237152750405102,-0.0026909874529536656,-0.22289476875018277,0.23098155523855904,0.0,-0.06388171976880598,1.543002595019367,2.1005051767587326,1.0647399165487945,0.41335133342969127,0.2365871831773898,8.467136996187707,-0.3519763985874256,-0.18007139013883877,0.07237009757091084,702.7866880061097,557.2595680597086,798.2284477282093,834.5153804502554
0.388,-0.0021781701539723038,-1.6719025999484505,0.11496682377815819,-44.974989138328695,0.4889281308282491,-1.1369761105182148,-0.0027159412329182354,-0.22663543664642574,0.23489524738536907,0.0,-0.06533822990005282,1.5760902447562464,2.1373102028567232,0.911577140925339,0.38290838983542513,0.25944618891712873,8.472768930854876,-0.3259749909241082,-0.1946391155041264,0.06210380624842594,714.7510959175363,575.7072682032677,790.9227812863533,819.0384066052542
0.392,-0.0022138276626450836,-1.6610566536615026,0.11661205562767558,-44.8265870609115,0.5880214493267155,-1.1398186905937804,-0.002740723483455129,-0.23038646174449778,0.23882551899751156,0.0,-0.06630171641035439,1.6078332950625218,2.175053567713747,0.760120811044042,0.3458144357584142,0.2809532372104094,8.474016166280157,-0.2985501181498096,-0.20751598323009876,0.05055754498577013,727.6701604631394,595.8922546931249,781.943150279119,801.7543969627468
0.396,-0.002242989266635106,-1.6500200395354898,0.11831099950953279,-44.71124218276038,0.6820809619118249,-1.1314954025299795,-0.002765342204361752,-0.23414582554960128,0.24277202963162442,0.0,-0.06671133558361768,1.638231872904516,2.2137452057618168,0.612058903704705,0.3018485921796496,0.30076892723034643,8.471296476562667,-0.27020138024980944,-0.21846286704386159,0.037710345183302865,741.5583327870467,617.6488058687212,771.1316202080928,782.6082773295644
0.4,-0.0022653077326342604,-1.6387931444644561,0.12006447778153718,-44.62750241406541,0.7695244186413267,-1.1113408912763048,-0.002789798471719715,-0.2379132926601549,0.2467344423450612,0.0,-0.06650576645443322,1.66729997823709,2.253377978921703,0.4690153766211867,0.2508651952510067,0.3184791655310281,8.46503837603365,-0.2413682908775634,-0.22698626543773398,0.023626817917076333,756.2862891540151,640.7417551231227,758.3899743873043,761.6509275317142
0.404,-0.0022805026150823347,-1.6273763247138813,0.12187309994311371,-44.573656903088896,0.8488359824704843,-1.0786970264847924,-0.002814093354545977,-0.24168863020767725,0.2507124236660123,0.0,-0.06562345319980101,1.6950652957716905,2.2939305006432864,0.33235093158341805,0.19290919993536726,0.3338899570706744,8.45564379714883,-0.21243024753596712,-0.23297120907236013,0.008287255187443929,771.8664257645768,665.0335614905905,743.5453996157904,738.7694460969519
0.40800000000000003,-0.0022883696499985,-1.6157698766613635,0.12373730211570408,-44.547903760206985,0.918578577847031,-1.0330242799680764,-0.0028382279148391368,-0.245471607834773,0.25470564356386005,0.0,-0.0640045745734045,1.7215659772680616,2.335374130242118,0.2029898025711357,0.12828986611345775,0.3468512033588963,8.443441378552023,-0.1835896800852084,-0.23624122613914825,-0.00819769379876354,788.1288442220268,690.2549198359046,726.5698661660118,713.9729354145306
0.41200000000000003,-0.0022887895703731513,-1.6039740518108923,0.12565734299602233,-44.54833579075737,0.9773353590626305,-0.9739465779237243,-0.002862203207625421,-0.24926199767329268,0.2587137754197653,0.0,-0.06159300542873532,1.74684749547067,2.3776756115021427,0.08145720362087953,0.05753950125196422,0.35710048160526775,8.428773545784445,-0.15507316194427337,-0.23655358698976037,-0.025660152824018158,804.8460785306399,716.1023570102573,707.4767702518373,687.343476819724
0.41600000000000004,-0.0022817372117195293,-1.591989115353522,0.12763325475845053,-44.57281091028949,1.0237146245185709,-0.9011879446710882,-0.0028860202810043717,-0.253059574322665,0.26273649599748455,0.0,-0.058338350615872836,1.770963210501606,2.4207832050009492,-0.03153439529776789,-0.018853198480344505,0.36425778428409306,8.412088072000335,-0.1272671193239265,-0.23365960133835523,-0.04399957009653338,821.9009778940317,742.3795486669595,686.1530709189815,658.8912970844043
0.42000000000000004,-0.0022672887802751528,-1.5798153370431571,0.12966486560171622,-44.61903691363098,1.0563518084806116,-0.8146528301046028,-0.0029096801761942354,-0.25686411482840044,0.26677348541441526,0.0,-0.05419682946819362,1.7939766023136368,2.464626166883204,-0.13514181870018005,-0.10037685044302491,0.3678024624773262,8.3937942403319,-0.10047654862781877,-0.22732594425640446,-0.06301746757264937,839.0712854000175,768.8062846163377,662.5962098806277,628.7407592983466
0.42400000000000004,-0.002245626806455506,-1.5674529504753782,0.1317518585285558,-44.684660859771505,1.074126040116271,-0.7142639371048362,-0.0029331824085930608,-0.26067266497701963,0.2708244271128679,0.0,-0.04913082329912362,1.8159618759748537,2.509129277448902,-0.22876005976734204,-0.18635057763099866,0.36771361238162276,8.374188590063063,-0.07491393450715107,-0.2175746174230977,-0.08269740825286419,856.3611731599422,795.3288199818916,636.5629382466349,596.6943945196028
0.42800000000000005,-0.0022170424130181295,-1.5549020642086395,0.133893883696843,-44.76746264478437,1.0760218384141438,-0.6001623709624628,-0.0029565280240739737,-0.26448503954500263,0.27488900783156306,0.0,-0.04311023970246924,1.836998785713058,2.554230345393619,-0.31231115431175815,-0.2758981657167653,0.3639152668761827,8.353344318792953,-0.05057151616488073,-0.20435941076831682,-0.10278840483088719,873.4968758015392,821.6657137302697,608.108739304602,562.8437244825799
0.43200000000000005,-0.0021819426223670738,-1.542162785682428,0.13609044233980025,-44.86520168747499,1.0611364056262622,-0.4726772939488952,-0.0029797180615978316,-0.26830105539383264,0.2789669175773519,0.0,-0.03611438440087435,1.8571703023591841,2.5998680092168973,-0.3859539733044811,-0.36803958151464605,0.35626282474054205,8.331571304835244,-0.02761302914914976,-0.18753569709553677,-0.12306594010367099,890.2637725014548,847.5956113949004,577.192902019914,527.2893973806439
0.43600000000000005,-0.002140852519867413,-1.5292352258084583,0.13834089759187213,-44.97563988056878,1.0287079919903792,-0.3323289658414092,-0.0030027535532587686,-0.27212053145156895,0.2830578495971585,0.0,-0.02813499301517326,1.8765636013241949,2.6459594814924965,-0.449656222928082,-0.4617671578413131,0.34440626503785476,8.309162250698646,-0.006178372667321547,-0.16706757482221046,-0.14329419984937206,906.4591973904944,872.9025460235538,543.7719217542126,490.1400291473847
0.44000000000000006,-0.0020944156937313363,-1.5161194986362627,0.14064449063800435,-45.09656892127161,0.9781342033682409,-0.1798420823039953,-0.00302563552432944,-0.2759432886945666,0.28716150035014193,0.0,-0.019176960319328744,1.8952716210905176,2.69241235631824,-0.5033839690881822,-0.5559915796157643,0.32813367321906156,8.286381534153282,0.013623075532945561,-0.14296587144061837,-0.16321390510859748,921.8716729449714,897.3679474240345,507.80871437389777,451.5541204959383
0.44400000000000006,-0.0020433930171979303,-1.5028157212561242,0.14300035641932302,-45.22583541602851,0.9089896743872156,-0.016157962062428362,-0.0030483649933059705,-0.27976915012934167,0.29127756948007694,0.0,-0.009259786648505323,1.9133921162783145,2.7391330131253073,-0.5472244646605571,-0.6495223306326116,0.30727002108779417,8.263465593766194,0.031711749758899566,-0.11528940383014273,-0.18254309498563928,936.2810839371683,920.7698574254272,469.27149935201277,411.76646030307455
0.44800000000000006,-0.001988659682475068,-1.4893240138152681,0.14540753876330115,-45.361363701926706,0.8210428508694003,0.15755526847711585,-0.003070942971952606,-0.2835979407745812,0.29540575978795147,0.0,0.0015808190528718094,1.9310266349924128,2.786027955497305,-0.5813797393560655,-0.7410759472936411,0.2816818333780565,8.24062359623805,0.04803698508120571,-0.08414770259955294,-0.2,948.5165949104759,941.933187182417,430.2153436004862,373.5339772740722
0.452,-0.0019312009010985997,-1.4756445253583717,0.14786497630220188,-45.5011662853012,0.7142406368873238,0.33983416754774437,-0.003093370465346075,-0.2874294876432964,0.2995457772047791,0.0,0.01329080053807836,1.948279704536621,2.8330013025573577,-0.606142265675321,-0.8292494735567921,0.25116938561705254,8.21809623968828,0.0625641723880376,-0.04966141965823767,-0.2,943.7047479938093,946.0579265813459,425.4256395699366,377.2377117166921
0.456,-0.0018721055296483477,-1.4617774418396403,0.15037150635598376,-45.643343364138524,0.5889166655458402,0.529047974096568,-0.0031156286529245825,-0.2912601235143658,0.30369733076462546,0.0,0.02579532417910828,1.965258401663742,2.879954556400881,-0.621860653025091,-0.912461386151676,0.21587624572570457,8.196119743383662,0.07526278655293905,-0.012001382910533293,-0.2,938.7533608965235,950.2952123086186,419.57453268079155,382.05639474844264
0.46,-0.0018125553038003453,-1.4477225918678411,0.152926319637083,-45.7861734279726,0.44588424936579457,0.7235613790418041,-0.0031377187650631563,-0.2950897214168698,0.30786013257784617,0.0,0.039002601565214234,1.982066282003173,2.9268475150973243,-0.6290677489739183,-0.9890773161493682,0.1766308561134603,8.174010773555679,0.08621276913410299,0.027792927995088645,-0.2,933.7380594036978,954.5464695725638,412.82636055344176,387.6740077641395
0.464,-0.0017538221728331277,-1.433479492460819,0.15552893985226918,-45.92806752585944,0.2864043839602626,0.9214710207036622,-0.003159642023423038,-0.2989181559409066,0.3120338978045354,0.0,0.05280454174524346,1.9987991476615559,2.9737060981661045,-0.6284275664268091,-1.0572762596581826,0.13459114486926388,8.151116175463077,0.0954516490801429,0.06943826923248428,-0.2,928.6703215013921,958.7794701239658,405.18094399756615,393.9619970266346
0.468,-0.0016972587771075965,-1.4190474956285442,0.158179086055805,-46.067588009880716,0.11202481241689892,1.1207244673940346,-0.003181399641012271,-0.302745303223375,0.3162183446281834,0.0,0.06707497912788937,2.01554529948895,3.020566533239484,-0.6206348377390559,-1.1152666694071611,0.09049049285152859,8.127051580061218,0.10304679817352778,0.11251028565161687,-0.2,923.5765028481163,962.956676964837,396.67904547021567,400.7690947670967
0.47200000000000003,-0.0016442859972332204,-1.404425944941349,0.16087652247807238,-46.20336081812565,-0.0754313261944598,1.3190898652738654,-0.0032029928222458703,-0.30657104093387166,0.320413194229541,0.0,0.08166759397354009,2.032389977927374,3.0674187359861715,-0.6062635722630392,-1.1615380095066343,0.04484918117248869,8.10173120952877,0.10897250098523506,0.1565367196882493,-0.2,918.5015189197293,967.0331476642108,387.36036100216774,407.9719521912663
0.47600000000000003,-0.001596376535854287,-1.389614208906167,0.16362103469894404,-46.334109568824175,-0.273968131678304,1.5142271886525174,-0.0032244227630055786,-0.3103952482607027,0.32461817076069005,0.0,0.09641856683702797,2.049415918105064,3.114222221999441,-0.5858121603440753,-1.194915316742119,-0.0019131307018022084,8.075116245183366,0.11324624379585421,0.2010898560642168,-0.2,913.4837572116974,970.9731639176607,377.26454146377114,415.4563028806804
0.48000000000000004,-0.001555037180357666,-1.3746117203409838,0.16641239815127787,-46.4586561199998,-0.481444969957315,1.7036917609811904,-0.0032456906506992153,-0.31421780589700826,0.3288330013193179,0.0,0.11114902237063898,2.0667029960542553,3.1609246176201786,-0.559809743889928,-1.2144834808341218,-0.049472280071367336,8.047231152694078,0.1158919549279453,0.24573360261754187,-0.2,908.5636476198027,974.7423146261115,366.4365003901525,423.1143899608823
0.48400000000000004,-0.0015217909572092878,-1.359418012109435,0.16925034899479932,-46.57590204950971,-0.6954830729959652,1.8848318348000574,-0.0032678544574437046,-0.31803184432468967,0.33305741592319477,0.0,0.12566281763964243,2.084327118416364,3.2074693545101716,-0.5288064984960499,-1.2192686308054672,-0.09755465886268536,8.018159875043146,0.11691783171878312,0.27758148596704796,-0.2,904.9711227269954,977.2089805226881,357.9303139813737,428.353859593242
0.48800000000000004,-0.0014981535913818772,-1.34403268733083,0.17213462093371776,-46.68484245027475,-0.913795800315796,2.0551046177449086,-0.003290902634313393,-0.321837328468867,0.33729114748485184,0.0,0.1397508832149083,2.1023594970388104,3.253803363958461,-0.4933486041423569,-1.208730751320857,-0.14594476143751098,7.987912926896387,0.11635286523061102,0.3202327440664318,-0.2,900.464117643348,980.4618178311557,346.0957779123169,435.9469348562247
0.49200000000000005,-0.0014856143381590703,-1.3284554489414298,0.1750649203390636,-46.784558492729396,-1.1340759511345198,2.211959278875019,-0.0033148237391324113,-0.3256342239835131,0.3415339317864596,0.0,0.15319654437434627,2.1208659867228534,3.2998810346792844,-0.45398849348125714,-1.1829879394325302,-0.1944773725641578,7.956551432114237,0.1142230546819032,0.36172957312619397,-0.2,896.1777319333024,983.4491171313264,333.6871975399416,443.4529980829137
0.49600000000000005,-0.001485616135693102,-1.3126861054096755,0.17804092486991788,-46.87422595244192,-1.3539765148758545,2.352809764903706,-0.003339606435605594,-0.32942249724394385,0.3457855074549037,0.0,0.16577919490185639,2.1399065420551224,3.345659372681927,-0.4112892291338438,-1.1419989205217393,-0.24302267478915987,7.924140225147793,0.11056960199009103,0.401642404928702,-0.2,892.1537169299909,986.1403203929289,320.76737117281704,450.7885245199001
0.5,-0.0014995364832849616,-1.2967245768117475,0.18106228066068475,-46.953126475743026,-1.5710150396745552,2.47494439219692,-0.0033652394924560177,-0.3332021153393724,0.3500456159370582,0.0,0.17726803019203768,2.1595342661329817,3.3910995147501124,-0.3658418914291102,-1.085395962110173,-0.29146141653078483,7.890750804962391,0.10545275821828086,0.4394170788898675,-0.2,888.4447161370359,988.4958525397283,307.44745749863426,457.84838004405964
0.504,-0.0015286665137305337,-1.28057086281604,0.18412863709116234,-47.02063671732854,-1.782750516115674,2.575698139192347,-0.0033917117825691093,-0.33697304606552736,0.35431400147525305,0.0,0.18742238236539263,2.179794468027228,3.436172143228505,-0.3182430492634996,-1.0128852691817658,-0.33969990047305615,7.856385149542637,0.09892682824481672,0.47465720366697856,-0.2,885.088025176719,990.4883798052833,293.80532377975214,464.5616091224888
0.508,-0.0015741907854948355,-1.2642250671661643,0.18723962320964557,-47.07625978235708,-1.9866472956881773,2.6523231295068745,-0.003419005226857763,-0.34073209326003007,0.35859041108293643,0.0,0.19599216790665636,2.2007237921595255,3.4808558511114347,-0.2691107427266197,-0.9242989443031486,-0.38765860257030993,7.821093023214016,0.09108889462431916,0.506880609872241,-0.19399448526577945,875.8818805213245,986.5393904697899,298.9368944459505,482.35503068596444
