Time_s,X,Y,Z,Roll_deg,Pitch_deg,Yaw_deg,Ref_X,Ref_Y,Ref_Z,Ref_Yaw,vx,vy,vz,p,q,r,T_pert,tau_x,tau_y,tau_z,RPM_0,RPM_1,RPM_2,RPM_3
0.0,3.907672823421635e-23,-2.0,0.010006999594037988,3.1588276933026285e-18,-1.2404722931936249e-18,-1.2671305083394822e-20,0.0,0.0,0.0018,0.0,-7.173352330779748e-20,-400.0,2.0013999188075973,0.0,0.0,0.0,-0.2617578078062146,-1.0,8.791191257433574e-20,5.23863058419095e-22,671.9823942616198,326.9696466733354,326.9696466733352,671.9823942616199
0.0040000000000000036,-2.2845147947142647e-22,-2.0,0.010010999365392528,4.225032291713385e-18,-3.0182454625789816e-18,-5.043015736345434e-21,0.0,0.0,0.0022276152000000006,0.0,-6.955654838364261e-20,-222.22222222222223,1.1123332628213918,0.0,0.0,0.0,0.5979438201855982,-1.0,5.282194954616784e-18,-8.386300535179975e-21,690.4360855811035,363.3879468566115,363.38794685661134,690.4360855811035
0.008,-2.5497588390542926e-22,-2.0,0.010014999136747069,6.781910353186164e-18,-3.0197562868281444e-18,-4.5045826412275385e-22,0.0,0.0,0.0027220188234528,0.0,-2.4966909670029753e-20,8.242035927722275e-23,0.0009999428386350817,0.0,0.0,0.0,0.7469650936410832,-1.0,-2.3679603789316472e-18,-5.152975704792664e-21,693.5849329723077,369.3357157036227,369.3357157036226,693.5849329723077
0.012000000000000004,-7.967076187211747e-23,-4.0,0.010018998908101609,-1.118750166463498e-18,7.42624295240663e-19,-2.366002706563282e-19,0.0,0.0,0.0032823916107465228,0.0,-2.1668185325106278e-20,-3.120855137539694e-23,0.0009999428386350817,0.0,0.0,0.0,0.8964547398850998,-1.0,-6.503745386710333e-18,2.7588362711024535e-19,696.7293790314195,375.2074616177218,375.2074616177216,696.7293790314195
0.012000000000000004,-2.9637167455533226e-21,-5.999999999959355,0.010018999017371797,-9.322472987266558e-08,-6.731030321629222e-18,1.410807854844708e-19,0.0,0.0,0.0077131895585773455,0.0,-2.0634589059857284e-19,3.813792117671947e-09,0.0009999531331277745,0.0,0.0,0.0,-0.07379393592776633,-1.0,5.166890656153734e-19,-5.8113037805314155e-21,676.0601088542337,335.27016334905954,335.2701633490594,676.0601088542338
0.016000000000000007,-1.790870985573632e-22,-4.0,0.01002299867945615,5.639074178672896e-19,5.184391000672441e-19,-2.935665008464104e-19,0.0,0.0,0.008660437558244609,0.0,6.498711214173164e-21,-1.665011591162823e-23,0.0009999428386350817,0.0,0.0,0.0,1.8405348029066018,1.0,-4.0390387774434546e-17,5.019156080656664e-19,410.3533902107049,716.2688693565515,716.2688693565514,410.35339021070496
0.02000000000000001,-2.804463817309464e-23,-2.0,0.01002699845081069,9.390763323155573e-18,-1.454759698654859e-18,5.033515464216558e-21,0.0,0.0,0.009668006806163768,0.0,1.9530970591465025e-20,1.4851007939685628e-22,0.0009999428386350817,0.0,0.0,0.0,1.9930213959267575,1.0,3.0666556581058814e-17,-3.3676467863935467e-19,415.7515096732612,719.3750802936457,719.3750802936457,415.75150967326124
0.024,1.43261260582067e-22,-2.0,0.01003099822216523,1.2040911044248055e-17,4.428274880899712e-21,2.552344569757552e-20,0.0,0.0,0.010735137174862871,0.0,3.7998637551434245e-20,1.7325104083147113e-22,0.0009999428386350817,0.0,0.0,0.0,2.145892478751318,-1.0,-1.9504491429001327e-18,-2.4149949555030897e-20,722.4757181698741,421.0937840828121,421.09378408281196,722.4757181698741
0.024,-2.225787059006884e-22,-4.0,0.01003099822216523,-3.39312279359937e-19,3.005101214973433e-19,-3.875593609097028e-19,0.0,0.0,0.017540988284291292,0.0,-1.2271346708395889e-20,2.111337446697382e-25,0.0009999428386350817,0.0,0.0,0.0,0.23922548850632522,-1.0,-5.340679805534178e-21,1.6013100997861974e-20,682.7967529722287,348.6548687707163,348.6548687707161,682.7967529722288
0.028000000000000004,-4.653416372963224e-13,-5.999985528395145,0.010078377773695208,-0.033142380405588465,-4.436658807116605e-10,-2.074177849684043e-10,0.0,0.0,0.018957192987936116,0.0,-4.652733423150953e-11,0.00144550439758875,0.005338380410559918,-0.05784399100046943,-7.742004407324344e-10,-3.6240412374252653e-10,3.0173086113349825,-1.0,5.940681785092312e-09,2.422967713488715e-10,739.9022896469711,450.33788639242886,450.3378851026402,739.9022916291551
0.028000000000000004,2.0197757338451854e-22,-2.0,0.01003499799351977,1.252245815254968e-17,2.74040026659526e-19,1.7829453167902206e-20,0.0,0.0,0.027396293621377632,0.0,2.890576907846269e-20,1.9569105509397519e-22,0.0009999428386350817,0.0,0.0,0.0,0.5536132599190053,-1.0,3.5756551641986014e-12,1.4480492488178668e-14,689.4965973417366,361.59973644234304,361.599736440712,689.4965973426687
0.028000000000000004,-1.6352574895994308e-22,-4.0,0.01003499799351977,-1.4020448521885192e-18,1.4616338372360232e-18,-4.521862255465539e-19,0.0,0.0,0.03710439155255342,0.0,-1.789890656580941e-20,-9.378738203210547e-24,0.0009999428386350817,0.0,0.0,0.0,0.863595012227624,-1.0,3.5768323137206786e-12,1.4480511913564414e-14,696.0394078318353,373.92468346477403,373.9246834631963,696.0394078327589
0.03200000000000001,-3.459831812988452e-21,1.3845579627174353e-21,0.01003899776487431,-5.652902205509872e-18,-2.061396875136395e-17,1.233015104013424e-19,0.0,0.0,0.039093375945657864,0.0,-1.1987511989491296e-19,2.4921196140253246e-20,0.0009999428386350817,0.0,0.0,0.0,4.892262115871736,1.0,3.577131949233452e-12,1.4479839684455593e-14,507.5790774631756,776.0719736155241,776.0719736147639,507.57907746444226
0.03200000000000001,-1.2503793644866297e-12,-5.999965303161326,0.010142875993133097,-0.07937333527443625,-2.021506176873943e-09,-2.788970692004887e-10,0.0,0.0,0.05020641855489766,0.0,-1.2485772976353521e-10,0.0033194598141489348,0.010965600535947615,-0.1328680869727729,-3.5274145545430957e-09,-4.897495957133585e-10,1.2786939634759844,-1.0,1.5957248793707512e-10,1.1544774389215904e-11,704.7058035652819,389.8192931111713,389.8192930947639,704.7058036342484
0.03200000000000001,-1.5433156283827405e-22,-4.0,0.01003899776487431,-6.315328453096336e-19,1.4397432508652604e-18,-5.066189258971688e-19,0.0,0.0,0.062407492830883655,0.0,-2.4796633365618943e-21,-1.519018775734293e-23,0.0009999428386350817,0.0,0.0,0.0,1.671955031085411,-1.0,1.1552402871253243e-11,1.118339569474016e-13,712.8190803567812,404.30168559230066,404.30168558788216,712.8190803598608
0.03200000000000001,6.072478924427793e-23,-2.0,0.01003899776487431,1.3477041335091644e-17,-4.1843762857484087e-19,2.2791491306974664e-21,0.0,0.0,0.0756203359067627,0.0,-2.402302819165959e-21,2.1896462414532886e-22,0.0009999428386350817,0.0,0.0,0.0,2.0944188758872673,-1.0,1.1569396415058124e-11,1.1183393608514123e-13,721.4331827885123,419.3025743785235,419.30257437425604,721.4331827915593
0.03600000000000001,-3.789001476615313e-21,1.5658424337073586e-21,0.010042997536228851,-5.845875328636698e-18,-2.2529224215816874e-17,1.5969053224878205e-19,0.0,0.0,0.07830047136646376,0.0,-1.216284466907534e-19,3.514650864305478e-20,0.0009999428386350817,0.0,0.0,0.0,7.525942445744969,1.0,1.1572865779118338e-11,1.118337522035952e-13,578.4959018408395,824.2018544037186,824.2018544015467,578.4959018446403
0.03600000000000001,-1.488855055484604e-22,-4.0,0.010042997536228851,-1.0151436826961428e-18,1.6685762655517706e-18,-5.613764794218299e-19,0.0,0.0,0.09262663760282891,0.0,-6.537600171586777e-21,-1.8122234112838238e-23,0.0009999428386350817,0.0,0.0,0.0,2.638282745365783,-1.0,1.1589788414956394e-11,1.1183395937611343e-13,732.3734915328702,437.85813085079064,437.858130846696,732.3734915358763
0.03600000000000001,-1.9255259062306413e-12,-5.999934737626729,0.01023801331785441,-0.14904007047347922,-3.3690602964041123e-09,-3.398934094767095e-10,0.0,0.0,0.1078098698911696,0.0,-1.918095994294974e-10,0.005692184242363969,0.01809493636095634,-0.22791400551168653,-5.875296427088426e-09,-6.007819778932889e-10,3.11797546724585,-1.0,2.700539103484165e-10,1.4163867239412751e-11,741.8890509214636,453.5947261800243,453.5947261345049,741.889051019089
0.03600000000000001,-5.640621010136223e-23,-2.0,0.010042997536228851,1.394532661474054e-17,-9.804587011805186e-19,1.5238490915708493e-20,0.0,0.0,0.1237850793593078,0.0,-3.335874717045009e-20,2.331385923491744e-22,0.0009999428386350817,0.0,0.0,0.0,3.6356674822354798,-1.0,2.479552470575109e-11,2.3047911775734115e-13,752.0233186521838,469.9871098799377,469.9871098717423,752.023318658426
0.04,2.2336517083663713e-23,-4.0,0.010046997307583391,-1.844743627045778e-18,3.9264367001787526e-18,-6.156446120552214e-19,0.0,0.0,0.12700932448735497,0.0,4.058732207991703e-21,-2.055733520928902e-23,0.0009999428386350817,0.0,0.0,0.0,10.171663185572653,-1.0,2.4803787980720992e-11,2.30479854727503e-13,869.8745901661724,641.8961086292873,641.8961086232846,869.8745901715704
0.04,-2.508797748217306e-12,-5.999891551121184,0.010370186444528485,-0.2470636526313454,-4.5210487574229586e-09,-3.9127383213378894e-10,0.0,0.0,0.14384896819713805,0.0,-1.620365913207889e-10,0.00843580478435048,0.02634536596241612,-0.33789835707714655,-5.682551762773254e-09,-2.688765419195754e-10,4.26790152963644,-1.0,3.7093570497076776e-10,1.640670603680102e-11,764.2175855895275,489.26202581054355,489.2620257411897,764.2175857124131
0.04,-4.062582772708426e-21,2.032601024407849e-21,0.010046997307583391,-7.977389981522994e-18,-2.3740824822423128e-17,1.5981578875868153e-19,0.0,0.0,0.16134876921295674,0.0,-9.267199476444125e-20,6.086824687488e-20,0.0009999428386350817,0.0,0.0,0.0,4.839025724707362,-1.0,4.250701158743432e-11,3.6705944477042375e-13,775.0682744306953,506.0431223638282,506.0431223506788,775.0682744410118
0.04,-1.2302900295303823e-22,-2.0,0.010046997307583391,1.5054570150498686e-17,-1.1022258393500519e-18,2.2889056110774015e-21,0.0,0.0,0.17945336827553465,0.0,-3.137576695608027e-20,2.5051117853579357e-22,0.0009999428386350817,0.0,0.0,0.0,5.419488143263304,-1.0,4.258009369289693e-11,3.670594512271881e-13,785.942895300814,522.5466929726073,522.546692959849,785.9428953110038
0.044000000000000004,-1.9460906890370727e-22,-4.0,0.010050997078937932,-1.5220498376080297e-18,3.0198099360348522e-18,-6.622715547570034e-19,0.0,0.0,0.18309637672904214,0.0,-5.029872698947933e-21,-2.3822769110955193e-23,0.0009999428386350817,0.0,0.0,0.0,10.19,-1.0,4.259470644829211e-11,3.6706022753873285e-13,870.182771514084,642.313683104073,642.3136830936899,870.1827715232903
0.044000000000000004,-4.5822919234966875e-21,1.9878001089057454e-21,0.010050997078937932,-7.163565386194157e-18,-2.6323277953186656e-17,1.7259956818751133e-19,0.0,0.0,0.20185372972147111,0.0,-9.199033069616807e-20,6.070043804033627e-20,0.0009999428386350817,0.0,0.0,0.0,6.137196098239675,-1.0,4.2667795936511976e-11,3.670594442315608e-13,799.1841673239006,542.2583747292508,542.2583747169285,799.1841673339404
0.044000000000000004,-1.6768828018684068e-22,-2.0,0.010050997078937932,1.6509712969558442e-17,-1.8337643544600928e-18,-5.457287854881101e-21,0.0,0.0,0.22110397317760505,0.0,-1.9801421115442813e-20,2.677877422566697e-22,0.0009999428386350817,0.0,0.0,0.0,6.755008243554708,-1.0,4.274087791508248e-11,3.6705945153262253e-13,810.4091661792777,558.6696951600558,558.6696951480727,810.4091661891941
0.044000000000000004,-2.9224769223175285e-12,-5.999833848432004,0.010544360824667429,-0.37729327277026387,-5.502093934152457e-09,-3.640958065587008e-10,0.0,0.0,0.2408002084505111,0.0,-1.2964426579612898e-10,0.01160097837450332,0.035871983769859825,-0.46488514186843943,-4.85850577188084e-09,-1.1229116516646382e-10,7.3716944917175615,-1.0,4.627380604623675e-10,1.54196796452114e-11,821.4607558586492,574.5838365490744,574.5838364593463,821.4607559900336
0.04800000000000001,-4.795002168724305e-21,2.19367538610503e-21,0.010054996850292472,-7.922600872007231e-18,-2.7592197065890202e-17,1.8044022504645141e-19,0.0,0.0,0.2447555157329331,0.0,-8.795040964384681e-20,5.262078310828056e-20,0.0009999428386350817,0.0,0.0,0.0,10.19,1.0,-4.0011080277269564e-08,-4.098763783576102e-10,642.3136890493544,870.1827679874027,870.1827750499715,642.3136771484083
0.04800000000000001,-2.2051887312972547e-22,-4.0,0.010054996850292472,-1.1048147873253343e-18,2.974849327302683e-18,-7.142000016159273e-19,0.0,0.0,0.26492517999615695,0.0,-1.9648628246693838e-20,-2.3341224112974602e-23,0.0009999428386350817,0.0,0.0,0.0,8.161360510952543,-1.0,4.4168976570986535e-11,4.941528931661794e-13,835.398861987332,594.3400291693798,594.3400291580928,835.3988619975245
0.04800000000000001,-3.0135156111724835e-12,-5.999758534895299,0.010768642118845463,-0.5460132621347407,-5.646237096300893e-09,-3.6849700986354765e-10,0.0,0.0,0.2854462317415908,0.0,-7.431755599974269e-11,0.015305554438582978,0.04703344575089864,-0.613650112159976,-2.9274452435699963e-09,-1.7885741543738793e-11,8.798204418110041,-1.0,4.753444890671169e-10,1.572872967621581e-11,846.4723967947732,609.8067975575728,609.8067974703915,846.4723969255091
0.04800000000000001,-2.9765023152015424e-22,-2.0,0.010054996850292472,1.7255777613055112e-17,-2.8111812276880496e-18,-1.0589406619678267e-20,0.0,0.0,0.3062791187737312,0.0,-1.9815041078447193e-20,2.850906232533833e-22,0.0009999428386350817,0.0,0.0,0.0,9.490912949778027,-1.0,6.63072264619723e-11,6.227825864439408e-13,858.3551237972612,626.1967184679038,626.1967184514742,858.3551238118994
0.05200000000000001,-3.1105983454873113e-12,-5.999661312878759,0.011054009981949883,-0.761762308623077,-5.790329833407808e-09,-3.72099030212707e-10,0.0,0.0,0.3104566712030063,0.0,-2.828262167512035e-11,0.01975188635210776,0.06044550444579344,-0.792392136066433,-1.3262433716829598e-09,6.274211942722818e-11,10.19,-1.0,4.307551238920745e-08,4.35293289824988e-10,870.1827667962999,642.3136882578457,642.3136779399172,870.1827762410743
0.05200000000000001,-4.052255604097434e-22,-2.0,0.010058996621647012,1.8789506709480683e-17,-3.2496651543895465e-18,-2.3929452257912983e-20,0.0,0.0,0.3316117566165165,0.0,-2.9438230342313073e-20,3.0344931788686626e-22,0.0009999428386350817,0.0,0.0,0.0,10.19,-1.0,9.23586259466427e-11,6.487599998819061e-13,870.1827715088607,642.3136831103477,642.313683087415,870.1827715285136
0.05200000000000001,-2.351634918824402e-22,-4.0,0.010058996621647012,-1.3516945163622797e-18,3.3655138969788534e-18,-7.534236939854216e-19,0.0,0.0,0.35299908632426125,0.0,2.6974899206328628e-21,-2.3211665230951488e-23,0.0009999428386350817,0.0,0.0,0.0,10.19,-1.0,9.251466344185765e-11,6.487600300493533e-13,870.1827715088452,642.3136831103686,642.3136830873941,870.1827715285291
0.05200000000000001,-4.82245887645817e-21,2.4642261105307294e-21,0.010058996621647012,-9.135398351995157e-18,-2.7896981391965315e-17,1.9611117593943265e-19,0.0,0.0,0.37458547707184947,0.0,-3.974291684806074e-20,4.581840973804904e-20,0.0009999428386350817,0.0,0.0,0.0,10.19,-1.0,9.267070365589093e-11,6.487599910562302e-13,870.1827715088298,642.3136831103897,642.3136830873732,870.1827715285445
0.056,-4.774723914089143e-22,-2.0,0.010062996393001553,1.9291018870393766e-17,-3.639291904132666e-18,-1.6136316720405616e-20,0.0,0.0,0.3789094628063983,0.0,-2.3004537982512992e-20,3.1783979577760097e-22,0.0009999428386350817,0.0,0.0,0.0,10.19,-1.0,9.270183231275703e-11,6.487602389811732e-13,870.1827715088267,642.3136831103938,642.313683087369,870.1827715285476
0.056,-2.47426572275181e-22,-4.0,0.010062996393001553,-2.2611344135501874e-18,3.683559682355168e-18,-7.972571194129974e-19,0.0,0.0,0.4006911772422521,0.0,-1.5987496950638263e-20,-2.626809700788549e-23,0.0009999428386350817,0.0,0.0,0.0,10.19,-1.0,9.28579469847733e-11,6.487600320572007e-13,870.1827715088112,642.3136831104147,642.3136830873481,870.1827715285631
0.056,-7.044740983817811e-09,-5.999539404537963,0.011411478526001108,-1.033186831199647,-9.275633337049595e-09,-5.410775008790957e-06,0.0,0.0,0.42260536675243665,0.0,-7.046696432753897e-07,0.02489069574056883,0.07652712628561184,-1.006726611649212,1.5001829241738026e-07,-9.441749132875499e-06,10.19,-1.0,6.900304958814285e-08,2.2369545571696612e-07,870.1825297413803,642.3133740606669,642.3139921369474,870.1830132959267
0.056,-5.175433367360505e-21,2.6340529625012002e-21,0.010062996393001553,-9.672433243683311e-18,-2.9870438229351334e-17,2.2936720480306595e-19,0.0,0.0,0.44462436006193296,0.0,-5.0369794720686505e-20,5.507109951394061e-20,0.0009999428386350817,0.0,0.0,0.0,10.19,-1.0,5.289708394428646e-09,1.8893655397504426e-09,870.1827690105374,642.313681120103,642.31368507766,870.1827740268369
0.060000000000000005,-6.912381093246545e-22,-2.0,0.010066996164356093,1.9838724823444715e-17,-4.775073111067378e-18,-3.932685989322561e-20,0.0,0.0,0.4490313066629272,0.0,-3.9365414073400624e-20,3.3559050515767387e-22,0.0009999428386350817,0.0,0.0,0.0,10.19,-1.0,5.307561462114702e-09,1.889365540064304e-09,870.1827690087696,642.3136811224979,642.313685075265,870.1827740286046
0.060000000000000005,-5.557423188693168e-21,2.6767098114685227e-21,0.010066996164356093,-1.0404569664063186e-17,-3.162500019398116e-17,2.292533567053288e-19,0.0,0.0,0.47113982751160344,0.0,-5.175567737331164e-20,2.154876600868068e-20,0.0009999428386350817,0.0,0.0,0.0,10.19,-1.0,5.3968272899523056e-09,1.88936553975037e-09,870.1827689999307,642.3136811344724,642.3136850632906,870.1827740374434
0.060000000000000005,-3.294531164213316e-08,-5.999400882818731,0.011847640581129932,-1.3656416968154663,-2.4043702222983985e-08,-2.536210301910064e-05,0.0,0.0,0.4932978112645987,0.0,-3.2987909147256205e-06,0.029483555160080048,0.0950163481413153,-1.253514584859357,8.619302476677701e-07,-4.4256073638986576e-05,10.19,-1.0,3.2637341672897935e-07,1.050421365052366e-06,870.1816359557924,642.3122322420709,642.3151339524147,870.1839070801
0.060000000000000005,-3.4634524607545825e-22,-4.0,0.010066996164356093,-3.778363847691924e-18,3.3002813155066702e-18,-8.82881953119112e-19,0.0,0.0,0.5154823479622761,0.0,-3.4592282236355096e-20,-4.0118877011997633e-23,0.0009999428386350817,0.0,0.0,0.0,10.19,-1.0,2.980990826590867e-08,1.0742409598062297e-08,870.1827572843712,642.3136718124238,642.313694385339,870.1827857530028
0.064,-1.4130339837747095e-22,-4.0,0.010070995935710633,-5.3927363014541e-18,4.3955438567289524e-18,-9.294473790753252e-19,0.0,0.0,0.5199194550492106,0.0,4.750283811040624e-21,-6.501584357674297e-23,0.0009999428386350817,0.0,0.0,0.0,10.19,-1.0,2.991110718986803e-08,1.0742409598116754e-08,870.1827572743507,642.313671825999,642.3136943717636,870.1827857630233
0.064,-8.035640903955508e-22,-2.0,0.010070995935710633,2.068804957681749e-17,-5.7023099329176065e-18,-2.903166825673495e-20,0.0,0.0,0.542105930848258,0.0,-3.255146144556777e-20,3.5127180779607414e-22,0.0009999428386350817,0.0,0.0,0.0,10.19,-1.0,3.0417101832316064e-08,1.0742409598027369e-08,870.1827572242487,642.3136718938754,642.3136943038874,870.1827858131253
0.064,-5.380916593977154e-21,2.5224829444409223e-21,0.010070995935710633,-9.92098666292231e-18,-3.1092746800010157e-17,2.60417109683676e-19,0.0,0.0,0.5642733227615991,0.0,-4.414359970304811e-20,-6.582208119407978e-21,0.0009999428386350817,0.0,0.0,0.0,10.19,-1.0,3.092309647233634e-08,1.0742409598015413e-08,870.1827571741467,642.3136719617517,642.3136942360111,870.1827858632272
0.064,-7.793190055759673e-08,-5.999251329847256,0.012371370775915495,-1.7663605929801234,-5.477650667067033e-08,-6.0144596566340644e-05,0.0,0.0,0.5864028251696544,0.0,-7.692289306783815e-06,0.03242321716807362,0.11561629594047287,-1.5294076601200473,2.4533648115458806e-06,-0.00010337254038583841,10.19,-1.0,7.90336400099674e-07,2.4972686274786943e-06,870.1800704048622,642.3102357648503,642.3171304144107,870.1854726241276
0.068,-1.1616446453654214e-21,-2.0,0.010074995707065174,2.2362482760903007e-17,-7.932277406595163e-18,-4.705085660866431e-20,0.0,0.0,0.5908265043437799,0.0,-6.052448468966186e-20,3.6828858794335397e-22,0.0009999428386350817,0.0,0.0,0.0,10.19,1.0,-0.0009073359882928189,-6.775693193287101e-05,642.5317709439565,870.1640940636835,870.2014485728097,642.0955211802394
0.068,-5.928701305495712e-21,2.6111061835409442e-21,0.010074995707065174,-1.0900474345562034e-17,-3.397280786815628e-17,2.782140451677792e-19,0.0,0.0,0.6128860526082609,0.0,-6.317129849054822e-20,3.976776358599374e-21,0.0009999428386350817,0.0,0.0,0.0,10.19,-1.0,-4.461305884958614e-07,3.173683434534104e-08,870.1827823603152,642.3135780948502,642.3137881028955,870.1827606770588
0.068,-1.3826837332873492e-07,-5.999093823052014,0.01299120190716467,-2.242121614364721,-8.711146899913381e-06,-0.00010626879462884133,0.0,0.0,0.6348704305295256,0.0,-1.2099856556005725e-05,0.033541144750433155,0.13828344102695259,-1.833926944131111,-1.0229477060872509e-05,-0.00016230323558776184,10.19,-1.0,1.5149278836880566e-06,4.425151356558139e-06,870.1779738156184,642.3075897758466,642.3197763641123,870.1875691953041
0.068,-4.237266762499152e-22,-4.0,0.010074995707065174,-6.4678033786136725e-18,3.2176369950895028e-18,-9.740145034405132e-19,0.0,0.0,0.6567643623880378,0.0,-1.3922686517476495e-20,-9.355988933601794e-23,0.0009999428386350817,0.0,0.0,0.0,10.19,-1.0,-3.113815370498236e-07,6.883164151337174e-08,870.1827300576253,642.313543388766,642.3138228089665,870.1828129797469
0.07200000000000001,-6.319356321365627e-21,2.782413899756296e-21,0.010078995478419714,-1.204951458087805e-17,-3.5658904267255223e-17,2.885367942915257e-19,0.0,0.0,0.6611389598062338,0.0,-7.549713116967446e-20,1.3817015076274337e-20,0.0009999428386350817,0.0,0.0,0.0,10.19,1.0,-3.1073338977111025e-07,6.883164151189694e-08,642.3136268420251,870.1826684577313,870.1828745796308,642.3137393557328
0.07200000000000001,-9.26183825008457e-22,-2.0,0.010078995478419714,2.4180494744522527e-17,-6.553624649823674e-18,-5.232980727096988e-20,0.0,0.0,0.6829045426079297,0.0,-2.16731855021957e-20,3.8925274807951525e-22,0.0009999428386350817,0.0,0.0,0.0,10.19,-1.0,-3.0749265406137114e-07,6.883164151333394e-08,870.1827296725603,642.3135439104379,642.3138222872947,870.182813364812
0.07200000000000001,-2.5236755759746164e-22,-4.0,0.010078995478419714,-6.092872807114048e-18,3.938081808307969e-18,-1.0360476600889924e-18,0.0,0.0,0.7045495763531766,0.0,-6.369813287011086e-22,-1.0766723188535752e-22,0.0009999428386350817,0.0,0.0,0.0,10.19,-1.0,-3.0425191823902027e-07,6.883164151337462e-08,870.1827293516726,642.3135443451647,642.3138218525681,870.1828136856996
0.07200000000000001,-1.992461054195926e-07,-5.998927574159387,0.013716475904566676,-2.797007203083502,-5.431588008775585e-05,-0.0001515401202188199,0.0,0.0,0.7260618134549909,0.0,-1.4644286919267126e-05,0.033610468237003456,0.16326320796702581,-2.1642058756896327,-8.739714498249734e-05,-0.00019710596614238971,10.19,-1.0,5.495223468857188e-06,6.333874612900745e-06,870.1755749721384,642.305407778494,642.3219583126543,870.1899680057197
0.07600000000000001,-9.517390109835485e-22,-2.0,0.010082995249774254,2.4679696433063207e-17,-6.580830590789976e-18,-5.52436778130378e-20,0.0,0.0,0.730358493281025,0.0,9.892352118140111e-22,4.1064269200688096e-22,0.0009999428386350817,0.0,0.0,0.0,10.19,1.0,-0.0023795082279387063,-0.000170678369322419,642.8754920719272,870.1264197346061,870.2391196537441,641.7513823011041
0.07600000000000001,-6.831193246645263e-21,2.70759763610073e-21,0.010082995249774254,-1.1034488122335527e-17,-3.8204676835639655e-17,2.8857892201805086e-19,0.0,0.0,0.7516955658194324,0.0,-1.0159346835382112e-19,-5.9184881359209544e-21,0.0009999428386350817,0.0,0.0,0.0,10.19,-1.0,-1.3305275740378853e-06,1.2172912244704907e-07,870.1827754126781,642.313331408518,642.3140347890522,870.1827676246962
0.07600000000000001,-2.598455673593476e-07,-5.998749723925639,0.014556074700882922,-3.4335998005952604,-0.00014060985526655764,-0.000194199624347038,0.0,0.0,0.7728758879962979,0.0,-1.513194213458662e-05,0.03314463032616175,0.19054931691098936,-2.5116472562843315,-0.00023510707066489643,-0.00020622733453800344,10.19,-1.0,1.1200524026051076e-05,8.15042139090144e-06,870.1731021285002,642.3035883365123,642.3237777026012,870.1924408014298
0.07600000000000001,-4.204225689422596e-22,-4.0,0.010082995249774254,-7.311095862367231e-18,3.776026896054228e-18,-1.088251232106056e-18,0.0,0.0,0.7938898025433548,0.0,-1.8520817648169332e-20,-1.1496421882635133e-22,0.0009999428386350817,0.0,0.0,0.0,10.19,-1.0,-6.377042734985277e-07,1.8951757946694517e-07,870.1826356140056,642.3133278912312,642.3140383063353,870.1829074233475
0.08000000000000002,-3.204028622322563e-07,-5.9985569239906145,0.015517245545942164,-4.153494268583155,-0.0002706134010138492,-0.00023353111508835924,0.0,0.0,0.7980855720249618,0.0,-1.4754917772722069e-05,0.03244052577969698,0.22001990372786812,-2.86930935764334,-0.00041481889261916403,-0.00020740041288084028,10.19,1.0,0.004049003873693384,0.0002729907882420144,641.3814188096708,870.2969646867153,870.068563363243,643.2445962445345
0.08000000000000002,-7.415057313837276e-21,2.9063454003937224e-21,0.010086995021128795,-1.1563376509133664e-17,-4.2185216578442595e-17,3.0666553074549157e-19,0.0,0.0,0.8188874115736916,0.0,-1.2985436776185665e-19,1.296580498045794e-20,0.0009999428386350817,0.0,0.0,0.0,10.19,-1.0,1.8107677314705423e-06,2.0582112692347064e-07,870.1823760503968,642.3136331419967,642.3137330557623,870.1831669867978
0.08000000000000002,-1.0012489115701937e-21,-2.0,0.010086995021128795,2.4806385114749945e-17,-7.035884278371088e-18,-7.324435178793554e-20,0.0,0.0,0.8395041420790814,0.0,9.921024554771939e-21,4.2336607694004086e-22,0.0009999428386350817,0.0,0.0,0.0,10.19,-1.0,1.8206261309051973e-06,2.0582112692348623e-07,870.1823750742482,642.313634464446,642.3137317333133,870.1831679629454
0.08000000000000002,-6.293880437164088e-22,-4.0,0.010086995021128795,-7.177565271985298e-18,2.7667795320621157e-18,-1.152856995856693e-18,0.0,0.0,0.8599283150262766,0.0,-2.807121179122874e-20,-1.2109601823504606e-22,0.0009999428386350817,0.0,0.0,0.0,10.19,-1.0,1.8304845303415877e-06,2.0582112692353088e-07,870.1823740980997,642.3136357868954,642.313730410864,870.1831689390931
0.08400000000000002,-1.2800265922096606e-21,-2.0,0.010090994792483335,2.5656862183479772e-17,-8.613521224742118e-18,-1.0171870653822659e-19,0.0,0.0,0.8640051741813015,0.0,-4.724627845627364e-20,4.3368776909396135e-22,0.0009999428386350817,0.0,0.0,0.0,10.19,1.0,1.8324562102498705e-06,2.0582112692230308e-07,642.3131444236064,870.1827367912125,870.1828062461603,642.3142217737045
0.08400000000000002,-8.79748528810714e-22,-4.0,0.010090994792483335,-7.585466945048841e-18,1.5223090848566638e-18,-1.2050318297454775e-18,0.0,0.0,0.884188807553155,0.0,-5.764367080079747e-20,-1.2843805009921024e-22,0.0009999428386350817,0.0,0.0,0.0,10.19,-1.0,1.8423146096661595e-06,2.0582112692353345e-07,870.1823729267214,642.3136373738347,642.313728823925,870.1831701104703
0.08400000000000002,-7.861041096192046e-21,3.046097582077117e-21,0.010090994792483335,-1.2044233787540212e-17,-4.4297589450706614e-17,3.2471305453233973e-19,0.0,0.0,0.9041656529958995,0.0,-1.4332563510954567e-19,3.739552105312868e-20,0.0009999428386350817,0.0,0.0,0.0,10.19,-1.0,1.8521730091065502e-06,2.0582112692347064e-07,870.1823719505728,642.313638696284,642.3137275014758,870.1831710866179
0.08400000000000002,-3.813146254507865e-07,-5.998345335632849,0.016604445002460742,-4.947183281056144,-0.0004633260047225512,-0.0002677588893886006,0.0,0.0,0.9239301386243829,0.0,-1.4171269920587089e-05,0.03149795774738104,0.2511905934189859,-3.215309036850131,-0.000634610084136544,-0.00021118870674715113,10.19,-1.0,3.8533410313638296e-05,1.127563515088134e-05,870.1671132471407,642.302808035762,642.3245579778775,870.1984295084801
0.08800000000000002,-9.168857507180398e-22,-4.0,0.010094994563837875,-8.851997421310354e-18,1.3351513772422912e-18,-1.2646989309230659e-18,0.0,0.0,0.9278743394995808,0.0,-4.295231615709135e-20,-1.381217566528265e-22,0.0009999428386350817,0.0,0.0,0.0,10.19,1.0,-0.0049452599302481385,-0.0003014903952301532,643.4051231491048,870.0097419769157,870.3557666616266,641.2203852791843
0.08800000000000002,-8.444889004175655e-21,3.211386031172305e-21,0.010094994563837875,-1.2641799800809206e-17,-4.806863732250687e-17,3.405049380400762e-19,0.0,0.0,0.9473769967074611,0.0,-1.3090376637753445e-19,3.909734873555554e-20,0.0009999428386350817,0.0,0.0,0.0,10.19,-1.0,1.1506061000448882e-06,2.992866113497579e-07,870.1823432517964,642.3134115936346,642.3139546040135,870.1831997853669
0.08800000000000002,-1.5318023745595181e-21,-2.0,0.010094994563837875,2.5712989583718372e-17,-9.933534424842562e-18,-1.2244302217688939e-19,0.0,0.0,0.9666568551858319,0.0,-6.731791827334353e-20,4.442016322389738e-22,0.0009999428386350817,0.0,0.0,0.0,10.19,-1.0,1.1652877903655814e-06,2.99286611349777e-07,870.1823417980603,642.3134135631022,642.3139526345475,870.1832012391018
0.08800000000000002,-4.4342090042524936e-07,-5.998110690074326,0.017822177774278896,-5.813809824943138,-0.0007239459889943364,-0.00029358383094912487,0.0,0.0,0.9857099309858331,0.0,-1.3303775791482996e-05,0.03028933912445126,0.2837234146898467,-3.5440472445349713,-0.0009003727704938761,-0.00021624283161362137,10.19,-1.0,5.700263847978817e-05,1.2436767523631501e-05,870.1640648971127,642.3036334269522,642.3237326135755,870.2014777381274
0.09200000000000003,-8.853173944493153e-21,3.1498105024465218e-21,0.010098994335192416,-1.2492662693097303e-17,-5.085667035976487e-17,3.584951726371505e-19,0.0,0.0,0.989511333206398,0.0,-1.1375636501732505e-19,-4.9505418013475936e-21,0.0009999428386350817,0.0,0.0,0.0,10.19,1.0,-0.005954604500777494,-0.0003304950753731006,643.5814677667987,869.9402465039781,870.4252289590905,641.0433911516704
0.09200000000000003,-1.872972750603081e-21,-2.0,0.010098994335192416,2.7197135990736723e-17,-1.2506629138698285e-17,-1.3319872392714733e-19,0.0,0.0,1.0082873634431666,0.0,-8.203491021614207e-20,4.583613389807862e-22,0.0009999428386350817,0.0,0.0,0.0,10.19,-1.0,1.0028495480301367e-06,4.0176670096339084e-07,870.1822502484627,642.313245954708,642.3141202427573,870.1832927885994
0.09200000000000003,-8.919245042098958e-22,-4.0,0.010098994335192416,-1.0093326781289564e-17,2.048418992899615e-18,-1.3294868240903286e-18,0.0,0.0,1.0268293732386302,0.0,-3.812573870998002e-20,-1.5562579738567345e-22,0.0009999428386350817,0.0,0.0,0.0,10.19,-1.0,1.0231401183823029e-06,4.0176670096344034e-07,870.1822482393521,642.3132486765767,642.3141175208923,870.1832947977074
0.09200000000000003,-5.173051767990293e-07,-5.997848217621058,0.019175094581284982,-6.754732196542393,-0.00012167560826610603,-0.00020053231054686867,0.0,0.0,1.0451347160104514,0.0,-1.3937836143948846e-05,0.028772727332827507,0.31750989942924424,-3.862854013126136,0.0003979237677080613,0.00015062964845110894,10.19,-1.0,1.4715361197876046e-05,8.692267862725769e-06,870.172184994342,642.3032888384256,642.3240771911345,870.1933579142395
0.09600000000000003,-8.633802707782937e-22,-4.0,0.010102994106546956,-1.0479467414669147e-17,2.1521923646766804e-18,-1.3812130311010573e-18,0.0,0.0,1.0487862268923869,0.0,-1.8645492150309923e-21,-1.703806731983807e-22,0.0009999428386350817,0.0,0.0,0.0,10.19,1.0,-0.006154920068494263,-0.00022554718120316596,643.4592390674237,869.8101403049427,870.5552432319176,641.1660803963919
0.09600000000000003,-1.6759253430604137e-21,-2.0,0.010102994106546956,2.802356667996818e-17,-1.1467975845591767e-17,-1.3537385800639205e-19,0.0,0.0,1.0668044204332805,0.0,-3.8689213635597073e-20,4.70429135857445e-22,0.0009999428386350817,0.0,0.0,0.0,10.19,-1.0,-1.6827919490075904e-06,4.717656824768839e-07,870.1824426533037,642.3127860894036,642.3145801071065,870.1831003839462
0.09600000000000003,-9.50217506208919e-21,3.3616922877499163e-21,0.010102994106546956,-1.3283303333970769e-17,-5.418787981285872e-17,3.709976312535573e-19,0.0,0.0,1.0845813983833306,0.0,-1.3975828847390192e-19,3.0021602322747546e-20,0.0009999428386350817,0.0,0.0,0.0,10.19,-1.0,-1.6559579282349423e-06,4.7176568247686303e-07,870.1824399962812,642.3127896890429,642.3145765074773,870.1831030409668
0.09600000000000003,-6.139622089419781e-07,-5.997552679192265,0.02066711825704408,-7.769780277924239,0.002592187947902034,-0.0002810756847339112,0.0,0.0,1.1021156343978324,0.0,-2.2250976970056946e-05,0.026882220331781104,0.3525719061465403,-4.186429499824621,0.0055042161103559025,0.0007011025937399688,10.19,-1.0,-0.0001801797390078822,1.2092128927057444e-05,870.1879121158493,642.2723058637058,642.3550576687467,870.1776308911568
0.1,-7.173946412871806e-07,-5.997218547884184,0.02230049390990651,-8.862461021902172,0.007031202449439799,-0.0005771288882875115,0.0,0.0,1.1056127232714597,0.0,-4.2926968598201566e-05,0.024550116531106295,0.38870165132941714,-4.515531771003149,0.013478023837863461,0.0012417580086758213,10.19,-1.0,-0.0041596951026100885,0.0003579487083098355,870.2187013976893,641.2454725376948,643.3801201016465,870.1468401560776
0.1,-7.924252841741523e-22,-4.0,0.010106993877901496,-1.1710276494506599e-17,2.550995753548327e-18,-1.420328349554055e-18,0.0,0.0,1.1228539895265635,0.0,-3.259892988627673e-21,-1.8684982102111124e-22,0.0009999428386350817,0.0,0.0,0.0,10.19,-1.0,-1.4287759091997324e-05,6.101708026309898e-07,870.1835453924126,642.3108982624115,642.3164679232774,870.1819976442733
0.1,-9.963130038345549e-21,3.2953105617682882e-21,0.010106993877901496,-1.220711852750386e-17,-5.678162170132937e-17,3.868001405135806e-19,0.0,0.0,1.1398502112157871,0.0,-1.2790948574810367e-19,8.60334140745694e-21,0.0009999428386350817,0.0,0.0,0.0,10.19,-1.0,-1.4251344114475297e-05,6.101708026309156e-07,870.1835417867178,642.3109031472987,642.3164630384325,870.1820012499746
0.1,-1.448473031983323e-21,-2.0,0.010106993877901496,2.901141881018149e-17,-1.0084255334123309e-17,-1.4817332808423211e-19,0.0,0.0,1.1566007944135632,0.0,2.1333481471327778e-20,4.879575691018617e-22,0.0009999428386350817,0.0,0.0,0.0,10.19,-1.0,-1.4214929136960773e-05,6.101708026309375e-07,870.1835381810229,642.3109080321859,642.3164581535875,870.1820048556759
0.10400000000000001,-1.0351209860574167e-20,3.664931859305099e-21,0.010110993649256036,-1.4036038231555773e-17,-5.941725724629014e-17,4.101495273961017e-19,0.0,0.0,1.1599410720248449,0.0,-1.2674957664005048e-19,3.5255178915577807e-20,0.0009999428386350817,0.0,0.0,0.0,10.19,1.0,-1.4207646141295872e-05,6.101708026302854e-07,642.3147207672449,870.1807238637679,870.184819168788,642.3126454288415
0.10400000000000001,-1.3168717077212284e-21,-2.0,0.010110993649256036,2.9927699876855936e-17,-1.107213087055413e-17,-1.5591999165019095e-19,0.0,0.0,1.1763964298330463,0.0,4.060929503686622e-20,5.095249747931272e-22,0.0009999428386350817,0.0,0.0,0.0,10.19,-1.0,-1.4171231163939296e-05,6.10170802630938e-07,870.1835338541891,642.3109138940505,642.3164522917735,870.1820091825173
0.10400000000000001,-1.0320103384387292e-21,-4.0,0.010110993649256036,-1.073999085616862e-17,1.341944577458757e-18,-1.4697628107027938e-18,0.0,0.0,1.192605709385906,0.0,-2.408435309877839e-20,-1.933909930787509e-22,0.0009999428386350817,0.0,0.0,0.0,10.19,-1.0,-1.413481618642242e-05,6.101708026309924e-07,870.1835302484942,642.3109187789375,642.3164474069285,870.1820127882185
0.10400000000000001,-8.023566982690487e-07,-5.996839869001251,0.024076812060890577,-10.035664011367842,0.01286671090420597,-0.0011216057541847363,0.0,0.0,1.2085690870271466,0.0,-7.566717913378993e-05,0.021696337323335778,0.4256349827381619,-4.857091401991217,0.020718526247223625,0.0016018491529985184,10.19,-1.0,-0.000922111972982009,4.698012376806406e-05,870.2247324801532,642.1231110005147,642.5041986719785,870.1408085337298
0.10800000000000001,-1.2037848383601695e-21,-2.0,0.010114993420610577,3.0606863437874244e-17,-1.1248572272833804e-17,-1.4565317220515715e-19,0.0,0.0,1.2117519419619227,0.0,3.798009894466396e-20,5.248438275674185e-22,0.0009999428386350817,0.0,0.0,0.0,10.19,1.0,0.004744727617063032,-0.0012631544536119944,643.4734898388117,871.9774059508997,868.3844282384543,641.1517783386092
0.10800000000000001,-9.643489187331783e-22,-4.0,0.010114993420610577,-1.0326143156201092e-17,2.0307089497818552e-18,-1.5188847145556968e-18,0.0,0.0,1.2274207834076052,0.0,-1.8418325144888246e-20,-1.884248031278924e-22,0.0009999428386350817,0.0,0.0,0.0,10.19,-1.0,-6.389298679139941e-05,1.0016850690277522e-06,870.188045929447,642.3036868435297,642.323679198665,870.1774970759575
0.10800000000000001,-1.0656276720525786e-20,3.675999210939304e-21,0.010114993420610577,-1.3740692784089776e-17,-6.102739235980457e-17,4.2559586560820726e-19,0.0,0.0,1.2428448156614798,0.0,-8.022049564457712e-20,3.046746746394687e-20,0.0009999428386350817,0.0,0.0,0.0,10.19,-1.0,-6.384642271522743e-05,1.0016850690276724e-06,870.1880413188446,642.3036930899378,642.3236729524511,870.1775016866158
0.10800000000000001,-8.357752614451563e-07,-5.9964102541232105,0.025997065525106645,-11.291766945826632,0.019802263590311037,-0.001938498388359605,0.0,0.0,1.2580248456460266,0.0,-0.00011872062865848826,0.018236836043145997,0.4632294157466509,-5.210756882645403,0.026573968172810835,0.0019005219527220886,10.19,-1.0,-0.0014651269309785683,8.11439977813407e-05,870.2426171594244,642.0016095234832,642.6256051242881,870.122921761864
0.11200000000000002,-1.111107445550073e-21,-4.0,0.010118993191965117,-9.512741091383219e-18,1.1698368542599846e-18,-1.5683895177599239e-18,0.0,0.0,1.2610511306765297,0.0,-2.3888169687886458e-20,-1.7524084001645965e-22,0.0009999428386350817,0.0,0.0,0.0,10.19,1.0,0.011906349222317796,-0.0021831933215572764,643.8211924182868,873.6477857622045,866.703904530656,640.8026273238864
0.11200000000000002,-7.786718470044127e-07,-5.995922907261,0.02806147281434059,-12.631045895617715,0.027598713124140105,-0.0030541403999251302,0.0,0.0,1.2759397243022859,0.0,-0.00017075725390305004,0.014091603911114381,0.5013669000172556,-5.571452935466544,0.031251365614052964,0.0021397069216959872,10.19,-1.0,-0.0020947888405832703,0.00012794405848104608,870.2558097459391,641.8504612301948,642.7765711432602,870.1097271605041
0.11200000000000002,-1.0999402851943115e-20,4.087136481915439e-21,0.010118993191965117,-1.5834411496188325e-17,-6.241632508953732e-17,4.334415078165893e-19,0.0,0.0,1.2905866565586246,0.0,-7.832374242187964e-20,6.333621502470688e-20,0.0009999428386350817,0.0,0.0,0.0,10.19,-1.0,-0.00023370677953514434,2.7444447733946505e-06,870.2030297435037,642.2784266216539,642.3489376409938,870.1625128222395
0.11200000000000002,-1.3287967209720875e-21,-2.0,0.010118993191965117,3.248182020608625e-17,-1.136398174555391e-17,-1.4077221919946815e-19,0.0,0.0,1.3049932448886803,0.0,4.160725529225712e-21,5.385064147442572e-22,0.0009999428386350817,0.0,0.0,0.0,10.19,-1.0,-0.00023363979413888215,2.744444773394674e-06,870.203023110972,642.2784356078643,642.3489286557697,870.1625194550799
0.11600000000000002,-1.1685152052738327e-20,4.133937675378209e-21,0.010122992963319657,-1.5660517845005147e-17,-6.580712694158366e-17,4.564036503412175e-19,0.0,0.0,1.3078650069858833,0.0,-1.0405355919053218e-19,4.8065930599946114e-20,0.0009999428386350817,0.0,0.0,0.0,10.19,1.0,-0.00023362639705944475,2.7444447733939767e-06,642.3411171417581,870.1567557098195,870.2087865497847,642.2862478842113
0.11600000000000002,-1.3103841676367864e-21,-2.0,0.010122992963319657,3.2579222627465786e-17,-1.1835335773706413e-17,-1.329453902907199e-19,0.0,0.0,1.32198521033645,0.0,-5.848216808012487e-21,5.535897162593548e-22,0.0009999428386350817,0.0,0.0,0.0,10.19,-1.0,-0.00023355941166336308,2.7444447733946738e-06,870.203015151934,642.2784463913166,642.3489178735006,870.1625274144883
0.11600000000000002,-1.003912113825636e-21,-4.0,0.010122992963319657,-8.137605624203945e-18,2.372029460094412e-18,-1.61516098428019e-18,0.0,0.0,1.33586841479668,0.0,-3.446137541621344e-21,-1.613472995382404e-22,0.0009999428386350817,0.0,0.0,0.0,10.19,-1.0,-0.00023349242626709835,2.7444447733947347e-06,870.2030085194023,642.2784553775267,642.3489088882761,870.1625340473287
0.11600000000000002,-5.875418251340612e-07,-5.995370691699035,0.030269154421856306,-14.049118293506204,0.03605941109137653,-0.004485234311560339,0.0,0.0,1.349516345415979,0.0,-0.00023052662216469026,0.009206502544519601,0.5398871394331632,-5.926954957494599,0.034958274935232694,0.002325292495228849,10.19,-1.0,-0.0027942582428849587,0.00018817511262617746,870.26180851643,641.6707742966184,642.9559490398069,870.1037273415163
0.12000000000000002,-1.0161565782767723e-21,-4.0,0.010126992734674198,-7.73084539790497e-18,2.885677518089378e-18,-1.6618774407611461e-18,0.0,0.0,1.3522365939179177,0.0,8.96717636118476e-21,-1.473563417263048e-22,0.0009999428386350817,0.0,0.0,0.0,10.19,1.0,0.032442286156952625,-0.0050509746842629525,645.1424946033201,878.6588070302,861.6233588547567,639.4723580023655
0.12000000000000002,-1.2527705517473673e-21,-2.0,0.010126992734674198,3.3000032309902136e-17,-1.2380606734753814e-17,-1.2503477217166602e-19,0.0,0.0,1.3656047489425027,0.0,9.38529916943915e-21,5.690684555792772e-22,0.0009999428386350817,0.0,0.0,0.0,10.19,-1.0,-0.0003628225711180573,4.3100869025976586e-06,870.2141696815689,642.2588773480617,642.3684841737709,870.1513722228477
0.12000000000000002,-1.2224965436174701e-20,4.586847100034985e-21,0.010126992734674198,-1.779941509627787e-17,-6.960083349488188e-17,4.642630963740037e-19,0.0,0.0,1.3787417703915643,0.0,-1.3112864520022796e-19,8.136500839641443e-20,0.0009999428386350817,0.0,0.0,0.0,10.19,-1.0,-0.0003627481538402353,4.310086902597635e-06,870.2141623132669,642.258887331576,642.3684741919598,870.1513795916813
0.12000000000000002,-2.1482351672115888e-07,-5.994745963534001,0.032619614978037365,-15.548193392342215,0.045021255174409004,-0.006244063276732617,0.0,0.0,1.3916497029603299,0.0,-0.00029691743810927103,0.003527728210080256,0.5787321342122962,-6.277355939646388,0.03788211106724175,0.002470396946238648,10.19,-1.0,-0.003564975801176252,0.0002624550896141217,870.2601073105589,641.4614508121053,643.1647861272642,870.1054288531371
0.12400000000000003,-1.4090935913234712e-21,-4.0,0.010130992506028738,-8.455706313718955e-18,1.9308161116205988e-18,-1.7087340026800255e-18,0.0,0.0,1.3942222110466114,0.0,-2.5207892470886526e-20,-1.4149861563591188e-22,0.0009999428386350817,0.0,0.0,0.0,10.19,1.0,0.046473262908193314,-0.007031162272524547,646.0731379399268,882.0877242130377,858.1126723738272,638.5320942791808
0.12400000000000003,-1.1617278516925568e-21,-2.0,0.010130992506028738,3.489229722883504e-17,-1.204742836690023e-17,-1.173314469136245e-19,0.0,0.0,1.4068581990621924,0.0,1.0583775249783973e-20,5.8457291176459e-22,0.0009999428386350817,0.0,0.0,0.0,10.19,-1.0,-0.0005210568830910808,6.489676160234664e-06,870.2275477685224,642.2345472406217,642.3928092084578,870.1379929647202
0.12400000000000003,3.900220278021301e-07,-5.994040676030136,0.035111916221715216,-17.130574880590437,0.05434358988870167,-0.008337261365778503,0.0,0.0,1.4192698554176828,0.0,-0.00036892121364367765,-0.0030206624965602984,0.6179311357903605,-6.633040301511665,0.040156322358499794,0.0025939048859644183,10.19,-1.0,-0.004392657821548771,0.0003511726594181794,870.2488836808246,641.2238271131293,643.401692983856,870.1166543332945
0.12400000000000003,-1.2538919036656363e-20,4.309025890481099e-21,0.010130992506028738,-1.6326579251132267e-17,-7.156995199221264e-17,4.950961117033418e-19,0.0,0.0,1.4314594695219678,0.0,-1.3081194342851187e-19,2.6767101592095732e-20,0.0009999428386350817,0.0,0.0,0.0,10.19,-1.0,-0.000710883434427763,9.39992938887773e-06,870.2432862462405,642.2049377607648,642.4224100292523,870.1222525824927
0.12800000000000003,-1.2747274681888637e-20,4.499049378432379e-21,0.010134992277383278,-1.6573481854128373e-17,-7.251543502213988e-17,4.953317393624639e-19,0.0,0.0,1.4338886047280717,0.0,-7.498181997897749e-20,2.5804056294147692e-20,0.0009999428386350817,0.0,0.0,0.0,10.19,-1.0,-0.000710868994193266,9.39992938887773e-06,870.2432848165128,642.2049396981696,642.4224080925034,870.1222540124194
0.12800000000000003,-1.2378062314187889e-21,-4.0,0.010134992277383278,-9.07092484078123e-18,3.122869008555678e-18,-1.7604518485378137e-18,0.0,0.0,1.4458150404525048,0.0,-4.0638571040447246e-20,-1.4629640593446629e-22,0.0009999428386350817,0.0,0.0,0.0,10.19,-1.0,-0.0007107967930208075,9.399929388877822e-06,870.2432776678738,642.204949385194,642.4223984087579,870.1222611620525
0.12800000000000003,-1.1184425341671759e-21,-2.0,0.010134992277383278,3.578702968258459e-17,-1.2519870069371363e-17,-1.1984329723908746e-19,0.0,0.0,1.4575246564970645,0.0,3.37873849752944e-20,6.045920713253145e-22,0.0009999428386350817,0.0,0.0,0.0,10.19,-1.0,-0.0007107245918483394,9.399929388877755e-06,870.2432705192349,642.2049590722182,642.4223887250124,870.1222683116856
0.12800000000000003,1.2799102672328374e-06,-5.9932463926527,0.03774459986868409,-18.798152942885054,0.06388250891904163,-0.010760584362690567,0.0,0.0,1.4690199233881034,0.0,-0.00044551088440969374,-0.010536628159193817,0.657477141234814,-6.998372480402891,0.041843783100299334,0.00270075194505082,10.19,-1.0,-0.0052698833485078376,0.00045426907250523287,870.2274641976047,640.9589530799623,643.6655618088786,870.1380765442309
0.132,-8.788441907306809e-22,-2.0,0.010138992048737819,3.582368259175491e-17,-1.1180744223618194e-17,-1.0941011086256347e-19,0.0,0.0,1.4713105034085308,0.0,2.1157405095026023e-20,6.202711925038297e-22,0.0009999428386350817,0.0,0.0,0.0,10.19,1.0,0.08419672225835967,-0.01211504380216299,648.2303132958486,890.9950773204113,848.860344159557,636.3420431784044
0.132,-1.3137780193461471e-20,4.820441348620817e-21,0.010138992048737819,-1.82125761179169e-17,-7.445498803332592e-17,5.211767212678639e-19,0.0,0.0,1.4825520500514715,0.0,-6.91749630022006e-20,4.085657522388497e-20,0.0009999428386350817,0.0,0.0,0.0,10.19,-1.0,-0.0009257014847724387,1.3156081920229058e-05,870.260610441104,642.1707698242295,642.4565645827405,870.1049256328598
0.132,-1.5215015636246999e-21,-4.0,0.010138992048737819,-8.328651635091363e-18,2.34728018847054e-18,-1.7972402763357153e-18,0.0,0.0,1.4935848070507896,0.0,-3.027561934830878e-20,-1.5064888754610488e-22,0.0009999428386350817,0.0,0.0,0.0,10.19,-1.0,-0.0009256454733265573,1.3156081920229153e-05,870.2606048955204,642.1707773395246,642.4565570707884,870.1049311794355
0.132,2.508909737102554e-06,-5.992354294546082,0.04051567987924207,-20.552478299727262,0.07352476528684238,-0.013513992549836684,0.0,0.0,1.5044113723038026,0.0,-0.0005256204226422949,-0.019117244353459437,0.697321287933846,-7.3716207209002516,0.043005512390378274,0.002790885783365638,10.19,-1.0,-0.0061830136575354655,0.000571857922181944,870.1943783589121,640.6684671270272,643.9546957831784,870.1711645236434
0.136,-6.790993802468972e-22,-2.0,0.010142991820092359,3.64844631393159e-17,-1.0361658621766798e-17,-1.2006112699818436e-19,0.0,0.0,1.506568542788395,0.0,3.5950709421166705e-20,6.263995470359326e-22,0.0009999428386350817,0.0,0.0,0.0,10.19,1.0,0.10885673401822228,-0.015213678886932343,649.3203680058791,896.5409814384785,843.0008186812258,635.2297180428591
0.136,-1.838435848413037e-21,-4.0,0.010142991820092359,-7.73561974682521e-18,1.5467107759600977e-18,-1.846723226057384e-18,0.0,0.0,1.5171513323774701,0.0,-5.67715472565433e-20,-1.4785612769115162e-22,0.0009999428386350817,0.0,0.0,0.0,10.19,-1.0,-0.0011667720186877783,1.7873355221921847e-05,870.2795241009612,642.1317095072676,642.4956051502412,870.0860081776351
0.136,4.131697106672661e-06,-5.991355192285423,0.043422627959843973,-22.394823308366167,0.08317378415507404,-0.01658500153198328,0.0,0.0,1.527533718392061,0.0,-0.0006082683175304816,-0.02886025081082747,0.7374187817448907,-7.751363633078509,0.043719118513391525,0.002874200345473395,10.19,-1.0,-0.007126661535603803,0.0007035382941725059,870.1495124802983,640.3536314807468,644.2677716924234,870.2160292859392
0.136,-1.384142943041759e-20,4.749060437505284e-21,0.010142991820092359,-1.7699888429880452e-17,-7.780502996809421e-17,5.3645737881495455e-19,0.0,0.0,1.5377183808992234,0.0,-1.1446668116669511e-19,3.182168237470137e-20,0.0009999428386350817,0.0,0.0,0.0,10.19,-1.0,-0.0014600834918625592,2.366261288555e-05,870.3024836451463,642.0841106712215,642.5431735032652,870.0630429210157
0.14,-5.480029804484977e-22,-2.0,0.0101469915914469,3.707180311205978e-17,-9.973153649162036e-18,-1.2794918942063354e-19,0.0,0.0,1.5397475123489264,0.0,4.3757498782419054e-20,6.347747111937765e-22,0.0009999428386350817,0.0,0.0,0.0,10.19,-1.0,-0.0014600890891277535,2.3662612885550777e-05,870.3024841992939,642.0841099201112,642.5431742538389,870.0630423667155
0.14,6.2024964648147595e-06,-5.990239617667425,0.046462135919502635,-24.32454372488584,0.09273426726255862,-0.0200047855117118,0.0,0.0,1.5496986574014162,0.0,-0.0006925132885137648,-0.039859140035448624,0.7777045630402958,-8.133488615078345,0.04408664487608286,0.0028838342799908513,10.19,-1.0,-0.008120559306862906,0.0008507098706235559,870.093348552495,640.0097549476945,644.6093767266286,870.2721852964128
0.14,-1.6505226486918127e-21,-4.0,0.0101469915914469,-7.501024062028528e-18,3.35701140824119e-18,-1.900753851070326e-18,0.0,0.0,1.5594580049590954,0.0,-3.076714873756976e-20,-1.3753899457177916e-22,0.0009999428386350817,0.0,0.0,0.0,10.19,-1.0,-0.001788395471819425,3.06456003522427e-05,870.3276540988918,642.0301118427245,642.5971292180811,870.0378648119903
0.14,-1.417309338313675e-20,4.835665974857543e-21,0.0101469915914469,-1.8063857955761393e-17,-7.945643552609659e-17,5.495119872377538e-19,0.0,0.0,1.5690282794588506,0.0,-1.0887720706202344e-19,7.970599695984679e-21,0.0009999428386350817,0.0,0.0,0.0,10.19,-1.0,-0.0017885019142082521,3.0645600352242605e-05,870.327664636732,642.0300975577651,642.5971434904354,870.0378542706399
0.14400000000000002,-1.8953407299448e-21,-4.0,0.01015099136280144,-6.943708141934204e-18,2.466403520862765e-18,-1.952805043598732e-18,0.0,0.0,1.5709348806819416,0.0,-3.75345258984416e-20,-1.2687314560961262e-22,0.0009999428386350817,0.0,0.0,0.0,10.19,-1.0,-0.0017885232026862575,3.0645600352245526e-05,870.3276667443001,642.0300947007731,642.5971463449063,870.0378521623697
0.14400000000000002,-1.4642561594143467e-20,5.116360992922044e-21,0.01015099136280144,-1.9489608181447944e-17,-8.214666839657526e-17,5.6798454403013915e-19,0.0,0.0,1.5802820650378562,0.0,-1.0699710209271182e-19,3.120052315485283e-20,0.0009999428386350817,0.0,0.0,0.0,10.19,-1.0,-0.0017886296450748515,3.0645600352242605e-05,870.3276772821404,642.0300804158135,642.5971606172601,870.0378416210192
0.14400000000000002,8.771990174527047e-06,-5.988997989883516,0.04962974893839016,-26.33647716653668,0.1023167831961913,-0.023845726317823245,0.0,0.0,1.5894461644738818,0.0,-0.0007785063266488426,-0.052170713636930266,0.8180572327276284,-8.506533874585791,0.044496653196915176,0.002822985710153566,10.19,-1.0,-0.009156106320250186,0.0010164868406085175,870.0217612270364,639.6334995391899,644.9827294271915,870.3437520240453
0.14400000000000002,-8.718807597527373e-22,-2.0,0.01015099136280144,3.888844237982361e-17,-1.269482580093889e-17,-1.3107886823180684e-19,0.0,0.0,1.5984299163957192,0.0,-5.841739511258926e-21,6.552710045373277e-22,0.0009999428386350817,0.0,0.0,0.0,10.19,-1.0,-0.0021524258027054207,3.896932908775224e-05,870.3549519610896,641.9694057667824,642.6577759986608,870.0105570007163
0.14800000000000002,-1.9224749805397616e-21,-4.0,0.01015499113415598,-6.053571451556835e-18,2.8631858170600367e-18,-2.004840771847913e-18,0.0,0.0,1.600219562298484,0.0,-1.3312439359282848e-20,-1.1777450096575791e-22,0.0009999428386350817,0.0,0.0,0.0,10.19,-1.0,-0.002152469282758045,3.896932908775443e-05,870.3549562654978,641.969399931048,642.6577818281444,870.0105526946043
0.14800000000000002,-7.874121013543003e-22,-2.0,0.01015499113415598,3.9926680055858066e-17,-1.2545130112926984e-17,-1.3329852566929146e-19,0.0,0.0,1.6089907004354103,0.0,-1.9548946898504073e-20,6.742204699538452e-22,0.0009999428386350817,0.0,0.0,0.0,10.19,-1.0,-0.0021526866830211284,3.896932908775224e-05,870.3549777875381,641.969370752375,642.6578109755613,870.0105311640435
0.14800000000000002,1.1894273867134035e-05,-5.987620157525942,0.052921300247032926,-28.4322330181882,0.11184715318657407,-0.02808263903832503,0.0,0.0,1.617587478653729,0.0,-0.0008668144055500605,-0.06584895087388362,0.8584508572383408,-8.871296505600538,0.0450347222909942,0.0027332678279560763,10.19,-1.0,-0.010228846295373902,0.0011999750091084417,869.935244754,639.2266872418103,645.3859134734515,870.4302278934741
0.14800000000000002,-1.499154415561952e-20,5.204711944655219e-21,0.01015499113415598,-2.002046569943854e-17,-8.351034284135748e-17,5.676613323413471e-19,0.0,0.0,1.6260126214481603,0.0,-8.500223489495342e-20,1.9488792374257656e-20,0.0009999428386350817,0.0,0.0,0.0,10.19,-1.0,-0.0025522608192415207,4.877201936510955e-05,870.3842404406168,641.9017821529714,642.7253200714438,869.9812559408954
0.15200000000000002,-1.533320056625054e-20,5.588410839888154e-21,0.01015899090551052,-2.1856658772915503e-17,-8.549454900698919e-17,5.807780028976885e-19,0.0,0.0,1.6276908932099678,0.0,-9.117483609138539e-20,7.022690487985194e-20,0.0009999428386350817,0.0,0.0,0.0,10.19,-1.0,-0.0025523343896913593,4.877201936510953e-05,870.3842477236482,641.901772277573,642.7253299341884,869.9812486544904
0.15200000000000002,1.562352535136721e-05,-5.986095698861244,0.056332041409923636,-30.61362553941406,0.12122353293477091,-0.03268482707134815,0.0,0.0,1.635913848686574,0.0,-0.000957364511308004,-0.08097961529771257,0.8989376589984837,-9.238803050579573,0.04539725062363665,0.0027005067394503864,10.19,-1.0,-0.011332136531208155,0.0014000435230347495,869.8343248737117,638.791773627812,645.8163863959592,870.5310786912673
0.15200000000000002,-8.338151520417708e-22,-2.0,0.01015899090551052,4.127694419949737e-17,-1.3852934917206875e-17,-1.2801571350198308e-19,0.0,0.0,1.6439711043707659,0.0,-2.157381084957097e-20,6.971499084740628e-22,0.0009999428386350817,0.0,0.0,0.0,10.19,-1.0,-0.0029876729042299863,6.018117632190962e-05,870.4153629231978,641.8270878079076,642.7999100405359,869.9501179281286
0.15200000000000002,-2.1134287949840454e-21,-4.0,0.01015899090551052,-5.670819652458514e-18,2.8759763133842515e-18,-2.059612302911425e-18,0.0,0.0,1.6518653507199725,0.0,-1.663584003916075e-20,-1.0912058425499943e-22,0.0009999428386350817,0.0,0.0,0.0,10.19,-1.0,-0.0029882383801799798,6.0181176321909695e-05,870.4154188999075,641.82701189495,642.7999858385967,869.9500619214793
0.15600000000000003,-1.991820458166471e-21,-4.0,0.01016299067686506,-4.936479316528405e-18,4.082749286197045e-18,-2.1265354907314862e-18,0.0,0.0,1.6534377866459498,0.0,-1.8305439668544704e-20,-9.742765554951717e-23,0.0009999428386350817,0.0,0.0,0.0,10.19,-1.0,-0.002988351475369981,6.0181176321909776e-05,870.4154300952489,641.8269967123575,642.8000009982078,869.9500507201492
0.15600000000000003,-7.940432695319181e-22,-2.0,0.01016299067686506,4.1478218197305713e-17,-1.3407782260378861e-17,-1.4602658214135495e-19,0.0,0.0,1.6611401414900617,0.0,-1.2296718007945464e-20,7.155510679817429e-22,0.0009999428386350817,0.0,0.0,0.0,10.19,-1.0,-0.0029889169513199697,6.018117632190962e-05,870.4154860719542,641.8269207993893,642.8000767962579,869.9499947134956
0.15600000000000003,2.001258608434439e-05,-5.984413975786703,0.05985653447392957,-32.88214439373718,0.13037598776313736,-0.037630214251703445,0.0,0.0,1.668685328916186,0.0,-0.0010491038232248145,-0.0976840675109766,0.9395181603318747,-9.613909708670652,0.04542368001682569,0.002676153283748564,10.19,-0.939502030878002,-0.012462863228958947,0.0016159072043137926,863.7052061624285,646.4447780969655,654.2886066668427,864.6379193587518
0.15600000000000003,-1.541498567208349e-20,5.3788865172792036e-21,0.01016299067686506,-2.1203250412928213e-17,-8.57465517022342e-17,5.936982016096251e-19,0.0,0.0,1.6760759883007184,0.0,-6.34544599104371e-20,2.094554845470261e-20,0.0009999428386350817,0.0,0.0,0.0,10.19,-1.0,-0.0034598162165605123,7.3316599060372e-05,870.4483076732218,641.7449946892972,642.8818684512222,869.9171543110938
0.16000000000000003,-2.228109359061899e-21,-4.0,0.010166990448219601,-2.820026010199853e-18,3.863984567599986e-18,-2.1816405102326205e-18,0.0,0.0,1.6775480438595232,0.0,-1.9116592164342638e-20,-7.919932236964343e-23,0.0009999428386350817,0.0,0.0,0.0,10.19,-1.0,-0.003459979940033887,7.331659906037525e-05,870.4483238796665,641.7449727072438,642.8818903944016,869.9171380947536
0.16000000000000003,-8.674946351776728e-22,-2.0,0.010166990448219601,4.365019872444906e-17,-1.3444481989294177e-17,-1.4852369056700907e-19,0.0,0.0,1.6847569117464318,0.0,-6.195905193079676e-21,7.343734199787794e-22,0.0009999428386350817,0.0,0.0,0.0,10.19,-1.0,-0.0034607985573992125,7.331659906037203e-05,870.4484049118848,641.7448627969665,642.8820001102871,869.917057013048
0.16000000000000003,2.5112688322133496e-05,-5.982564168127201,0.06348861888480659,-35.239013945399826,0.13924104015931513,-0.04289150361714851,0.0,0.0,1.6918169663395541,0.0,-0.0011411159892031682,-0.11608415791436608,0.9801388164786399,-9.995258186188975,0.04518569043944881,0.0026534551666472696,10.19,-0.8139717417857439,-0.01361537725954478,0.0018465573281876404,850.9592275640338,662.497338057066,671.0781417390812,852.1676152371282
0.16000000000000003,-1.5874916621667543e-20,5.405132148075164e-21,0.010166990448219601,-2.1609805410274566e-17,-8.817159346586418e-17,5.961477882543678e-19,0.0,0.0,1.6987307823873836,0.0,-7.415176113462264e-20,1.2720906268637132e-20,0.0009999428386350817,0.0,0.0,0.0,10.19,-1.0,-0.0039668876153067445,8.8288558245378e-05,870.4827802278394,641.6555850225428,642.9711075946406,869.8826593413036
0.164,-9.058603536883824e-22,-2.0,0.010170990219574141,4.538378190819948e-17,-1.4010617546088013e-17,-1.5109245761151605e-19,0.0,0.0,1.7001077981302688,0.0,-1.7431119047208775e-20,7.593305490555579e-22,0.0009999428386350817,0.0,0.0,0.0,10.19,-1.0,-0.003967114869414735,8.828855824537887e-05,870.4828027220802,641.6555545064053,642.9711380483404,869.8826368315437
0.164,-1.6130709386224227e-20,5.7399003546302665e-21,0.010170990219574141,-2.2859067158217568e-17,-8.913935046768468e-17,6.171034358501132e-19,0.0,0.0,1.7068496751035118,0.0,-8.65200114994553e-20,3.3054409368545294e-20,0.0009999428386350817,0.0,0.0,0.0,10.19,-1.0,-0.003968251139953125,8.8288558245378e-05,870.4829151932757,641.6554019256963,642.9712903168179,869.8825242827353
0.164,-2.1524776394313946e-21,-4.0,0.010170990219574141,-3.377067579894945e-18,3.675892317970413e-18,-2.2205280464289452e-18,0.0,0.0,1.713450874750767,0.0,4.3436675823659404e-21,-6.487742113588236e-23,0.0009999428386350817,0.0,0.0,0.0,10.19,-1.0,-0.003969387410491782,8.828855824537813e-05,870.4830276644567,641.655249344951,642.9714425852593,869.8824117339125
0.164,3.097298632198285e-05,-5.9805353140288275,0.06722137641739302,-37.68518868829049,0.1477600835172341,-0.0484297613042815,0.0,0.0,1.7199138966319114,0.0,-0.0012325893355247578,-0.13630248987319057,1.02074094872845,-10.38164556620735,0.044714878136866754,0.002645118410934085,10.19,-0.67385813799045,-0.014787400709491388,0.0020904945432164627,836.5061429007609,680.0000175327526,689.3031926956725,838.0264937770694
0.168,3.764045328957358e-05,-5.978316354286109,0.07104708651820675,-40.22054220242497,0.1558431389962102,-0.05416676961384393,0.0,0.0,1.7212010728553468,0.0,-0.0013223904997052213,-0.15845759334906856,1.0612595542572898,-10.77049480743705,0.04392616845326362,0.0026648516080304955,10.19,1.0,-0.10205438643948272,0.008795608476190698,643.4874347169725,850.6198336669751,889.3154728600279,641.1377826594456
0.168,-9.35198147127017e-22,-2.0,0.010174989990928682,4.689404826861453e-17,-1.4798523738322275e-17,-1.5396397279943921e-19,0.0,0.0,1.7275017201399232,0.0,-1.0000789233895754e-20,7.887736481399724e-22,0.0009999428386350817,0.0,0.0,0.0,10.19,-1.0,-0.004670522107374306,0.00010897528795939437,870.5307070498319,641.5316224242237,643.0947927186504,869.83469681268
0.168,-2.3395841741238776e-21,-4.0,0.010174989990928682,-2.7924760292270867e-18,3.4412723531265724e-18,-2.27247152892947e-18,0.0,0.0,1.7336695770392991,0.0,-2.0175968710260817e-20,-5.409657039485162e-23,0.0009999428386350817,0.0,0.0,0.0,10.19,-1.0,-0.004672145382295463,0.00010897528795939447,870.5308677172197,641.5314044054596,643.0950102074025,869.8345360167023
0.168,-1.614992269355665e-20,5.785843986016644e-21,0.010174989990928682,-2.2769377654121144e-17,-8.967031512580225e-17,6.374576357323205e-19,0.0,0.0,1.739707059905377,0.0,-3.740749811065321e-20,1.8228113926225275e-20,0.0009999428386350817,0.0,0.0,0.0,10.19,-1.0,-0.00467376865721661,0.00010897528795939435,870.531028384578,641.5311863866215,643.0952276960812,869.8343752206947
