Time_s,X,Y,Z,Roll_deg,Pitch_deg,Yaw_deg,Ref_X,Ref_Y,Ref_Z,Ref_Yaw,vx,vy,vz,p,q,r,T_pert,tau_x,tau_y,tau_z,RPM_0,RPM_1,RPM_2,RPM_3
0.0040000000000048885,-0.0033469669379922865,-0.00854481305470578,1.9999974091346775,-0.27081850508106525,0.3550922617149388,-0.00045474407485730794,-0.0034468587230498888,-0.008587293455583421,7.200000000017598e-05,0.0,0.024847649031150894,0.010569723612900157,0.0003481138527820772,-0.005173445605591494,-0.001334552064323548,1.767715021910328e-07,-10.19,0.8112651580523849,-1.0,0.0005312129880433921,142.96814365886686,0.0,549.5319687762443,0.0
0.016000000000005343,-0.003041987200699076,-0.00841237697016405,1.9999991218453435,-0.27430337655746423,0.35388804467556256,-0.0004488918974466118,-0.003445383068548844,-0.008583617100020953,0.0009282006720004872,0.0,0.0254648291090533,0.011077423103427634,0.0003528769108137017,-0.005058869912565281,-0.0017896806322253579,1.7706604512850986e-07,-10.19,0.05997497412117313,-0.11721589981809202,1.6328716957073944e-05,0.0,0.0,139.4683222071922,0.0
0.020000000000010232,-0.0029386908728082344,-0.008366868537879404,1.9999996883641686,-0.27544685472949715,0.3534159473596433,-0.0004465862836675545,-0.003444773052542698,-0.008582097343373445,0.0012821426780889032,0.0,0.02566943238227178,0.011247751520072858,0.0003544385671818892,-0.0050193732877908655,-0.0019438183599106787,1.7715398192824116e-07,-10.19,0.0718380366281542,-0.13219630390122655,1.586538717084811e-05,0.0,0.0,155.16566087583857,0.0
0.02400000000000091,-0.0028345803798302182,-0.008320675007928012,2.0000002526987997,-0.276581001825841,0.35290804483020505,-0.00044409877718392207,-0.003444046344898737,-0.00858028686830135,0.0017037912229662792,0.0,0.025873435339528728,0.01141861603205208,0.0003559862040312953,-0.004979183683947256,-0.0020991534031429117,1.772354357896588e-07,-10.19,0.06589399147622242,-0.1258584145910875,1.558940941225882e-05,0.0,0.0,148.18699742313422,0.0
0.028000000000005798,-0.0027296582880723497,-0.00827379428552191,2.000000814854974,-0.277705661763965,0.3523640624353507,-0.0004414267167518207,-0.003443204372078084,-0.008578189228602855,0.0021923186488227494,0.0,0.026076814585211022,0.011590009577886862,0.00035751921125533407,-0.00493828315790375,-0.0022556762080495644,1.7730980014018947e-07,-10.19,0.06732841918554809,-0.12841535029274725,1.5302680139512513e-05,0.0,0.0,150.4881263361469,0.0
0.03200000000001069,-0.002623927258515279,-0.00822622430479731,2.0000013748389884,-0.27882067771038666,0.3517837262213127,-0.0004385674476571545,-0.003442248547573884,-0.008575807945768513,0.0027469048220977533,0.0,0.026279546570049633,0.011761925000408482,0.00035903697412622334,-0.0048966852299991365,-0.002413387129656032,1.773775588509318e-07,-10.19,0.0687799967492157,-0.13099375092243518,1.5005084816881606e-05,0.0,0.0,152.77630897641544,0.0
0.036000000000001364,-0.0025173900474227645,-0.00817796302920011,2.0000019326576988,-0.2799258920839785,0.3511667629621607,-0.00043551832259357146,-0.0034411802720160254,-0.008573146509242145,0.0033667370727175953,0.0,0.02648160759180133,0.011934355046384874,0.0003605388734405488,-0.0048544648591817546,-0.0025723234680206765,1.7744148038799877e-07,-10.19,0.0702488278688987,-0.1335936089222518,1.4696510017045847e-05,0.0,0.0,155.0521712678151,0.0
0.04000000000000625,-0.0024100495069485865,-0.008129008451872878,2.000002488318522,-0.2810211465593539,0.3505129001897003,-0.0004322767025528849,-0.003440000933275065,-0.008570208376679751,0.004051010133797724,0.0,0.026682973795948983,0.012107292366147545,0.00036202428566977317,-0.004811523128606098,-0.002732433655590294,1.7749800682300576e-07,-10.19,0.07173501590806368,-0.13621491457600785,1.437684347224693e-05,0.0,0.0,157.31629855801418,0.0
0.04400000000001114,-0.0023019085857405113,-0.008079358596043322,2.000003041829436,-0.2821062820703321,0.3498218662235722,-0.0004288399577279332,-0.0034387119065653975,-0.008566996974206544,0.004798926081780239,0.0,0.026883621176421006,0.012280729513221908,0.00036349258311572756,-0.004767870099691684,-0.002893719343310894,1.7754752371184277e-07,-10.19,0.07323866389967647,-0.13885765603060804,1.4045974125847235e-05,13.007712854183994,0.0,159.56923897003077,0.0
0.04800000000000182,-0.002192974488974097,-0.008029022208347973,1.9999975297591237,-0.2814506681123358,0.346218886405622,0.00040756721634066485,-0.0034373145545476148,-0.008563515696671957,0.0056096942770450815,0.0,0.027086820981945946,0.0124564969895475,-0.0002416554806130615,-0.0017121431354004276,-0.00808026170789004,0.0014289085211921363,-10.19,0.07261454367273588,-0.13811669836729282,-0.0009591063898438416,43.90761119830256,0.0,153.12835256362666,0.0
0.05200000000000671,-0.0020832735919981546,-0.007978048087653318,1.9999575188142,-0.2708279438945998,0.3264216924751439,0.0029064245658845015,-0.0034358102274300766,-0.008559767907902692,0.006482531304975781,0.0,0.027306639032899576,0.0126427525889682,-0.004299382402934301,0.018705161683879323,-0.04147995151313533,0.005623418637807517,-10.19,0.06180713564586899,-0.1214629858827758,-0.0029354851014378276,67.3276010904672,0.0,122.89606589771303,0.0
0.056000000000011596,-0.001972850796631479,-0.007926487888095827,1.9998584189640891,-0.24303926737574752,0.2797456404054884,0.007211813854388587,-0.003434200263069761,-0.008555756940953972,0.0074166609174444965,0.0,0.027546829902354807,0.012841792883205713,-0.014211063329845458,0.0687368863217388,-0.12121050885726392,0.012366565368251281,-10.19,0.041846358546757716,-0.0910016011453984,-0.005148614103473409,82.2729022909964,0.0,48.67305190520643,0.0
0.060000000000002274,-0.0018618617437865192,-0.007874458289106519,1.9996771458074942,-0.19691470488371887,0.2057505434154818,0.012688583572973967,-0.003432485987072305,-0.008551486098358778,0.008411313974766972,0.0,0.027776631102096466,0.013035078281095899,-0.0304528862778222,0.1412516273010149,-0.23288575010258325,0.01868720633041836,-10.19,0.018540512257659368,-0.056855421062013585,-0.006694268294391446,87.8979152471083,0.0,0.0,0.0
0.06400000000000716,-0.001750514821525205,-0.007822110237550545,1.9993922102493626,-0.13540226375432945,0.11026971575094652,0.01905946833543693,-0.0034306687128912773,-0.00854695865237517,0.009465728388102139,0.0,0.027940334801255285,0.013187397774276027,-0.05229366461531247,0.21632000020354997,-0.343216391799446,0.02356244448514331,-10.19,-0.0030919013416113583,-0.026882555991460957,-0.007964515670820693,92.79352315959937,0.0,0.0,0.0
0.06800000000001205,-0.0016389540127926515,-0.007769550527453776,1.9989888863990093,-0.060783847562340974,-0.0024595151690674955,0.026107487397628994,-0.003428749741926758,-0.008542177845231879,0.010579149062255471,0.0,0.027987328891577522,0.013264465469094832,-0.07897891992166758,0.28144110367608444,-0.4333046128478514,0.027338889650755573,-10.19,-0.02275490713265911,-0.0009212734788264787,-0.009018455239566965,97.2201897215328,35.940805585132054,0.0,0.0
0.07200000000000273,-0.0015272732013883335,-0.007716854132342215,1.9984572313701363,0.024993620558339997,-0.1295236624203031,0.03355668742117041,-0.0034267303636231106,-0.008537146889371896,0.011750827838948512,0.0,0.027883779523203887,0.013240688448731368,-0.10912577055607209,0.3366983781788519,-0.5060460696520375,0.030395816163001993,-10.19,-0.04080163379535242,0.02241225731606629,-0.009778335030550214,99.64781700722436,59.93135220958171,0.0,0.0
0.07600000000000762,-0.0014155355462153634,-0.007664078742896666,1.99779018146874,0.1197699478500813,-0.2685625625908037,0.040949160314866354,-0.0034246118555660092,-0.008531868967694199,0.012980023440523304,0.0,0.02760277127942722,0.013094606617940952,-0.14164740784893215,0.38294396553905496,-0.5662103021902068,0.03226966044578329,-10.19,-0.057001944859271646,0.04376069337077562,-0.01002029959554937,97.39002738194743,70.15129630078144,0.0,0.0
0.0800000000000125,-0.0013037872417716529,-0.007611273905592932,1.9969819374383893,0.2207066192344751,-0.4169022046380073,0.047891923161827374,-0.0034223954835787924,-0.008526347233793795,0.014266001414035496,0.0,0.02712129859695166,0.012808814861940345,-0.17591044769450573,0.41879200501955893,-0.6152757019260119,0.032660867704137106,-10.19,-0.07051540800119227,0.06274039254610031,-0.009801384664793952,90.23687424278438,73.91228015056964,0.0,0.0
0.08400000000000318,-0.0011920589469364997,-0.007558473486175639,1.9960281619268485,0.32538663312218863,-0.5720329702305961,0.054076492650317186,-0.0034200825018180217,-0.008520584812199802,0.015608034075809825,0.0,0.026421746423873915,0.012372716083137043,-0.2115217966600405,0.4434172392031022,-0.6532050096137071,0.031571550833531886,-10.19,-0.08155066803769644,0.07937026764048362,-0.009204130600151399,78.01849541673857,73.04387749229431,0.0,0.0
0.08800000000000807,-0.0010803698129170638,-0.007505695893475788,1.9949259834841622,0.4323088037331903,-0.7319856744373456,0.059479111832375635,-0.0034176741528683064,-0.008514584798611675,0.017005400456421,0.0,0.025493333778421123,0.011782775964999045,-0.24812912726929542,0.4586777518741725,-0.6809710005622837,0.029721394370906373,-10.19,-0.09100464519469253,0.09414905164091165,-0.00854842256882418,63.013692488328346,71.09464719206619,0.0,71.8903340327737
0.09200000000001296,-0.0009687304563467653,-0.007452950271154353,1.9936734036751402,0.5405401100500378,-0.8952992677235136,0.06429481288327163,-0.0034151716678364843,-0.008508350260133855,0.018457386246048563,0.0,0.02433076158315538,0.0110392297354031,-0.2854164628069896,0.4677617190064254,-0.7006447405263398,0.028035129896177558,-10.19,-0.09949934657178758,0.10756419954844547,-0.008088810736746267,47.777488725961554,71.149487638688,0.0,98.91393260662663
0.09600000000000364,-0.0008571490969484518,-0.007400242029607373,1.9922690929861848,0.6494118344065913,-1.060752272709977,0.06867102999026847,-0.003412576266445011,-0.008501884235508428,0.019963283740290348,0.0,0.02293203207132655,0.010143137669750207,-0.3231612066797896,0.4728987934309174,-0.7140574965295088,0.02700274349298673,-10.19,-0.10733744034418587,0.11986248295590107,-0.007777660801364905,30.7463317629463,72.54038693833175,0.0,117.57008934614768
0.10000000000000853,-0.0007456323170236644,-0.007347574338676709,1.990712153495323,0.7584635303018141,-1.2273564909493972,0.0726907684133838,-0.003409889157124634,-0.008495189735346005,0.02152239178639202,0.0,0.021297395419171482,0.00909594657807864,-0.3612118203030122,0.47533230230544027,-0.7224100068735415,0.02659970970456646,-10.19,-0.11473122567158413,0.13124123103261154,-0.007545733027867778,0.0,74.32954477614952,0.0,132.21819642541453
0.1039999999999992,-0.0006341861110040651,-0.007294949500250821,1.9890019863117228,0.8673706094881207,-1.394316659733361,0.07647566329140536,-0.0034071115371064552,-0.008488269742355082,0.0231340157298304,0.0,0.019429036043415147,0.007899552434602653,-0.39946209753945505,0.4758580524831709,-0.7266355141121436,0.02663546032135163,-10.19,-0.12182216387542205,0.14186990819392023,-0.0074415367994399365,0.0,77.0977648385994,0.0,143.96407039176412
0.10800000000000409,-0.0005228172333079439,-0.007242368735169945,1.9871381675905717,0.9759420103305736,-1.5608440557361298,0.08013092130993059,-0.0034042445925131486,-0.0084811272115693,0.024797467361387052,0.0,0.017330698621902795,0.006556064553433776,-0.43784375874826004,0.4751236322196428,-0.7272756749130044,0.027078776983840275,-10.19,-0.12874070271035665,0.15171729312706364,-0.00745085941990707,0.0,80.410330038081,0.0,153.6157890628632
0.11200000000000898,-0.0004115330814096944,-0.0071898341047384315,1.9851204388407557,1.084023646991322,-1.726288934543556,0.08366069777199472,-0.003401289498449631,-0.008473765070573331,0.026512064864540164,0.0,0.015007725700830338,0.00506755775284711,-0.4763074262238757,0.47353155456935586,-0.7247307881450411,0.02780948265933102,-10.19,-0.13553822174083963,0.16089077676972652,-0.007459967969944132,0.0,83.01752877301006,0.0,162.27561055633734
0.11599999999999966,-0.0003003439854567674,-0.007137350519531354,1.982948728181359,1.191422615902938,-1.8901128950606378,0.08710736249622088,-0.0033982474190929423,-0.0084661862197268,0.028277132763314013,0.0,0.012466810999536698,0.0034362140739870885,-0.5148088540095246,0.4711915472784388,-0.719426431990662,0.028599184886172403,-10.19,-0.1421826391998399,0.16950248754386676,-0.007513664916460874,0.0,85.61002851468507,0.0,169.89480049364272
0.12000000000000455,-0.0001892658616580117,-0.007084927042103266,1.980623155217785,1.297878690812557,-2.051783835044458,0.09050264253247957,-0.0033951195077814357,-0.00845839353238649,0.03009200187052944,0.0,0.009715674048321542,0.0016648591276281772,-0.5533003421689658,0.46792563518075536,-0.7117268185818882,0.029451589606906414,-10.19,-0.14859928344095413,0.177555315562032,-0.007601251861376751,0.0,88.15402596928192,0.0,176.62843674935553
0.12400000000000944,-7.831801357352729e-05,-0.007032575373865442,1.9781439343340055,1.4031088838793806,-2.2108078834907485,0.09386831671752778,-0.0033919069071033864,-0.008450389855127098,0.03195600923639109,0.0,0.0067631124043584885,-0.00024258338172529858,-0.5917420451741966,0.4635287277558784,-0.7017679372017359,0.030348444424514544,-10.19,-0.15472907088751714,0.18503525272086627,-0.007712406946143393,0.0,90.59236444142692,0.0,182.5917021625444
0.1280000000000001,3.2477929911222834e-05,-0.006980309048277869,1.975511327935669,1.5068270547416915,-2.3667327933499807,0.09723268074471224,-0.0033886107489848297,-0.008442178007960063,0.03386849809752307,0.0,0.003619104319920484,-0.0022810719627035327,-0.6301101643051759,0.4579041485250066,-0.6896956333549247,0.03125482987028551,-10.19,-0.16054108453146784,0.19194600525651737,-0.007855635132009105,0.0,93.04903092711265,0.0,187.80410834443128
0.132000000000005,0.00014309803743706173,-0.006928143299643794,1.9727256341486465,1.6087455873379022,-2.5191305175738137,0.10062662162198568,-0.0033852321547767207,-0.008433760784550716,0.03582881782639681,0.0,0.0002945895311739141,-0.004444648562956882,-0.6683918859651452,0.4510341606263194,-0.6756649426673842,0.032172198735915994,-10.19,-0.16601318683369615,0.19828473484826387,-0.008035125304914612,0.0,95.58008074367865,0.0,192.2956164840745
0.1360000000000099,0.0002535165238246357,-0.006876094702645772,1.969787170961801,1.708581922512935,-2.667593330886751,0.10408287012512123,-0.0033817722353415365,-0.008425140952434037,0.03783632388108246,0.0,-0.0031986147825113663,-0.006726556983458136,-0.7065788411356181,0.44292344406472733,-0.6597837402158706,0.033104030776485174,-10.19,-0.17112781732757243,0.20404049176114747,-0.008254301662062657,0.0,98.21743109934911,0.0,196.08727812403578
0.14000000000000057,0.0003637062098371585,-0.006824180820552338,1.9666962645273882,1.8060645010808218,-2.8117323246929957,0.10763536366847772,-0.003378232091139115,-0.008416321253228502,0.03989037775544485,0.0,-0.0068478179583586225,-0.0091193172866012,-0.744666379545081,0.4336014942520367,-0.6421399535132811,0.03404863262962664,-10.19,-0.175874331172474,0.2092012073037708,-0.00851592212900017,0.0,100.97650110319178,0.0,199.19657974803852
0.14400000000000546,0.00047363898297782644,-0.006772419864507128,1.9634532403796734,1.900938051966296,-2.951177358336065,0.11131860989171387,-0.003374612812311829,-0.008407304402848285,0.041990346929723046,0.0,-0.010639507016126934,-0.011614832461885898,-0.782652876631893,0.42312289064839226,-0.6228161316493088,0.03500273389423957,-10.19,-0.18024867798129351,0.2137554053221341,-0.008822053117618776,0.0,103.8596137147918,0.0,201.6390873724451
0.14800000000001035,0.000583286252122386,-0.006720830365301005,1.9600584167405857,1.9929682487663838,-3.0855778541209515,0.11516705968472186,-0.003370915478769227,-0.008398093091714128,0.04413560482142057,0.0,-0.01455941540311797,-0.014204510026264442,-0.8205390465815523,0.41156444514136903,-0.6018953004304239,0.03596179848327021,-10.19,-0.1842530571650458,0.2176932726745815,-0.009174054458247642,0.0,106.85867337022532,0.0,203.42948533958133
0.15200000000000102,0.000692619390220486,-0.00666943085944461,1.9565120993507226,2.081945747289726,-3.214604030017605,0.11921449936939323,-0.0033671411602719135,-0.008388689984962313,0.04632553073663636,0.0,-0.018592603297216813,-0.016879393674639656,-0.8583274458905958,0.3990224129412617,-0.5794643219047843,0.036920259195030516,-10.19,-0.18789555423519427,0.22100730318202177,-0.009572576028161531,26.05036174162865,109.95737796893545,0.0,204.58223569702193
0.1560000000000059,0.0008016100115327932,-0.0066182396918255375,1.9528145814111653,2.1676911775595125,-3.337945639227263,0.123446286752835,-0.0033632909165147848,-0.008379097722652027,0.04855950982177087,0.0,-0.022723532254169485,-0.019630299047941877,-0.8960217068218673,0.3856077675429709,-0.5556140080508267,0.037789404235549905,-10.19,-0.19119274738810624,0.22369127667747207,-0.00996244693126525,38.690237074532924,112.6835887969152,0.0,205.3581252425986
0.1600000000000108,0.0009102304414292873,-0.006567274812179586,1.9489661450492095,2.250047814606343,-3.455323128987954,0.12786418965257965,-0.003359365797209747,-0.008369318919971449,0.050836933015530314,0.0,-0.02693613503221525,-0.022447916589940477,-0.9336257935409193,0.3714319239094893,-0.5304528004283665,0.0385120790900446,-10.19,-0.19415434456747027,0.2257506491883654,-0.010362248269035652,48.81805207039664,115.20809929457154,0.0,205.6852202453493
0.16400000000000148,0.00101845423480966,-0.006516553521230226,1.944967054366661,2.3288791147003125,-3.5664945731638813,0.13248018917023852,-0.0033553668421676844,-0.008359356167441953,0.05315719700136783,0.0,-0.031214011873318136,-0.025322887620516737,-0.9711442813004212,0.35659570275049657,-0.5041172053080702,0.039079344393361345,-10.19,-0.19678785663104792,0.22719991215427526,-0.010783996357895015,57.949859037847894,117.64241258496219,0.0,205.52145614283305
0.16800000000000637,0.0011262560172810006,-0.006466092608042064,1.9408175609283922,2.4040655319716038,-3.6712552912961294,0.13731159640445537,-0.003351295081379794,-0.008349212031120748,0.05551970416029153,0.0,-0.03554066442367372,-0.02824583917131826,-1.0085822815525975,0.3411851964661492,-0.4767673324788769,0.03956283846273488,-10.19,-0.19910270187635093,0.22806296176752278,-0.01123442328949322,66.57099138795641,120.05367499934096,0.0,204.84963355555686
0.17200000000001125,0.0012336116430615952,-0.006415908290324543,1.9365179037686435,2.475503305040034,-3.7694412132323576,0.14237599569305223,-0.0033471515350984287,-0.008338889052802277,0.057923862523958515,0.0,-0.03989968409939086,-0.031207406676780063,-1.0459445842249513,0.32527542245719526,-0.44857027022432916,0.03997994757061829,-10.19,-0.2011057721423199,0.22836645392006263,-0.011714574138165507,74.84810504191104,122.46495498038104,0.0,203.67422758261512
0.17600000000000193,0.0013404982699882421,-0.0063660161934222465,1.9320683104658827,2.5431030723006813,-3.8609301744980384,0.14768852638115956,-0.003342937213917191,-0.008328389750217763,0.06036908572820193,0.0,-0.04427490222774813,-0.03419824762884185,-1.0832358560809927,0.30893368271113536,-0.4197036064493028,0.040338621210451814,-10.19,-0.20280374342843255,0.2281420378185716,-0.012222331101235126,82.83500069023017,124.87798289419132,0.0,202.01237658107866
0.18000000000000682,0.0014468944651476587,-0.0063164312938995245,1.9274689974975001,2.6067896040238496,-3.945642935687132,0.15326063447609253,-0.003338653118850412,-0.008317716617233219,0.06285479296691693,0.0,-0.04865055840128526,-0.03720906693977891,-1.1204606991403252,0.2922222823336801,-0.3903515608886884,0.04063826227650776,-10.19,-0.20420346362378594,0.2274248959393776,-0.012754018769111738,90.54441684699879,127.2854495414333,0.0,199.8868715994414
0.1840000000000117,0.0015527802997365402,-0.006267167860034629,1.9227201704481247,2.6665017544217133,-4.02354339237789,0.15909938976551358,-0.0033343002414121556,-0.008306872124046268,0.06538040894622067,0.0,-0.05301145677644108,-0.04023064918129839,-1.1576236992643287,0.2752016778607686,-0.36070187499697104,0.040874428888004355,-10.19,-0.20531254708950764,0.22625335345216746,-0.01330501315710853,97.97171377761333,129.67548148536082,0.0,197.32420807872126
0.1880000000000024,0.0016581374381947347,-0.006218239384502704,1.9178220235840724,2.7221911258119436,-4.094636704109959,0.16521389908060613,-0.003329879563694483,-0.008295858717381133,0.06794536383904158,0.0,-0.05734311222090105,-0.04325389728474255,-1.194729497884342,0.2579302813227945,-0.33093968342942576,0.041052852275570074,-10.19,-0.20613781865743724,0.22466644113161674,-0.013878002777896387,105.17365431271476,132.08864188771093,0.0,194.3147782839139
0.19200000000000728,0.001762949235622591,-0.006169658497795436,1.912774738756597,2.773822276013072,-4.15896440714743,0.17159657466664127,-0.0033253920584451137,-0.008284678820682116,0.07054909324005958,0.0,-0.061631844701149095,-0.04626985834656346,-1.2317829016087107,0.2404628564125732,-0.3012393885012811,0.04115783458372149,-10.19,-0.20668689208782942,0.22270011381639504,-0.014453878922200378,112.01607726253988,134.41196919686791,0.0,190.94860006296682
0.19600000000001216,0.0018672007228610354,-0.006121436975463704,1.9075784885200386,2.821375176783735,-4.216612136397405,0.17824892289238167,-0.003320838689144633,-0.008273334834305942,0.07319103812090884,0.0,-0.06586489512603241,-0.04926977320195976,-1.268788554482065,0.22285811799787897,-0.2717762549589524,0.04119446673043087,-10.19,-0.2069721221502981,0.22040306254880296,-0.015042972108295803,118.61445971828611,136.74201849939556,0.0,187.1840918908889
0.20000000000000284,0.0019708786322190667,-0.006073585661083691,1.9022334324000314,2.864838666875742,-4.267689339960162,0.18515366181977735,-0.003316220410082965,-0.008261829135712289,0.07587064478580603,0.0,-0.07003048096461709,-0.05224510071095382,-1.305751116945679,0.20516855470950363,-0.24270430691741582,0.04113967327931108,-10.19,-0.2069982700378047,0.21780287877506938,-0.015623415305887144,124.8317201188543,138.94883802611477,0.0,183.12107433047603
0.20400000000000773,0.002073971635549328,-0.0060261143575006905,1.8967397209987331,2.90422720406767,-4.312361250133195,0.19227722123991714,-0.0033115381664352577,-0.008250164079652832,0.07858736482752171,0.0,-0.07411791618743929,-0.055187593138290206,-1.3426750612379634,0.18746156765241517,-0.21419982164798093,0.040968374221576544,-10.19,-0.20678980995832075,0.21496367014539983,-0.01617548920706998,130.55815538712278,140.93460385933295,0.0,178.88266617974347
0.20800000000001262,0.0021764701720001084,-0.0059790318896849395,1.8910974947957853,2.939567680003263,-4.3508308332711065,0.19960768948985838,-0.003306792894337331,-0.008238341998359221,0.08134065508360314,0.0,-0.0781178392551257,-0.05808940555205773,-1.3795646297938167,0.16981179732778717,-0.18644910574268309,0.04067011401772595,-10.19,-0.20635947509726976,0.21193695005215962,-0.016723131194227643,135.99221600710467,142.88515033315636,0.0,174.36238688974223
0.2120000000000033,0.002278366273166714,-0.0059323461450780605,1.8853068826458825,2.9708910489955045,-4.383315445929821,0.20713171409637585,-0.0033019855209604,-0.008226365201729235,0.08412997759301867,0.0,-0.08202229021822945,-0.06094310996635068,-1.4164239736998314,0.15227362768944425,-0.15959499258807408,0.04029916082388308,-10.19,-0.20571086719708373,0.2087498396594468,-0.017264183486867087,141.13934179231444,144.80227647412812,0.0,169.5649359132656
0.21600000000000819,0.0023796535053583912,-0.005886064051272404,1.8793680015929832,2.9982324042335664,-4.410038402044911,0.21481702954518261,-0.003297116964585221,-0.008214235977511504,0.08695479955313778,0.0,-0.08582439004122602,-0.06374154157962825,-1.453257431147454,0.1348657092674341,-0.1336969125696569,0.03984371784735803,-10.19,-0.2048472651758917,0.20541950352445326,-0.017776017879486114,145.87998582026182,146.5544024919485,0.0,164.60245917680237
0.21999999999999886,0.002480327525319387,-0.00584019125392462,1.8732809556232235,3.0216486252022245,-4.431265149920052,0.2226254378059159,-0.003292188134675836,-0.00820195659148924,0.0898145932769414,0.0,-0.08951827259880978,-0.06647782519009217,-1.4900694148323779,0.11763319750544807,-0.10885275337591682,0.039277088618601484,-10.19,-0.20378933633889823,0.20199878925900883,-0.018250390589700946,150.18401383568525,148.11523835484778,0.0,159.54649913837616
0.22400000000000375,0.002580385639396346,-0.005794732331105675,1.8670458372572245,3.0412051169687064,-4.447278966869484,0.2305294047885119,-0.0032871999319524984,-0.008189529287661904,0.09270883615071157,0.0,-0.09309933823632943,-0.06914552643970298,-1.52686418068413,0.10063401134586487,-0.08517610801186196,0.03858657376132895,-10.19,-0.20254975614840057,0.1985263469643052,-0.018698198845397154,154.13811937980236,149.57234734207313,0.0,154.3520027970304
0.22800000000000864,0.002679826620197548,-0.005749690854401086,1.8606627276655814,3.0569722594423205,-4.4583670509014866,0.23849001623637148,-0.0032821532484642903,-0.00817695628842614,0.0956370105918952,0.0,-0.0965642905186287,-0.07173867537414133,-1.5636456879887126,0.08391091129446379,-0.06274358980962304,0.037793743825583516,-10.19,-0.20113605717169017,0.19502334029963928,-0.019105024845526848,157.67762263329897,150.849188082926,0.0,149.1094728775223
0.23199999999999932,0.002778651084918577,-0.0057050691358096406,1.8541316937655081,3.069033685343575,-4.46483734181519,0.2464686876213531,-0.0032770489676610137,-0.008164239794754866,0.09859860400739279,0.0,-0.09991095104143054,-0.07425171042901282,-1.6004179332839636,0.06749902660009971,-0.04160714309496234,0.03689371878704185,-10.19,-0.1995622008601131,0.19152462688457578,-0.019469659774998052,160.81183411294523,151.9548833326333,0.0,143.85058269694983
0.2360000000000042,0.0028768613176306597,-0.005660868294546646,1.8474527885591234,3.07748275476959,-4.46700849908625,0.254421227574121,-0.003271887964464523,-0.008151381986374993,0.10159310875217067,0.0,-0.10313826203954171,-0.07667952276945005,-1.637185085106049,0.051443664824614745,-0.02182992804199936,0.035870653305972014,-10.19,-0.19784249398393974,0.18806112970935904,-0.019783970812523803,163.50984835276037,152.8538899976238,0.0,138.65520764179266
0.2400000000000091,0.0029744610611833824,-0.005617088353257277,1.8406260521575035,3.0824174332544616,-4.465202821021127,0.2623177153829037,-0.003266671105339669,-0.008138385021944167,0.10462002208809626,0.0,-0.10624636362066701,-0.0790175130168943,-1.6739510890073812,0.0357817295990899,-0.003451779611465761,0.03475243005415071,-10.19,-0.19598637102919464,0.18465693208721912,-0.02006281187870244,165.8672153896454,153.64644007071203,0.0,133.4506987292918
0.24399999999999977,0.003071455102414139,-0.005573728459403097,1.8336515144690528,3.083934464514237,-4.459729507332729,0.27012233046623224,-0.0032613992483645398,-0.008125251039225768,0.10767884614318471,0.0,-0.10923629938678067,-0.08126146961771298,-1.7107194231834266,0.020529574307919043,0.013533725174269864,0.033550817661250204,-10.19,-0.19399836533080522,0.18131960273119965,-0.020298058438894196,167.85249503875878,154.28774900798481,0.0,128.30196224265012
0.24800000000000466,0.0031678495063852375,-0.005530786707819209,1.82652919245645,3.082134152508357,-4.450892703665831,0.27780001625429485,-0.003256073243300152,-0.008111982155262532,0.11076908787116181,0.0,-0.11210978768430893,-0.0834074898765996,-1.747493257486091,0.005691820324304158,0.029163211024884266,0.032271316190487044,-10.19,-0.1918840997341871,0.17805818717716887,-0.020489125657163564,169.47386974541732,154.77814876028506,0.0,123.23058439039532
0.25200000000000955,0.0032636514252712082,-0.0054882602378586495,1.8192590913709845,3.077118027176634,-4.43898685437462,0.2853211960253216,-0.003250693931659778,-0.008098580466549264,0.11389025901123995,0.0,-0.11486910432619339,-0.08545197259122247,-1.7842758390039304,-0.008721528285535143,0.043471230066390046,0.03092048321489945,-10.19,-0.18964981969804087,0.17488091135491227,-0.020640966465740776,170.76721746032635,155.14934981501818,0.0,118.2187786562436
0.2560000000000002,0.0033588688719146742,-0.005446145357507561,1.8118412063519187,3.0689869571235704,-4.424290325314186,0.29265153253501847,-0.003245262146777568,-0.008085048049203807,0.11704187604830155,0.0,-0.1175169998346266,-0.08739161089233904,-1.8210701027573521,-0.022705982005706594,0.056508084574595704,0.029500041697346113,-10.19,-0.18730010009757767,0.17178864767453936,-0.020746794379981354,171.7056880139807,155.3602355356429,0.0,113.33333683064504
0.2600000000000051,0.003453511265362846,-0.005404437159706845,1.804275515784408,3.0578496059142504,-4.407079127432433,0.29975957390993707,-0.0032397787138766414,-0.008071386959136676,0.12022346017339186,0.0,-0.1200566528904945,-0.08922342508730877,-1.8578792876033272,-0.036248929647366666,0.0683172838802446,0.028012289617209703,-10.19,-0.18484358699946526,0.16878856543260973,-0.020808556648088512,172.30614780555842,155.422090802945,0.0,108.58747535266458
0.26400000000001,0.0035475889551488393,-0.005363129824407453,1.7965619856894037,3.043816094804915,-4.3876162123974485,0.3066175919221526,-0.003234244450136826,-0.008057599232219822,0.12343453724441496,0.0,-0.12249166949326742,-0.09094481405389317,-1.894706842203845,-0.0493315633517643,0.07893708040682687,0.026460258086083654,-10.19,-0.1822897870288957,0.16588678951691407,-0.020829296042678348,172.58992724644156,155.3511197317044,0.0,103.98651447882393
0.2680000000000007,0.0036411130055097564,-0.005322216755498838,1.7887005715240192,3.0269955926153544,-4.366147761632554,0.3132031355358378,-0.0032286601647617034,-0.00804368688445366,0.12667463774723348,0.0,-0.12482602759050987,-0.09255355582985472,-1.9315557074193332,-0.06194529779349252,0.0884243831790437,0.024863653358358617,-10.19,-0.17964387918857966,0.163081750452625,-0.020814021093408956,172.5884831041329,155.1728943781797,0.0,99.50768009941028
0.27200000000000557,0.00373409496092127,-0.005281690736526324,1.7806912203946907,3.0074945910242183,-4.342899402375254,0.31949197576807126,-0.003223026659045131,-0.0080296519121328,0.12994329675707078,0.0,-0.12706382264972382,-0.09404768425357822,-1.9684281639844716,-0.07409467181248226,0.09685748899258254,0.023227059740906053,-10.19,-0.17690935823812354,0.1603668684913736,-0.020759713942769632,172.29083813926226,154.86363084085647,0.0,95.19440160573947
0.27600000000001046,0.0038265474673685,-0.005241543484935574,1.7725338624977782,2.9854251615035303,-4.318086554384817,0.32546315407556753,-0.0032173447264374315,-0.008015496292010956,0.1332400539001069,0.0,-0.12920920977586328,-0.09542551264431014,-2.00532694124725,-0.08577578697678281,0.10430698487865171,0.021554949599851776,-10.19,-0.17409236097323114,0.15773661107160036,-0.020669179347677962,171.7162365999283,154.43263020508044,0.0,91.04262538411626
0.28000000000000114,0.003918483771470495,-0.0052017660070125885,1.764228416799646,2.9608994144995364,-4.291907629713003,0.3310993778667013,-0.0032116151526108932,-0.00800122198146411,0.13656445331547437,0.0,-0.13126639926253786,-0.09668568767005925,-2.0422550952658014,-0.09697786196679223,0.1108365661653812,0.019851967453759785,-10.19,-0.17120195591700024,0.1551894985459908,-0.020545816917148456,170.88538654423206,153.89315408106737,0.0,87.04727840119517
0.284000000000006,0.004009917840658957,-0.005162348510380398,1.755774788595071,2.9340315213049504,-4.264545087861575,0.3363841054655707,-0.003205838715524759,-0.007986830918652444,0.13991604361754986,0.0,-0.13323962816794435,-0.09782721698226059,-2.079215570844533,-0.10769200633731217,0.11651439491920883,0.018127186590405495,-10.19,-0.16824477891969705,0.15271742523659687,-0.020389770365724993,169.80278033695845,153.23662522817676,0.0,83.22779124173609
0.2880000000000109,0.0041008641509372844,-0.005123280568279006,1.74717287189719,2.904935581785263,-4.236164608239826,0.3413073556018471,-0.0032000161854898995,-0.007972325022681446,0.14329437785843033,0.0,-0.1351330570461809,-0.09884944575094187,-2.116211021840127,-0.11791369713377339,0.12141401270500234,0.016391429982098894,-10.19,-0.1652280433881163,0.15031411581716198,-0.02020799949107418,168.50821556139144,152.49562567943008,0.0,79.53055543344527
0.2920000000000016,0.004191337152585943,-0.005084551527282392,1.7384225565953055,2.8737207340748294,-4.206911088273905,0.3458598096163463,-0.003194148325232801,-0.007957706193761335,0.14669901349080525,0.0,-0.13695065644146429,-0.09975198328029439,-2.153243375297248,-0.12764733333885334,0.12561465679033157,0.014653168254207354,-10.19,-0.16215628790738496,0.1479715084994285,-0.020000843228820335,167.00511890817094,151.66380142298502,0.0,75.96534763261381
0.2960000000000065,0.004281351859802172,-0.005046150082076283,1.7295237194269408,2.8404980754456672,-4.176914055547349,0.3500335192434194,-0.003188235889959059,-0.00794297631336524,0.15012951233111807,0.0,-0.138696127570977,-0.10053465731845826,-2.1903142865139484,-0.1369003944347729,0.12919700040865048,0.012916854896406376,-10.19,-0.15903249626829197,0.1456738857853675,-0.019769493874672202,165.30414208761832,150.73618813560833,0.0,72.52148571682434
0.30000000000001137,0.004370923638121751,-0.005008064453365931,1.7204762267480413,2.8053789174093944,-4.146287769440789,0.3538245833426913,-0.003182279627416563,-0.007928137244386613,0.15358544052290332,0.0,-0.14037290081786225,-0.10119757016832731,-2.2274260285609118,-0.14567080196006824,0.13223182933599797,0.011188027079500739,-10.19,-0.15586448960499633,0.1434135363401454,-0.019518326288264623,163.43176266779102,149.72877215103443,0.0,69.15943154759394
0.30400000000000205,0.004460067552707425,-0.004970282901825379,1.7112799443168383,2.768468818432897,-4.11512928272699,0.35723043526535186,-0.003176280277958011,-0.007913190831294986,0.157066368500516,0.0,-0.1419841098405624,-0.10174107778490396,-2.264580047272289,-0.15396428376570395,0.13478909296049826,0.009472957266658073,-10.19,-0.15265726708446442,0.14118480654556748,-0.019248712459688698,161.39547175492956,148.6421916716287,0.0,65.87181995877269
0.30800000000000693,0.004548798807425301,-0.004932793419209008,1.7019347302756416,2.729872495146759,-4.0835216504980565,0.3602496832435942,-0.003170238574602934,-0.00789813890029048,0.16057187095314363,0.0,-0.1435325384361293,-0.10216569635748866,-2.3017770172862466,-0.1617943898578399,0.1369382695964787,0.007775275049119954,-10.19,-0.14941207978785295,0.1389725134726177,-0.018961892547956535,159.20499371678224,147.47278083746988,0.0,62.63311652085461
0.3120000000000118,0.004637133302888684,-0.004895583329881283,1.6924404258446692,2.689699755684702,-4.0515369297921024,0.3628829597472299,-0.003164155243099432,-0.007882983259457617,0.1641015267889855,0.0,-0.14502066012283513,-0.10247220159823126,-2.339019060121727,-0.16915752229724598,0.1387377052886215,0.006098092192512257,-10.19,-0.14613581687621643,0.13676232317708112,-0.018660147042228094,156.8788130110588,146.22030033255558,0.0,59.4054495132232
0.3160000000000025,0.004725086639698455,-0.004858640074110845,1.6827968712016974,2.648056170769258,-4.019234700814029,0.36513220650061956,-0.003158031001985242,-0.007867725698917461,0.1676549190998203,0.0,-0.14645065071733393,-0.10266167188368303,-2.376308240244012,-0.1760492303379148,0.14023984338843856,0.004444759870345845,-10.19,-0.14283832656580292,0.13455511490507205,-0.018345004384197595,154.42484756614712,144.88690349229842,0.0,56.18230952654238
0.3200000000000074,0.004812674481447239,-0.004821950960259497,1.6730038994075542,2.605046866665102,-3.9866642424396934,0.36700056231303857,-0.0031518665626483295,-0.007852367990978572,0.17123163512585007,0.0,-0.1478243766168335,-0.10273544623071702,-2.4136454867828894,-0.1824761848574315,0.1414950359699197,0.0028184631966791823,-10.19,-0.139522304272607,0.13233848063013265,-0.01801791588142982,151.85420732195422,143.470508907196,0.0,52.92366336747293
0.3240000000000123,0.0048999125143296095,-0.004785503223535049,1.6630613368834248,2.560776387108937,-3.953865706637166,0.36849220230166635,-0.0031456626293872043,-0.007836911890287275,0.17483126622070305,0.0,-0.14914340481835006,-0.10269507284077184,-2.4510319468187958,-0.18844229198680224,0.14254779334488213,0.001221392532976554,-10.19,-0.13619369023961164,0.13010511042471362,-0.017680194403860247,149.17655747067775,141.96904250653535,0.0,49.59595089091032
0.32800000000000296,0.004986816410147457,-0.004749284081958143,1.652969003853296,2.5153485528442436,-3.9208712857467565,0.36961213478681343,-0.0031394198994705766,-0.007821359133976278,0.178453407816821,0.0,-0.1504090302368155,-0.10254234705348615,-2.4884688670898867,-0.19394994318102532,0.1434368711152871,-0.00034455507402415353,-10.19,-0.13285830714752261,0.12784845285251922,-0.017332958408516605,146.40029162322404,140.37946128662222,0.0,46.16074641850657
0.33200000000000784,0.005073401792593438,-0.004713280789366946,1.6427267147451245,2.4688663107772633,-3.887706381818207,0.3703660212755679,-0.0031331390631965457,-0.0078057114418121345,0.18209765939111697,0.0,-0.15162229583921422,-0.10227930492993856,-2.5259573922610894,-0.19900223942732026,0.14419588862113614,-0.0018779940306532066,-10.19,-0.1295218344409993,0.12556279076980914,-0.01697715062849942,143.53253178213544,138.69786794964426,0.0,42.571738680515146
0.33600000000001273,0.005159684088063028,-0.004677480771316604,1.6323342807440946,2.4214305747418323,-3.854390672788445,0.37075943066963835,-0.003126820803951528,-0.007789970516342055,0.1857636244307834,0.0,-0.15278401531473512,-0.10190820796546514,-2.563498356563068,-0.2036048208271785,0.14485344254022675,-0.0033790204541362715,-10.19,-0.12618961877574605,0.12324457767944694,-0.016612869810963368,140.57377135329463,136.91593508026625,0.0,38.787927667111845
0.3400000000000034,0.005245678322080039,-0.004641871798052684,1.6217915134383767,2.3731384229578447,-3.8209392313181008,0.3707990456489164,-0.0031204657982685305,-0.007774138043039084,0.18945091039948125,0.0,-0.15389479624186447,-0.10143148012181673,-2.6010919624134083,-0.20776859931153577,0.14543331679448007,-0.004846799639895381,-10.19,-0.12286537920480295,0.12089195461065524,-0.01624162053591933,137.5316304084882,135.0363144910328,0.0,34.71074824731573
0.3440000000000083,0.005331399870885907,-0.004606441461623771,1.6110982105687368,2.324089802927668,-3.787363811630993,0.37049164802713913,-0.003114074715884969,-0.0077582156904461436,0.1931591287037934,0.0,-0.15495509488996323,-0.10085174278356394,-2.638739245139758,-0.21149787108446177,0.14595419019184092,-0.0062807177441445315,-10.19,-0.11955250846414037,0.11849330387840362,-0.015863768320205772,134.4125551936655,133.04765640366688,0.0,30.18717567759178
0.347999999999999,0.0054168639596199105,-0.004571177563096585,1.600254164926312,2.2743832808356537,-3.7536735796974066,0.3698436428038522,-0.003107648219800261,-0.0077422051103195185,0.19688789465980724,0.0,-0.15596525047499507,-0.10017186383869384,-2.6764419171662412,-0.2147917021193304,0.14643004522360345,-0.007680740563389715,-10.19,-0.11625986899578147,0.11605161671573742,-0.015479127242305166,131.21361972486434,130.93983200503624,0.0,25.023478219352427
0.35200000000000387,0.005502085479822267,-0.00453606825940207,1.5892591675591388,2.2241146561261207,-3.7198759834778996,0.3688606821032254,-0.0031011869663326343,-0.007726107937770385,0.20063682746015438,0.0,-0.15692550009444087,-0.09939495578643358,-2.714200920390532,-0.21765559986275584,0.1468710051268676,-0.009050054206227506,-10.19,-0.11299220159760687,0.11356742540733021,-0.015087057055730404,127.92709377786366,128.69962273464424,0.0,18.7521115911189
0.35600000000000875,0.005587078795372244,-0.004501102212048734,1.5781130112363264,2.1733755938435255,-3.685977641815335,0.36754709058139573,-0.0030946916051758306,-0.007709925791406082,0.20440555014110887,0.0,-0.1578360040132611,-0.09852425048558074,-2.7520161194272803,-0.2201034459395878,0.1472833661987482,-0.010393125233099345,-10.19,-0.10975267549434942,0.1110424775198772,-0.01468621577800171,124.53717900251473,126.30930589129692,0.0,9.537690311969568
0.35999999999999943,0.005671858504023682,-0.004466268070720886,1.5668154738534483,2.1222609115031315,-3.6519868153655892,0.36590358658957406,-0.0030881627794551456,-0.007693660273469716,0.20819368955007342,0.0,-0.15869693962319123,-0.09756315042163533,-2.7898884580157577,-0.22214087687185544,0.14766672934602432,-0.011719672384988097,-10.19,-0.10654512994250052,0.10847038621457789,-0.014272545176608906,121.0118222583139,123.72308995628559,0.0,0.0
0.3640000000000043,0.005756438808410184,-0.004431554906537725,1.5553663291447404,2.0708646048409807,-3.617914468642851,0.3639292181475265,-0.0030816011257830253,-0.007677312969978685,0.21200087631331999,0.0,-0.15950858339515236,-0.09651531195960475,-2.8278196469793877,-0.22376636333484848,0.14801325226942127,-0.013040153489401338,-10.19,-0.10337968167278874,0.10586168955158273,-0.01384410050589209,117.32335854343003,120.9140083895796,0.0,0.0
0.3680000000000092,0.005840833112393221,-0.004396952485933577,1.5437653542699394,2.01927388431351,-3.5837713870758026,0.36163216707069257,-0.003075007274314442,-0.007660885450862627,0.2158267448038604,0.0,-0.1602713134035469,-0.09538458860902065,-2.8658100994166196,-0.22499017660003706,0.14831714490174458,-0.014345970308964048,-10.19,-0.10025800049584907,0.10322165174513025,-0.01341148929343567,113.53857010151258,117.95097636569777,0.0,0.0
0.3719999999999999,0.005925054558918015,-0.00436245095322685,1.532012321722454,1.967564739064878,-3.5495608333105912,0.35903963899509167,-0.00306838184880163,-0.007644379270099789,0.2196709331096878,0.0,-0.16098547992276713,-0.09417479415797181,-2.9038596484570016,-0.22584267880465458,0.14859127881937023,-0.015587942566626165,-10.19,-0.09716951977220978,0.10053633166931406,-0.012997247814079942,109.83781546227355,114.99878880587708,0.0,0.0
0.3760000000000048,0.006009115689463175,-0.004328041082508718,1.5201070112042785,1.9157979854079654,-3.5152756878667564,0.35617782834031586,-0.0030617254666483913,-0.007627795965852322,0.2235330830022669,0.0,-0.1616511134001779,-0.09288940813166763,-2.9419677568820473,-0.2263733480620412,0.14886904758930813,-0.01672338803492546,-9.835101119107794,-0.09410472038221548,0.09779772991121019,-0.012601291329941196,147.1844220809487,151.44653916833406,0.0,96.44637925491261
0.38000000000000966,0.0060930250532630825,-0.004293716261275833,1.5080493002590565,1.8640051603501258,-3.4808891076617257,0.3531005016234412,-0.003055038738964192,-0.007611137060601054,0.22741283990514707,0.0,-0.16226744333986046,-0.09153117225950769,-2.9801237221169314,-0.226668612929817,0.14921362021574056,-0.017696977844388576,-8.992612202045876,-0.0910570134873547,0.09502205852832835,-0.012256885238511882,213.60035370004715,216.77561806168512,0.0,183.21078825770604
0.38400000000000034,0.006176774190238539,-0.00425948002018343,1.4958394915061919,1.8121289711458453,-3.446291447965593,0.34978822417829747,-0.003048322270617624,-0.007594404061278679,0.23130985286294228,0.0,-0.1628311681551362,-0.09010058144754343,-3.018274779160354,-0.22695222673986395,0.1498089029293394,-0.018595773481947506,-8.14596640071548,-0.08801460679267727,0.09226555474431818,-0.011880711762815618,263.90922253654406,266.6705308109582,0.0,240.86164473120533
0.38800000000000523,0.006260324632137004,-0.004225352774207169,1.4834785262302155,1.75996219830833,-3.4112196563005486,0.34609613681739243,-0.003041576660289449,-0.007577598459401908,0.23522377451055465,0.0,-0.1633342116319712,-0.08859375498786304,-3.056306118204795,-0.2276965453831731,0.1510833936873994,-0.019747537775712427,-7.296472767793922,-0.08488547103556837,0.08950713170951957,-0.01132544077604016,305.63432949270435,308.2291423728319,150.84173944353418,287.85039192994907
0.3920000000000101,0.0063435856156140715,-0.004191383477417792,1.4709683916468126,1.7069939546016415,-3.375117072309267,0.3419666885399287,-0.003034802500525441,-0.007560721731203118,0.2391542610425134,0.0,-0.1637593590147492,-0.08699803121890307,-3.0940280059891845,-0.22978504924384185,0.1538922575319536,-0.021351420738797644,-6.446287220941919,-0.0814507832763215,0.08667082866403011,-0.010687087146111031,342.0610244099683,344.68077878889846,223.30265617583964,328.3403563347998
0.3960000000000008,0.00642641596143443,-0.004157646991123646,1.4583121258156482,1.652381604908383,-3.3371163416861047,0.3376170143353976,-0.0030280003777886067,-0.0075437753377604515,0.24310097218267712,0.0,-0.1640748747651792,-0.08528620445757767,-3.1311920581109107,-0.23446022285439164,0.15947550440027197,-0.022884947727756427,-5.597608948831201,-0.07728147298588992,0.0833780233544029,-0.010284133782892656,375.4163335032054,378.2044510451261,276.9581536113427,363.4244146800029
0.4000000000000057,0.0065086188648156035,-0.0041242441254411505,1.4455139420692718,1.5951439027870622,-3.2961892624542504,0.33307044309085343,-0.0030211708725109898,-0.007526760725126877,0.24706357115417427,0.0,-0.1642328009259562,-0.08341470507133296,-3.1675263159018203,-0.24281334679561004,0.16893875975903705,-0.024070337427816686,-4.752923132285851,-0.07218014482867939,0.07948513708402839,-0.009899085398992674,405.86681520422655,408.95665533859363,321.9659844856886,394.8844322188181
0.4040000000000106,0.006589940952237886,-0.004091299097450458,1.4325791907873717,1.5343432703878115,-3.2513435956265195,0.328308105294376,-0.003014314559145294,-0.007509679324458801,0.251041724649452,0.0,-0.16417459986315136,-0.08132946739823885,-3.2027493898991977,-0.2552951165027329,0.18275221262036306,-0.0251800894216161,-3.914674804970524,-0.06612247398391548,0.07502225915510445,-0.009483591804697485,433.82926297030787,437.35014684425045,361.59201648786797,423.5498629367464
0.40800000000000125,0.006670050486951016,-0.004058967217076786,1.4195148481682154,1.4691435279046716,-3.2016738924462254,0.32327813023353347,-0.0030074320062158815,-0.007492532552143122,0.25503510280068487,0.0,-0.16383914688092843,-0.07897438071807547,-3.2365282406626994,-0.27173996252572846,0.20078339675167647,-0.026498385833146378,-3.0863371900541594,-0.05927136672415882,0.07032534447776306,-0.008998312473104515,459.5367154186436,463.6634117401875,397.3037413275831,450.017692313463
0.41200000000000614,0.006748597154416068,-0.004027402449348868,1.4063283837939622,1.398910765068472,-3.1464761621630672,0.31793194393656377,-0.003000523776369374,-0.0074753218099232925,0.2590433791504162,0.0,-0.16316983934845375,-0.076298003779113,-3.2685941334664634,-0.2915586784903486,0.2224725577924999,-0.02803864037160029,-2.269137024057393,-0.051453226619185555,0.06493833285587111,-0.008444949855713023,483.3655698185256,488.14949756761325,430.1581607254178,474.50029770895065
0.416000000000011,0.006825171366593396,-0.003996773558203151,1.393028681876315,1.3231873304319297,-3.085202391183392,0.31224367243081586,-0.002993590426425075,-0.007458048485024944,0.26306623062230144,0.0,-0.16211762902290439,-0.07325703686516272,-3.298679073100684,-0.31398230145790684,0.24710431150292417,-0.029776225047828887,-1.4661864360838308,-0.04301670440157489,0.05948704951549898,-0.007848004461673264,505.4885558106295,511.0726015661529,460.4371869761738,497.323278912803
0.4200000000000017,0.006899312572980512,-0.003967256008725522,1.3796259925951746,1.2417138668493866,-3.01747323166649,0.30617458544862935,-0.002986632507424781,-0.007440713950279976,0.2671033374922074,0.0,-0.16064268656079478,-0.06981853376271058,-3.3264903185115386,-0.3381699444855986,0.2739292178076068,-0.03161990899495856,-0.6805438805128858,-0.03407908387690292,0.05408613168713665,-0.00719137175481448,526.0083518286322,532.522524403132,488.5175233218628,518.6864340890108
0.4240000000000066,0.006970549008413637,-0.003939010085207731,1.3661312536588088,1.1544310452108248,-2.943085562240101,0.29969086131695905,-0.0029796505646821985,-0.007423319564249677,0.271154383359539,0.0,-0.15871478940012412,-0.06596081618599056,-3.351732946596146,-0.3632761628898686,0.30222262530435723,-0.033551202273776906,0.08606555409600958,-0.0246058519643452,0.048498016883219155,-0.006479168774557464,545.0987607988986,552.6003275931752,514.748342497827,538.666122357527
0.4280000000000115,0.007038413205367867,-0.00391217102301127,1.3525558959555832,1.0614596044113223,-2.8619884968385434,0.2927656064321856,-0.0029726451378321982,-0.007405866671347427,0.2752190551186618,0.0,-0.15631467037886557,-0.06167450773233339,-3.374232884208753,-0.38845620040568474,0.33125645619258515,-0.03552588671026798,0.8322892985101831,-0.01467445261307386,0.04271876295459122,-0.0057180708275870705,562.8933911320267,571.4144508724172,539.3398152980934,557.3760636361358
0.43200000000000216,0.007102458653953184,-0.003886839548839824,1.3389116113117623,0.9630755739918967,-2.774258757126899,0.28537493815598397,-0.002965616760879461,-0.007388356601959898,0.27929704293067636,0.0,-0.15343321636933324,-0.056961990732641674,-3.3938817079479984,-0.4129515601337756,0.36039444887958744,-0.03749697410795237,1.5572304014339053,-0.004341973784528871,0.03669980866490602,-0.004910460034916561,579.5084535748776,589.0519620617205,562.4784944825452,574.9149118335934
0.43600000000000705,0.007162277226854041,-0.0038630731319904605,1.3252100840925172,0.8596816126086607,-2.6800770643382723,0.27750771498745186,-0.00295856596224674,-0.007370790672567287,0.2833880401954157,0.0,-0.15007023086008936,-0.05183616799961647,-3.4106286820366387,-0.43611493202666257,0.38910639671788416,-0.03941437665957144,2.260528312349699,0.006357273399089328,0.030350795674105605,-0.004070206869931137,595.0732612047909,605.6101599453939,584.3145367280911,591.3483523242418
0.44000000000001194,0.007217488040191884,-0.0038408882686310378,1.311463334821899,0.7518120481449003,-2.5797185453965317,0.2691540908786119,-0.0029514932648229708,-0.007353170185863175,0.2874917435235312,0.0,-0.1462332754885953,-0.04631954520013536,-3.424430337256595,-0.4573658057545428,0.41694149054641183,-0.0412418528939243,2.9411253356035303,0.01725355312087007,0.023895229366261372,-0.003198333850720497,609.6368233235095,621.1594265045034,604.9058878155582,606.7950187044644
0.4440000000000026,0.007267764799853005,-0.0038202499687521843,1.2976831950345888,0.6400917619827304,-2.473530210257693,0.2603149509870078,-0.0029443991860107783,-0.007335496430872883,0.29160785270892786,0.0,-0.14193672493260415,-0.04044318531611111,-3.435262831930063,-0.47620160990697535,0.4435215433666392,-0.042940296368428624,3.5990188530369664,0.028363682406112187,0.01709732554126117,-0.002306938454645392,623.3172772446886,635.7614478123609,624.3927953449926,621.2756228896048
0.4480000000000075,0.007312821082595044,-0.0038010756091919557,1.283881729666591,0.525256369381132,-2.361935104316539,0.25099672728565625,-0.0029372842377736108,-0.0073177706830709005,0.29573607070141683,0.0,-0.13720113690263677,-0.03424614299082694,-3.4431081467863,-0.49216402041681756,0.468511601010264,-0.04448606937597534,4.233355019412368,0.039516459356288364,0.010197957102656474,-0.0014025026914230108,636.1518477352697,649.4792576270579,642.7918304805992,634.8832024004003
0.4520000000000124,0.0073524311540981695,-0.003783229216477145,1.27007079857764,0.40811186060599064,-2.245410242519132,0.24120841487740916,-0.0029301489266827293,-0.007299994204497951,0.29987610357945077,0.0,-0.132052590785743,-0.027774528834058582,-3.4479640218549195,-0.5048528708071678,0.49162106075863143,-0.04585876132257103,4.84416244306448,0.050688862156583525,0.0030151887913184017,-0.00048825137305225433,648.2232198299798,662.3462143813094,660.2108628156244,647.647740057288
0.45600000000000307,0.007386433820126018,-0.0037665217830564067,1.2562619955718812,0.28952070194575524,-2.1244782171493126,0.23097481882866164,-0.002922993753963603,-0.007282168243876579,0.30402766052320473,0.0,-0.1265219139094609,-0.021080311899272137,-3.449864823809316,-0.5139539084015319,0.5126124066493798,-0.04703677191430602,5.431600024480037,0.06180406996373067,-0.004459215291217691,0.0004170104135407318,659.613988753171,674.4290818667422,676.6948762213116,659.6046054243086
0.46000000000000796,0.007414721477885374,-0.0037507154967029066,1.2424669551577456,0.17042155050830746,-1.9997172735977649,0.22031698911149333,-0.0029158192155419385,-0.0072642940367258204,0.30819045378786947,0.0,-0.12064415331897224,-0.01422055445602421,-3.448845432737052,-0.5191840548673387,0.5312666049829383,-0.0480136672847269,5.995212568148663,0.07271283041307004,-0.012050031796817143,0.0013166817230003836,670.3409484000567,685.7583340607177,692.2651510078556,670.8333758178582
0.46400000000001285,0.007437262545971763,-0.0037355229871827472,1.228696731426113,0.051763472552009346,-1.871726288252285,0.20927336629888474,-0.002908625802089574,-0.007246372805475548,0.3123641986770219,0.0,-0.11445773580292098,-0.007255997576475662,-3.4449585602325774,-0.5203264106928028,0.5474006220412457,-0.048769482234231575,6.535804154976283,0.08339225138826897,-0.019999489502671053,0.0021896128211302355,680.5147485707322,696.3825914962744,706.998081908631,681.3311980664395
0.4680000000000035,0.007454079168706032,-0.0037206139757825414,1.2149624128428975,-0.06544116728002383,-1.741158862786861,0.19788268638063503,-0.0029014139990697885,-0.007228405759579346,0.3165486135163374,0.0,-0.10800432670546967,-0.0002506173526964188,-3.438270022309543,-0.5172141703098422,0.5608489464647374,-0.04930481166328768,7.05294963514455,0.09367153735184447,-0.02800684966648638,0.0030339070541884946,690.1371334026005,706.3431712310056,720.8776202889422,691.1786619614636
0.4720000000000084,0.007465266448306096,-0.0037056192361010322,1.2012744605945664,-0.18019283909785605,-1.6086770838846924,0.1861898740953153,-0.0028941842867822483,-0.0072103940956264895,0.32074341962750924,0.0,-0.10132798392128461,0.006729885034596336,-3.4288506555429805,-0.5097264772649895,0.5714654674421451,-0.04961565953837256,7.547565599174863,0.10349034767374364,-0.036287514758731494,0.0038407685896114357,699.2955079633405,715.6645468950375,733.977693679912,700.3917820955944
0.4759999999999991,0.007470985076823635,-0.003690137790255282,1.1876428174787736,-0.29150345094543906,-1.4749544187044377,0.1742494355099656,-0.0028869371404078603,-0.0071923389974536895,0.32494834130222555,0.0,-0.09447444261893465,0.013619406080986421,-3.416823387663966,-0.49787410745986527,0.5791799275503745,-0.0497054498476416,8.020367639588578,0.11274661155652425,-0.04475966816868059,0.004597181259324441,708.0419241222094,724.3998530823387,746.3161988282576,709.0156148867821
0.480000000000004,0.007471443774694099,-0.003673741534803486,1.17407745227944,-0.3983455766331789,-1.3407216370469974,0.16212532717367467,-0.0028796730300528844,-0.007174241636254991,0.32916310577657326,0.0,-0.08749059712915325,0.02035239087078875,-3.402267101106144,-0.4816216753247954,0.5838630844107964,-0.049564656886482684,8.470983057036669,0.12130363903644116,-0.053162850814118506,0.005289884498768223,716.3858947778114,732.5937167848655,757.8619977766925,717.0946413267224
0.48400000000000887,0.007466904351974791,-0.003655983162977637,1.1605880337017151,-0.4996960303088591,-1.2067379594479832,0.14988143465875797,-0.0028723924207930862,-0.007156103170691771,0.3333874432054209,0.0,-0.08042535629971959,0.026863201469760883,-3.3852287166949515,-0.46091035893969956,0.5853450786836792,-0.049196025039554364,8.899700079901425,0.12903048712434836,-0.06151576426233362,0.0059163477810330895,724.3681394541621,740.2555173194773,768.6407050676756,724.6630537777645
0.48799999999999955,0.007457683195479866,-0.0036364061040320915,1.1471836423600992,-0.5945771459175786,-1.07375862846608,0.1375877595632297,-0.0028650957727172827,-0.0071379247470012295,0.337621086637152,0.0,-0.07332911235789055,0.033087211325904385,-3.365793939246136,-0.4357927338097893,0.5835267263966892,-0.04861184119157701,9.307401029073493,0.13581430665243827,-0.06983597427623978,0.00646681163631078,732.0456516820026,747.41577907177,778.6787464956564,731.7533577217647
0.49200000000000443,0.00744413883276083,-0.00361455050161857,1.1338730965699946,-0.6820333409737249,-0.9425641737186065,0.12532001167250612,-0.0028577835409705453,-0.007119707499104018,0.34186377198859835,0.0,-0.06625244772026935,0.038962652694911726,-3.344073363857582,-0.4064130554658085,0.5783604899780952,-0.04781934364433256,9.694325777174011,0.14155545144553833,-0.0779465629532569,0.006931736983535904,739.435453403702,754.1138301071971,787.9675738923755,738.4045418316826
0.4960000000000093,0.007426667321008388,-0.0035899622223560792,1.1206648905367826,-0.7611470700834702,-0.8139496904492562,0.11315308906689807,-0.0028504561757972937,-0.007101452548711605,0.3461152380200358,0.0,-0.05924601392991315,0.04443107933394912,-3.320151972748962,-0.3729121304974557,0.5697714815387486,-0.04682992683311947,10.060848009915652,0.1461336035646472,-0.0857624897063636,0.00730896132529329,746.5601265507213,760.3676733586286,796.5155630876606,744.6568190252726
0.5,0.007405699554481289,-0.003562204520044971,1.1075669433517168,-0.8310697613011283,-0.6886917009095824,0.10117197761571503,-0.0028431141225838184,-0.007083161005432212,0.3503752263105122,0.0,-0.05236008010792834,0.0494380469772487,-3.2941315176509596,-0.33549531292290236,0.557736639639475,-0.04564410269220014,10.19,0.1494280880221377,-0.09325507849308397,0.007583617933721229,749.2332237799639,762.0436457993782,800.3592776689521,746.280062455306
0.5040000000000049,0.007381692003164118,-0.0035308658984299864,1.0945867064044534,-0.8910141875546351,-0.5675574074990164,0.0894506728339165,-0.002835757821900466,-0.007064833966875911,0.35464348123337075,0.0,-0.0456434947543738,0.053934136422274806,-3.2661425498012377,-0.2944405469240949,0.5423064280490612,-0.044281938534597554,10.19,0.15134784796935863,-0.10030744281619718,0.007765042515118635,749.6020805867036,761.2453057391647,801.5314862756302,745.465913685487
0.5080000000000098,0.007355121419972055,-0.003495572768091145,1.0817309081007978,-0.9402782018639949,-0.45129408006222943,0.07805945092668795,-0.0028283877095437253,-0.007046472518759479,0.3589197499318307,0.0,-0.03914290059218322,0.057875768671951267,-3.2363329199967823,-0.2500610716264466,0.5235415057419333,-0.042769074956959606,10.19,0.15177044212937857,-0.10685425214984132,0.007854523179693143,750.1966927171385,760.4442754182714,802.3822596270163,744.7697512276385
0.5120000000000005,0.0073264779892607225,-0.0034560022194569007,1.0690052904362977,-0.9782357541581769,-0.34064900951519794,0.0670679089042274,-0.002821004216577748,-0.007028077735009833,0.36320378229489636,0.0,-0.03290270529177164,0.06122553895849525,-3.2049008616643406,-0.2027008651809435,0.50148859661587,-0.04113836172893002,10.19,0.15055584224257107,-0.112785573303387,0.007849944523324154,751.0225510035539,759.6396778671756,802.883386984729,744.218248423059
0.5160000000000053,0.007296254919057279,-0.003411890752930903,1.0564146030233106,-1.0043478292098995,-0.23637669574717954,0.05654042387832695,-0.00281360776937554,-0.007009650677866658,0.36749533093345776,0.0,-0.02696534321286162,0.06395247861591263,-3.1720888714730684,-0.15271975869067717,0.4761492794109971,-0.039398297721930944,10.19,0.1476172815091898,-0.1179357304125801,0.00775451843252034,752.0659500747372,758.8365931604718,803.0120918878001,743.84491568388
0.5200000000000102,0.00726493697711704,-0.003363039085659625,1.0439627639403906,-1.018177988499184,-0.13920082684630228,0.046534455295809005,-0.00280619878966006,-0.006991192397984797,0.37179415115644293,0.0,-0.02137129972492024,0.06603211498223545,-3.13813417424217,-0.10051777300229822,0.4475606904315151,-0.037568828595566484,10.19,0.1429292427855755,-0.12216161199547758,0.007573649905324335,753.3059783154537,758.0418758860645,802.7566076485544,743.676201718131
0.5240000000000009,0.007232990544429,-0.0033093154074737927,1.031653001120082,-1.0193850081346563,-0.049769800268708475,0.03709767868367919,-0.0027987776945447647,-0.006972703934535257,0.3761000009472954,0.0,-0.01615785082013916,0.06744658352370916,-3.1032398791817672,-0.04652170450858912,0.4159091809408926,-0.03567190927590899,10.19,0.1364773624814328,-0.1253817552658178,0.007316372228700572,754.7230674215236,757.2522847179144,802.1165662145686,743.7344483641202
