Time_s,X,Y,Z,Roll_deg,Pitch_deg,Yaw_deg,Ref_X,Ref_Y,Ref_Z,Ref_Yaw,vx,vy,vz,p,q,r,T_pert,tau_x,tau_y,tau_z,RPM_0,RPM_1,RPM_2,RPM_3
0.0040000000000000036,3.3827230054016896e-22,2.0,0.010006999594037988,-2.096004393768565e-18,1.4202641527917514e-18,1.8284134537641468e-20,1.5271478250114865e-22,2.0,0.010074639714689831,9.401864931293104e-23,6.963764715863389e-20,400.0,2.0013999188075973,0.0,0.0,0.0,0.13727673356390743,2.447572233571506e-18,-3.820779320707456e-18,-1.5066042318395035e-20,539.3555031529193,539.3555031529194,539.3555031529193,539.3555031529194
0.008000000000000007,4.0442552376654164e-22,2.0,0.01001099936604295,-4.931340104210861e-18,1.1887942467748524e-18,4.017486723599059e-20,1.5270385281404422e-22,2.0,0.01021705724096241,9.401192046584669e-23,4.603060848082743e-20,222.22222222222223,1.112333262893661,0.0,0.0,0.0,0.2830776344539661,3.454243116152082e-18,1.4088113138089757e-18,-2.610189084604647e-20,543.2938902409245,543.2938902409246,543.2938902409245,543.2938902409246
0.01200000000000001,6.854509485970767e-22,2.0,0.010014999147004025,-5.327225042289631e-18,2.155715459699074e-18,1.2664254714788407e-19,1.5268755694448375e-22,2.0,0.010429397942859043,9.400188793579058e-23,4.437777715088997e-20,-7.089040623440109e-23,0.000999943864330756,0.0,0.0,0.0,0.42940121619331495,7.995044015345168e-19,-3.771708852396919e-18,-1.0243711761090531e-19,547.2178991675321,547.2178991675322,547.2178991675321,547.2178991675321
0.016000000000000014,5.723292611626242e-22,2.0,0.010018998946029293,-5.926252891785884e-18,9.141247875995924e-19,2.2261198748495477e-19,1.52665959873308e-22,2.0,0.010710815098006973,9.398859172812945e-23,3.110881658499587e-20,-9.198794795094824e-23,0.000999946631403438,0.0,0.0,0.0,0.5762362186425524,1.0637925114487257e-18,5.65707728382067e-18,-1.1708755953007988e-19,551.1275382989265,551.1275382989267,551.1275382989265,551.1275382989267
0.01999999999999999,3.924660424158722e-22,2.0,0.010022998767401186,-6.037331786611248e-18,-1.1262332643790291e-18,3.4233582888496836e-19,1.5263912599243093e-22,2.0,0.011060469657949597,9.397207148565805e-23,-3.899927846314846e-21,-1.018597472791987e-22,0.0009999512708235361,0.0,0.0,0.0,0.7235715097454183,5.349616546163307e-19,3.187272857338726e-18,-1.487775173667095e-19,555.0228180234129,555.022818023413,555.0228180234129,555.0228180234129
0.023999999999999994,3.970725906498043e-22,2.0,0.010026998612427269,-7.305368158133567e-18,-1.3267343930997633e-18,3.9128008419953396e-19,1.5260711910958864e-22,2.0,0.011477530186265227,9.395236649152282e-23,-3.7360437447978775e-20,-1.1356914379295642e-22,0.000999956851879813,0.0,0.0,0.0,0.8713960695306958,1.893574219718247e-18,-1.691928997889573e-18,-7.101226667367905e-20,558.9037502648109,558.9037502648109,558.9037502648109,558.9037502648109
0.027999999999999997,5.465012472115696e-22,2.0,0.010030998480645991,-7.426953246751695e-18,-4.881239244370444e-19,5.478232472471091e-19,1.525700024530525e-22,2.0,0.011961172797154362,9.392951567212351e-23,1.3349407152652961e-20,-1.2332552733356148e-22,0.0009999626865566519,0.0,0.0,0.0,1.019698990370995,6.415372508223997e-19,-2.5825697509835737e-18,-1.9871487104124624e-19,562.7703484390782,562.7703484390784,562.7703484390782,562.7703484390782
0.032,6.557381459607684e-22,2.0,0.010034998370659522,-8.444255302926527e-18,2.3406548618035334e-19,6.110201431994405e-19,1.525278386763065e-22,2.0,0.012510581094492131,9.39035575999928e-23,3.070713396662492e-20,-1.353645102846419e-22,0.0009999683708877827,0.0,0.0,0.0,1.1684694767176191,1.6958092486063932e-18,-4.695508203384266e-19,-9.610009800024196e-20,566.6226273997646,566.6226273997646,566.6226273997646,566.6226273997646
0.036000000000000004,9.0014386488299e-22,2.0,0.010038998280572016,-9.12472708987793e-18,4.0673322483939363e-19,7.818159468847816e-19,1.5248068986268912e-22,2.0,0.013124946111342446,9.387453049665406e-23,3.876951390618495e-20,-1.4410958542090719e-22,0.000999973686893231,0.0,0.0,0.0,1.3176968448989659,1.3720471589231696e-18,-1.888506200469503e-18,-2.2438797122891863e-19,570.4606033878531,570.4606033878532,570.4606033878531,570.4606033878532
0.04000000000000001,9.448674392545795e-22,2.0,0.010042998208426157,-9.999753505252446e-18,1.3701503278734404e-19,7.469156955292805e-19,1.5242861753000008e-22,2.0,0.013803466249930549,9.384247223545751e-23,4.174658749174065e-20,-1.5923145176202274e-22,0.0009999785396645408,0.0,0.0,0.0,1.4673705221418403,1.6457671763580183e-18,2.4037768089573055e-18,8.883851260019937e-21,574.284293964355,574.2842939643551,574.284293964355,574.284293964355
0.04400000000000001,1.0184658599220657e-21,2.0,0.010046998152288895,-1.053920609538803e-17,9.369593893146489e-23,7.333944051304281e-19,1.5237168263507224e-22,2.0,0.014545347222070596,9.380742034439484e-23,2.3235995117897422e-20,-1.728047489743246e-22,0.0009999829023199167,0.0,0.0,0.0,1.6174800463089487,1.3137431312057025e-18,-2.3119161968055517e-19,-1.465731495107233e-20,578.0937179641925,578.0937179641926,578.0937179641925,578.0937179641925
0.048000000000000015,9.510056799380174e-22,2.0,0.010050998110308006,-1.0926190459758628e-17,-3.6915628552217714e-19,6.937432735623385e-19,1.5230994557830867e-22,2.0,0.01534980199004497,9.376941200889251e-23,1.3097717539686428e-20,-1.8334897314509583e-22,0.0009999867945444801,0.0,0.0,0.0,1.7680150650022857,1.1725900923247514e-18,2.004984768246537e-18,1.642141879245111e-20,581.8888954364335,581.8888954364336,581.8888954364335,581.8888954364336
0.05200000000000002,1.0867035342770579e-21,2.0,0.010054998080842297,-1.124985509381329e-17,-4.180810318558281e-19,4.43645206740818e-19,1.5224346620818545e-22,2.0,0.016216050707932007,9.37284840745839e-23,2.1877041625556015e-20,-1.9046600915162575e-22,0.000999990235334841,0.0,0.0,0.0,1.9189653344663173,1.1251125007167103e-18,-2.23741443970405e-18,2.6388463533366772e-19,585.6698475823014,585.6698475823014,585.6698475823014,585.6698475823014
0.05600000000000002,1.2673442314010618e-21,2.0,0.010058998062601028,-1.1309815200013099e-17,-3.088685755632436e-19,4.2774847623567126e-19,1.521723038257202e-22,2.0,0.017143320663378918,9.36846730500603e-23,2.855465742128984e-20,-1.9518322468423504e-22,0.0009999932958571628,0.0,0.0,0.0,2.070320718626969,8.393091359176293e-19,-7.448401214282246e-19,5.699824648445715e-22,589.4365966993631,589.4365966993633,589.4365966993631,589.4365966993632
0.060000000000000026,2.084947659588998e-14,2.000000000000021,0.010062998054385777,-2.8576255846014927e-11,2.8576244517655165e-11,3.9427434766311156e-12,1.520965171889068e-22,2.0,0.01813084621981658,9.363801510960119e-23,2.0848478077398534e-12,2.087119536333702e-12,0.0009999960259276727,0.0,0.0,0.0,2.2220711889632185,2.7659184468546335e-10,-2.7632711619223784e-10,-4.605747363794845e-12,593.1891661558254,593.1891661559025,593.1891662219849,593.1891660613582
0.06400000000000003,-4.222944721197208e-11,1.9999999999577702,0.01006732176910284,-4.119522977117257e-06,4.1195022553795965e-06,1.67836517824751e-07,1.5201616451711636e-22,2.0,0.01917786875911308,9.358854609588364e-23,-4.234523952050451e-09,-4.234556779781281e-09,0.0010323698739378917,0.0,0.0,0.0,2.3735498401738204,4.317898995332835e-06,-4.317879130684067e-06,-1.9605514893597183e-07,596.9117868322093,596.9117868379442,596.9124330211473,596.9099399105634
0.06800000000000003,-2.712225730167012e-10,1.9999999997287705,0.010075663023972208,-2.718094377791883e-05,2.7180244212077756e-05,1.1073010343470543e-06,1.519313034954648e-22,2.0,0.02028363662466269,9.353630152267125e-23,-2.7405914666220996e-08,-2.7406610934682434e-08,0.0014664966645291419,0.0,0.0,0.0,2.517896852493654,2.4999655281365054e-05,-2.499893406589774e-05,-1.1043350201912318e-06,600.4387690174322,600.4387692244206,600.442582019723,600.4282323719275
0.07199999999999998,-6.139953110248164e-10,1.9999999993859745,0.01009321064245943,-6.714117986665354e-05,6.713799831863264e-05,2.7294688907493204e-06,1.5184199127914722e-22,2.0,0.021447405064907204,9.348131657748258e-23,-6.331612814342881e-08,-6.331922067691327e-08,0.002821258878793862,0.0,0.0,0.0,2.6519506042079604,4.700298953587181e-05,-4.700024345990056e-05,-1.940417913155472e-06,603.6957799226946,603.6957807065648,603.7033216790289,603.6764880963414
0.07599999999999998,-9.29827685099065e-10,1.9999999990700978,0.010124678658930688,-0.00012080501266699429,0.00012079655708341893,4.894626403978228e-06,1.5174828449773939e-22,2.0,0.022668436177286463,9.34236261242394e-23,-8.684177492287911e-08,-8.684943184538065e-08,0.005402401951764786,0.0,0.0,0.0,2.7764996296817714,6.727970424375412e-05,-6.727359242125416e-05,-2.6413271274595093e-06,606.7060776061012,606.7060793420711,606.7172294761515,606.6790111662219
0.07999999999999999,-1.030164613075908e-09,1.9999999989697022,0.010174344428171991,-0.00018515122452577272,0.0001851339014994582,7.477997555909838e-06,1.5165023925946655e-22,2.0,0.023945998852614787,9.336326470589466e-23,-8.019644994353524e-08,-8.020977498329705e-08,0.009136379574137248,0.0,0.0,0.0,2.892270338569838,8.563995865673021e-05,-8.562923182279974e-05,-3.218775124412005e-06,609.4907629026809,609.490765935554,609.5053230840101,609.456898178794
0.08399999999999999,-6.859963000230406e-10,1.9999999993138156,0.01024609381506294,-0.0002573229684412562,0.00025729258378329124,1.0369553660585278e-05,1.5154791115543964e-22,2.0,0.025279368719880478,9.330026654704065e-23,-3.660931049966167e-08,-3.662779396876488e-08,0.013916621352686268,0.0,0.0,0.0,2.999911432513172,0.00010202463929700077,-0.00010200820733117263,-3.684865415146361e-06,612.068431028146,612.0684356545052,612.0861509174263,612.0287051943375
0.088,3.637477021168472e-10,2.000000000363544,0.010343447204112274,-0.00033464794558494496,0.0003345999082261772,1.347467999655897e-05,1.5144135526385945e-22,2.0,0.026667828091465066,9.32346655564972e-23,4.878753922375154e-08,4.8766372561468985e-08,0.019646190824618076,0.0,0.0,0.0,3.1000313916520446,0.00011639196783902139,-0.00011636886690899147,-4.053085815708267e-06,614.456187734476,614.4561942131828,614.4767726413211,614.4114930707237
0.092,2.403144707084648e-09,2.000000002403017,0.010469559084338501,-0.0004146768497844796,0.00041460636318534425,1.671064996248705e-05,1.5133062615418873e-22,2.0,0.028110665908779347,9.316649532988023e-23,1.7927747354019271e-07,1.792581776654945e-07,0.026232911422472287,0.0,0.0,0.0,3.1932512753405504,0.00012874330941067155,-0.00012871275596038724,-4.333438345313928e-06,616.6709804878303,616.670989025838,616.6941118948862,616.6221655981432
0.096,5.731877144593759e-09,2.000000005731989,0.010627326089260548,-0.0004951210052765793,0.0004950232751741738,2.0004613097554706e-05,1.512157778912925e-22,2.0,0.02960717768831314,9.309578915215078e-23,3.5695907972316257e-07,3.569483564494412e-07,0.03359588468867888,0.0,0.0,0.0,3.2799846245531894,0.00013903447023105628,-0.00013899586728478887,-4.534062877351555e-06,618.7244520899508,618.7244628415472,618.7497802077803,618.6723422143208
0.1,1.0657575094647116e-08,2.0000000106581837,0.010819450012506516,-0.0005738303846681126,0.0005737008389308817,2.329466067915426e-05,1.5109686403954694e-22,2.0,0.03115666546809575,9.302258000014462e-23,5.830900028298794e-07,5.830968584283164e-07,0.04167266433039572,0.0,0.0,0.0,3.3605253956289847,0.00014719761978632746,-0.0001471505918488531,-4.664749617911353e-06,620.6251441374544,620.625157195445,620.6522763246825,620.5705444557296
0.10400000000000001,1.7487223125528362e-08,2.0000000174886963,0.011048427261183507,-0.0006488322466528362,0.0006486667364706039,2.6528253558572373e-05,1.509739376669169e-22,2.0,0.032758437754564114,9.294690054508253e-23,8.582317387441283e-07,8.582673646056306e-07,0.050411583956218774,0.0,0.0,0.0,3.4351952471267837,0.00015320231786691062,-0.00015314675696393224,-4.733901539540959e-06,622.3820258730121,622.3820412567559,622.4105409003023,622.3257168485936
0.10800000000000001,2.651909296559895e-08,2.00000002652193,0.011316553467763764,-0.0007183456880535353,0.0007181406643165822,2.9662485156007455e-05,1.5084705134900242e-22,2.0,0.03441180946983569,9.286878315506155e-23,1.1823313391050873e-06,1.1824092046446122e-06,0.059761984063524086,0.0,0.0,0.0,3.5043131115532766,0.0001570463136614422,-0.00015698230476349613,-4.75061357941073e-06,624.0037989589428,624.0038166357123,624.0332524405317,623.9465280094054
0.11200000000000002,3.8034593567677116e-08,2.0000000380394405,0.01162589563317454,-0.0007808124003202919,0.0007805650399029226,3.266183629963682e-05,1.5071625717305436e-22,2.0,0.0361161018993831,9.278825989752725e-23,1.5548248873677903e-06,1.5549606347023873e-06,0.06967143131081747,0.0,0.0,0.0,3.5682609442607975,0.0001587685886538964,-0.0001586964439086134,-4.721753515971296e-06,625.5004534169499,625.5004732928523,625.5303952255825,625.4429315695724
0.11600000000000002,5.229223914778705e-08,2.000000052299903,0.011978350467778953,-0.0008348747717651797,0.0008345831051021899,3.549767136157428e-05,1.5058160674195944e-22,2.0,0.03787064264010756,9.270536254172705e-23,1.9747496607769635e-06,1.974961117601414e-06,0.08008870803029355,0.0,0.0,0.0,3.6273096715311812,0.00015841558899211427,-0.00015833581649177665,-4.653903885539839e-06,626.8792145713047,626.879236500319,626.9091913258708,626.8221162503323
0.12000000000000002,6.952155117993667e-08,2.00000006953301,0.012375651387398046,-0.0008793766441483565,0.0008790396515113199,3.8147179231571966e-05,1.5044315117819496e-22,2.0,0.039674765548808284,9.262012256114495e-23,2.4408525675287326e-06,2.4411595698143923e-06,0.09097011707406492,0.0,0.0,0.0,3.6817215360455147,0.00015604234173013644,-0.00015595566121609397,-4.552692774718581e-06,628.146971605937,628.1469953858349,628.176531324861,628.0909361110503
0.12400000000000003,8.991760220056382e-08,2.0000000899340113,0.012819369080535358,-0.0009133627503432417,0.0009129804217819617,4.059328939671604e-05,1.503009411277532e-22,2.0,0.041527810691044845,9.253257113591762e-23,2.9516173769905053e-06,2.95204172829791e-06,0.1022747423311741,0.0,0.0,0.0,3.7317629210445373,0.0001517191576999129,-0.00015162644895623534,-4.423889411361371e-06,629.3105933510692,629.3106187377211,629.3392887455658,629.256221212758
0.12800000000000003,1.1363730419457325e-07,2.000000113660001,0.013310977892591452,-0.0009360801710719625,0.0009356535798719068,4.282368363788761e-05,1.5015502676403618e-22,2.0,0.043429124290389684,9.244273915523214e-23,3.5052671130689207e-06,3.5058328654500147e-06,0.11396828182273948,0.0,0.0,0.0,3.77757075542393,0.0001455472673944855,-0.00014544958450658476,-4.2723442559076795e-06,630.3738397888196,630.3738664924363,630.4012390615035,630.3216875528435
0.13200000000000003,1.407952509671978e-07,2.000000140825752,0.013851834494298696,-0.0009469746799130725,0.0009465060038283172,4.4830087786213014e-05,1.5000545779172025e-22,2.0,0.045378058678067934,9.23506572197053e-23,4.099760507715148e-06,4.100493670508695e-06,0.12602212590596912,0.0,0.0,0.0,3.819328417698869,0.0001376287692292486,-0.00013752734167258774,-4.102275572812395e-06,631.3414713708237,631.3414990556257,631.3671597457861,631.2920540644056
0.13600000000000004,1.7146075986664338e-07,2.000000171500756,0.01444318439127369,-0.0009456872153493966,0.0009451797276841729,4.6607802228518454e-05,1.498522834505916e-22,2.0,0.047373972242981635,9.225635564374486e-23,4.732781337330745e-06,4.733710047114368e-06,0.1384084786613458,0.0,0.0,0.0,3.8572099116867076,0.00012808539284234018,-0.00012798154426536644,-3.917519244376969e-06,632.2179571599037,632.2179854662293,632.241542908493,632.171744706405
0.13999999999999999,2.056557594261585e-07,2.000000205707104,0.015086170173170294,-0.0009320492593882594,0.0009315072922592237,4.815521105842205e-05,1.4969555251935228e-22,2.0,0.049416229382115595,9.215986445789277e-23,5.401719143598781e-06,5.402873418355253e-06,0.15110002922484017,0.0,0.0,0.0,3.8913761280949957,0.00011705372973070793,-0.00011694889269758715,-3.721484546520383e-06,633.0073972530126,633.0074257931273,633.0285165641062,632.9648122142776
0.144,2.4335347972514256e-07,2.000000243418173,0.015781838813062964,-0.0009060769879940507,0.0009055058689190494,4.9473339220677195e-05,1.4953531331939713e-22,2.0,0.051504200451322216,9.206121341115043e-23,6.103638852233914e-06,6.105050451032917e-06,0.1640714757340291,0.0,0.0,0.0,3.92197650874777,0.00010468372806026233,-0.00010457938765632325,-3.5171900566499736e-06,633.7135695516823,633.7135979249454,633.7318909118032,633.6749851281331
0.148,2.84477934640163e-07,2.000000284558107,0.01653114814649474,-0.0008679641495641712,0.0008673701128572493,5.056545475021742e-05,1.4937161371856195e-22,2.0,0.053637261716482115,9.196043197328619e-23,6.835247502030138e-06,6.836949903288459e-06,0.1772992938118661,0.0,0.0,0.0,3.9491504783771663,9.113731953634468e-05,-9.10349684485314e-05,-3.3072981463255414e-06,634.339969903922,634.3399977087469,634.3551980347399,634.3057081393446
0.152,3.2890417666906454e-07,2.000000329002062,0.017334972638199046,-0.000818073675481094,0.0008174637504887574,5.143671261285014e-05,1.4920450113484293e-22,2.0,0.0558147953050383,9.185754933712528e-23,7.592860150853348e-06,7.594888184723586e-06,0.19076153763928078,0.0,0.0,0.0,3.9730286833399617,7.658682217343175e-05,-7.648796976260801e-05,-3.0941472452185988e-06,634.889846752232,634.8898735833433,634.9017260569118,634.8601770004939
0.156,3.7645929721065007e-07,2.000000376577207,0.01819410853062198,-0.0007569280488547469,0.000756309927722066,5.2093836750714924e-05,1.4903402254008768e-22,2.0,0.05803618915790083,9.175259442082217e-23,8.372367454655417e-06,8.374757009061801e-06,0.20443766732939922,0.0,0.0,0.0,3.9937340619933996,6.121331083594947e-05,-6.111942387749255e-05,-2.8797818452716744e-06,635.3662310224764,635.3662564867282,635.3745485434989,635.34136872587
0.16,4.2692413777888643e-07,2.000000427064431,0.01910927845610466,-0.0006851984777994918,0.0006845803654472022,5.254483707490407e-05,1.4886022446365804e-22,2.0,0.06030083698171933,9.164559587011554e-23,9.169207224100607e-06,9.171994671293445e-06,0.218308399116792,0.0,0.0,0.0,4.011382768628424,4.5204766018135855e-05,-4.5117230931891355e-05,-2.6659802682732384e-06,635.7719619382348,635.7719856645651,635.7765497766203,635.752067760916
0.164,4.800357809675042e-07,2.000000480200831,0.020081133109703515,-0.0006036794959654606,0.0006030699508001615,5.2797990183084014e-05,1.4868315299606487e-22,2.0,0.06260813820152066,9.153658206056608e-23,9.978363496425104e-06,9.981585414763215e-06,0.23235532797362865,0.0,0.0,0.0,4.026089991461143,2.873971803288218e-05,-2.865981605920262e-05,-2.453382959038057e-06,636.1098234478286,636.1098450937056,636.1105593015521,636.0950092850107
0.168,5.354908167650554e-07,2.0000005356829775,0.02111024905252952,-0.0005132410610091593,0.00051264884164024,5.286256557088151e-05,1.4850285379257496e-22,2.0,0.06495749791370911,9.142558109977703e-23,1.0794460663354658e-05,1.0798153060216788e-05,0.24656022086094292,0.0,0.0,0.0,4.037977752017355,1.1959825335478222e-05,-1.1888750858615794e-05,-2.2434896431245448e-06,636.3827295140114,636.3827487602147,636.3795241081029,636.3730661050402
0.17200000000000001,5.929483143729289e-07,2.0000005931698843,0.022197143708530837,-0.00041486863638748073,0.000414302524548376,5.2748750992208345e-05,1.483193720767904e-22,2.0,0.06734832683942642,9.131262082959785e-23,1.1611727326678646e-05,1.1615925179300736e-05,0.2609060792784431,0.0,0.0,0.0,4.047140080334985,-4.9423877755874865e-06,5.003609509911746e-06,-2.037753626732972e-06,636.5929255794229,636.5929421521356,636.5857365150039,636.5884289194502
0.17600000000000002,6.520334867357581e-07,2.0000006522866727,0.02334227998174235,-0.00030966693478471947,0.0003091355430605282,5.246800530831771e-05,1.481327526442005e-22,2.0,0.0697800412782689,9.119772882831096e-23,1.242387449315253e-05,1.2428610795000915e-05,0.2753780057907758,0.0,0.0,0.0,4.053663601819208,-2.1752005446684273e-05,2.1802523127325413e-05,-1.8380781061975613e-06,636.7424657467099,636.7424794186255,636.7313022267282,636.7430897586374
0.18000000000000002,7.123416821551093e-07,2.0000007126285637,0.024546071380811114,-0.00019888112116471287,0.00019839267454792013,5.2031976875293016e-05,1.4794303986570646e-22,2.0,0.07225206306235925,9.108093241280168e-23,1.3223925827794517e-05,1.3229230741147612e-05,0.28996273284842583,0.0,0.0,0.0,4.0576263600117155,-3.821467119596992e-05,3.8253882896353054e-05,-1.6451549791620313e-06,636.8331856630065,636.8331962736023,636.8181226359533,636.8388150039377
0.18400000000000002,7.734438699346865e-07,2.000000773766365,0.025808877490164132,-8.382203447901037e-05,8.33841841271225e-05,5.145224558040143e-05,1.4775027769111919e-22,2.0,0.07476381951077027,9.096225864071167e-23,1.4004299102844114e-05,1.4010198975797057e-05,0.30464729507362254,0.0,0.0,0.0,4.059117244346103,-5.4133343433044405e-05,5.416087323169287e-05,-1.4593825822068049e-06,636.8671518883649,636.8671593374677,636.8483154273035,636.8776182227317
0.18800000000000003,8.348920034477145e-07,2.0000008352518357,0.027131005886803172,3.415462061846986e-05,-3.4534973184220294e-05,5.07404067384544e-05,1.4755450965263008e-22,2.0,0.07731474338429797,9.084173431257566e-23,1.4756971309608469e-05,1.4763487467027204e-05,0.3194185804006573,0.0,0.0,0.0,4.058223052508243,-6.932793187869874e-05,6.934363105401294e-05,-1.2812544445779922e-06,636.8463671026818,636.8463713507547,636.8239296407265,636.8614532863584
0.19200000000000003,8.962245664116098e-07,2.0000008966232357,0.028512714444199876,0.00015366485350775872,-0.00015398172032872308,4.990797691022212e-05,1.4735577886825535e-22,2.0,0.0799042728405815,9.071938597394203e-23,1.547361296009178e-05,1.548076090306854e-05,0.334263724781106,0.0,0.0,0.0,4.055027643197262,-8.362822512925997e-05,8.363221462365822e-05,-1.1111547100414935e-06,636.772752122687,636.7727532023376,636.7469302241963,636.7921950363891
0.19600000000000004,9.569723906708263e-07,2.000000957411148,0.029954213920865794,0.00027332522523267473,-0.00027357367052664516,4.896570542335969e-05,1.4715412804525385e-22,2.0,0.08253185138956738,9.059523991747694e-23,1.6145660351153894e-05,1.6153448821981638e-05,0.34917047593201445,0.0,0.0,0.0,4.04961128441707,-9.68881665321456e-05,9.688079964591996e-05,-9.486600360415188e-07,636.6481315531418,636.6481295591,636.6191818529628,636.6716307545004
0.20000000000000004,1.0166645786500256e-06,2.000001017144404,0.03145567065962587,0.00039178842835594355,-0.0003919646708862457,4.79248468294244e-05,1.4694959948351876e-22,2.0,0.0851969278493154,9.046932218505241e-23,1.6764505498787452e-05,1.677293542289537e-05,0.3641272233196654,0.0,0.0,0.0,4.0420503457656904,-0.00010899734365811073,0.00010897917173269118,-7.948020059712454e-07,636.4742313999039,636.4742264798496,636.4424369546638,636.5014543752854
0.20400000000000004,1.0748333166104099e-06,2.000001075354902,0.03301720545463739,0.0005076789069383367,-0.0005077804673997764,4.679646579886041e-05,1.4674223507894307e-22,2.0,0.08789895630214387,9.034165856981831e-23,1.7321436178890406e-05,1.733049993715503e-05,0.37912266305476344,0.0,0.0,0.0,4.032424989488859,-0.00011978063086859304,0.0001197525252473308,-6.498209567683524e-07,636.2528538424825,636.2528462302294,636.2185441248724,636.2834205566552
0.208,1.1310200064163953e-06,2.0000011315837445,0.034638897740703216,0.0006196555409668913,-0.0006196813151494832,4.5316101413238285e-05,1.4653207632675945e-22,2.0,0.09063739605111147,9.021227461825852e-23,1.7807642909776452e-05,1.7817323451963488e-05,0.3941458651415201,0.0,0.0,0.0,4.02080840440258,-0.00012911486921931545,0.00012907788355029492,-1.9231378278354006e-07,635.9851701333386,635.9851601117568,635.9496316383787,636.0195912234587
0.212,1.1847808660594921e-06,2.0000011853868442,0.03632078846418897,0.0007264308559021333,-0.0007263811557642028,4.355361283921872e-05,1.4631916432485428e-22,2.0,0.09341171157683367,9.008119563223118e-23,1.82143694959124e-05,1.8224639738755297e-05,0.40918660295085274,0.0,0.0,0.0,4.007269347528485,-0.00013690265059573213,0.00013685806362392382,1.980404069502459e-07,635.6732492414568,635.673237154309,635.6367045181088,635.710918646299
0.216,1.2356923711298377e-06,2.0000012363403705,0.038062879029766766,0.0008267921647286493,-0.0008266687794384174,4.1622995703787544e-05,1.4610353977705628e-22,2.0,0.09622137249463043,8.99484466709934e-23,1.8533160216767167e-05,1.854398244182147e-05,0.4242350685844188,0.0,0.0,0.0,3.991880016218632,-0.00014307205949918016,0.0001430213519008195,4.6681460529433004e-07,635.3187659542332,635.3187522001659,635.2813006741687,635.3589012680015
0.22,1.2833563373412424e-06,2.0000012840458408,0.03986513842637974,0.0009196256158870705,-0.0009194317963009878,3.956385706808296e-05,1.4588524299639987e-22,2.0,0.09906585351200382,8.981405255321032e-23,1.8756041114580627e-05,1.8767366762904252e-05,0.43928209777155186,0.0,0.0,0.0,3.9746994813507337,-0.00014758379748739598,0.0001475286382169655,6.962253929335137e-07,634.9228910169645,634.922876046085,634.8848382563372,634.9649350156577
0.224,1.327404286595231e-06,2.0000013281344873,0.04172749212653434,0.0010038845968689497,-0.001003625052200285,3.7410779377743254e-05,1.4566431390836346e-22,2.0,0.1019446343864423,8.967803785894872e-23,1.887555862513296e-05,1.8887327808308032e-05,0.4543182544247585,0.0,0.0,0.0,3.955810450951164,-0.00015037242746467787,0.00015031459297809886,8.905159219289811e-07,634.4874469072774,634.48743119954,634.4491703601486,634.5308360588937
0.228,1.3675019173556426e-06,2.00000136827174,0.043649830879357795,0.0010786267418880983,-0.001078307582876496,3.519377033605972e-05,1.454407920540828e-22,2.0,0.1048571998835496,8.954042693165534e-23,1.88848467375849e-05,1.8896988629048987e-05,0.46933394310291954,0.0,0.0,0.0,3.93527924885377,-0.00015141507924803114,0.0001513565265615049,1.0536101482424066e-06,634.0138760486218,634.0138601339439,633.9757577338178,634.0580509605645
0.232,1.4033529972969747e-06,2.0000014041611203,0.04563201263574778,0.0011430261411399325,-0.0011426547922998452,3.293903935233077e-05,1.4521471659353954e-22,2.0,0.10780303973549582,8.940124388011995e-23,1.877777449653316e-05,1.879020754008489e-05,0.4843203081001543,0.0,0.0,0.0,3.9131694724002397,-0.00015071308762259426,0.0001506558000838387,1.188712867020293e-06,633.5035562433205,633.5035406599682,633.4659880308906,633.5479659325194
0.23600000000000002,1.4347027441291622e-06,2.000001435547629,0.04767386377045048,0.0011963819853877304,-0.0011959670690717293,3.066937673896287e-05,1.4498612630872544e-22,2.0,0.1107816485997882,8.926051258042328e-23,1.8549148183367146e-05,1.8561780866379252e-05,0.49926922536988727,0.0,0.0,0.0,3.8895433574400924,-0.0001482881597092178,0.0001482341692336476,1.298741881407025e-06,632.9578321320511,632.9578174329032,632.921209529,633.0019385789394
0.24000000000000002,1.4613405782534824e-06,2.000001462220504,0.04977518360874032,0.0012381236771649208,-0.0012376748740895492,2.8404096242505083e-05,1.44755059606782e-22,2.0,0.11379252601835949,8.911825667787009e-23,1.819482193774209e-05,1.8207553454263583e-05,0.5141732079460006,0.0,0.0,0.0,3.864455032105493,-0.00014418066823291398,0.00014413199730446572,1.3868225265070684e-06,632.3778591325,632.3778458694698,632.3425769232736,632.4211428255388
0.24400000000000002,1.4831022595892015e-06,2.000001484015361,0.0519357507993892,0.0012678131971470814,-0.0012673410876530011,2.6160228229941074e-05,1.4452155452311603e-22,2.0,0.11683517637697124,8.897449958890713e-23,1.7711787509946045e-05,1.7724509389327728e-05,0.5290259194655902,0.0,0.0,0.0,3.8379466248958978,-0.00013844708716260936,0.00013840575026656163,1.4548290661390718e-06,631.7645152836252,631.7645040082132,631.7309596200588,631.8064759100677
0.24800000000000003,1.4998720916734265e-06,2.0000015008164027,0.0541553058903674,0.0012851577860617898,-0.001284673657168805,2.3952132701958113e-05,1.4428564872449123e-22,2.0,0.1199091088649301,8.882926450302653e-23,1.709829658654657e-05,1.7110894061498213e-05,0.5438203114065459,0.0,0.0,0.0,3.8100963579064233,-0.00013116481301273566,0.00013113271242128945,1.5051815887303814e-06,631.1195121213847,631.119503356399,631.0880565127708,631.1596756977658
0.252,1.5115833127707857e-06,2.0000015125568114,0.05643357523499039,0.0012899904983409306,-0.0012895061613857639,2.1791945760125778e-05,1.4404737951209584e-22,2.0,0.1230138374351143,8.868257438465438e-23,1.6353898063192338e-05,1.6366251786658867e-05,0.5585498186127339,0.0,0.0,0.0,3.780935220987755,-0.00012241727733404653,0.00012239621697300986,1.5398882922771256e-06,630.4434683459248,630.4434625892799,630.4144708056349,630.4813877212287
0.256,1.5182191056891793e-06,2.0000015192197598,0.05877025840291252,0.0012822854971944072,-0.0012818130720307225,1.9689934301069095e-05,1.4380678382458677e-22,2.0,0.12614888076430864,8.853445197502485e-23,1.547948798675944e-05,1.5491475714983398e-05,0.5732087358713703,0.0,0.0,0.0,3.750520276593683,-0.00011230636893000229,0.0001122979942250311,1.5606343563476734e-06,629.7376065375305,629.7376042458206,629.7114036510803,629.7728654434743
0.26,1.5198128104970304e-06,2.000001520838628,0.061165023915522,0.0012621678252399274,-0.0012617194995512466,1.7654691415580443e-05,1.4356389824111011e-22,2.0,0.12931376221384513,8.838491979403978e-23,1.4477403812787191e-05,1.4488902873525271e-05,0.5877904837364832,0.0,0.0,0.0,3.718918166072677,-0.00010096297604741557,0.00010096874711432891,1.5689534590192903e-06,629.0033733079122,629.003374888989,628.980271836814,629.03559388024
0.264,1.5164475798165672e-06,2.0000015174966577,0.0636175037122595,0.0012299251834209561,-0.0012295129451416658,1.5693134695820375e-05,1.433187589842985e-22,2.0,0.1325080097905475,8.823400014211394e-23,1.3351635725791838e-05,1.3362525569397405e-05,0.6022869140742291,0.0,0.0,0.0,3.6862078207325535,-8.854791708991301e-05,8.85690236180329e-05,1.56644998768011e-06,628.242504010748,628.2425098002243,628.222772816758,628.2713552675057
0.268,1.5082540676312282e-06,2.00000150932464,0.06612731839401073,0.0011859577722459068,-0.001185593197499412,1.3810758989659811e-05,1.430714019232452e-22,2.0,0.13573115610797695,8.808171510200609e-23,1.2107735835210707e-05,1.211790062627461e-05,0.6166914824014983,0.0,0.0,0.0,3.6524181752015084,-7.519727951694165e-05,7.523467266419596e-05,1.5545018740441015e-06,627.455574069752,627.4555843394774,627.439450070366,627.480764689794
0.272,1.495409670921966e-06,2.0000014965001554,0.06869405429055178,0.0011308232172162452,-0.0011305171953363996,1.2011823555121628e-05,1.4282186257645529e-22,2.0,0.13898273834797734,8.792808654063588e-23,1.0752856726009801e-05,1.0762188050212188e-05,0.6309982206339311,0.0,0.0,0.0,3.617625136017981,-6.109064214291676e-05,6.114495263338844e-05,1.534326846301632e-06,626.6442548022851,626.6442697375333,626.6319304537042,626.6655446944044
0.276,1.4781350437156971e-06,2.0000014792440854,0.07131728912113977,0.001065174015315497,-0.0010649365489918592,1.0299408167836221e-05,1.4257017611477412e-22,2.0,0.14226229822251724,8.777313611088664e-23,9.295595494810399e-06,9.30399512370712e-06,0.6452019314565874,0.0,0.0,0.0,3.5818536916321753,-4.637726543085849e-05,4.644885130059963e-05,1.5071278275578682e-06,625.80903349841,625.8090532106174,625.8006648646066,625.8262257020117
0.28,1.4566926373028088e-06,2.0000014578191485,0.0739965622417184,0.0009898217825897399,-0.0009896617084612538,8.675586802093054e-06,1.42316377364293e-22,2.0,0.14556938193582664,8.761688525339439e-23,7.746138895189153e-06,7.753521590040312e-06,0.6592965816862197,0.0,0.0,0.0,3.5451895561936575,-3.126678053674364e-05,3.1355600433820096e-05,1.4739532873283126e-06,624.9518183476627,624.9518428390569,624.9475078443182,624.9647753584543
0.28400000000000003,1.431382259505355e-06,2.0000014325254556,0.0767313991776665,0.0009056702368457966,-0.0009055950281103412,7.141683275627524e-06,1.4206050080923252e-22,2.0,0.14890354014682664,8.745935519832294e-23,6.116178382832115e-06,6.1224746447851675e-06,0.6732761549116576,0.0,0.0,0.0,3.5076699441841352,-1.5936951259312583e-05,1.6042650827403634e-05,1.4355943630319412e-06,624.0733895556988,624.0734187425553,624.0731936789879,624.0820241575251
0.28800000000000003,1.402536889224175e-06,2.000001403696318,0.07952132199323973,0.0008136802695453269,-0.0008136958875444289,5.698123762008689e-06,1.4180258059480364e-22,2.0,0.15226432793184935,8.73005669671252e-23,4.418616651260514e-06,4.423775379086848e-06,0.6871371502167507,0.0,0.0,0.0,3.4693115324792183,-5.314219334255006e-07,6.533294369789056e-07,1.3930452847831527e-06,623.1740473102,623.1740810211392,623.1779864070687,623.1783140228296
0.29200000000000004,1.3705205253548217e-06,2.000001371696092,0.08236580448783945,0.000714970088843105,-0.0007150807299418182,4.344438922239257e-06,1.415426505300465e-22,2.0,0.15565130474764624,8.714054137429101e-23,2.6675854874545556e-06,2.671576260231621e-06,0.7008740547102935,0.0,0.0,0.0,3.4302221040735636,1.4705931337305666e-05,-1.4568901642884107e-05,1.347334652808555e-06,622.2562322617531,622.2562702103049,622.2642626362442,622.2561554121046
0.29600000000000004,1.3357225291200164e-06,2.000001336914512,0.08526429976613743,0.0006107359248116837,-0.0006109438639524991,3.079957821577649e-06,1.4128074409064736e-22,2.0,0.15906403439468267,8.697929902908135e-23,8.786696700932344e-07,8.814852139988259e-07,0.7144793148924328,0.0,0.0,0.0,3.3904550920403205,2.9570675690383158e-05,-2.9420002530796217e-05,1.2987172353853237e-06,621.3211197331935,621.3211615229221,621.3331418890634,621.316780718487
0.30000000000000004,1.298551800736977e-06,2.0000012997608616,0.08821626605599783,0.0005021771734037138,-0.0005024827049062802,1.9034092156504107e-06,1.4101689442173374e-22,2.0,0.16250208498071644,8.681686033724917e-23,-9.31551990441402e-07,-9.298937432412625e-07,0.7279487669950356,0.0,0.0,0.0,3.3500122562686547,4.393414433028189e-05,-4.377155769646062e-05,1.2479218398298923e-06,620.3686719468858,620.3687171100905,620.3845526820406,620.3601899961561
0.30400000000000005,1.259432693332895e-06,2.000001260659878,0.09122114707850831,0.0003905308399256632,-0.0003909322008421236,8.131022684586594e-07,1.407511343406479e-22,2.0,0.1659650288846585,8.665324550274684e-23,-2.74610705156904e-06,-2.7455618631576585e-06,0.7412813022584352,0.0,0.0,0.0,3.3089350970758487,5.7642823864666465e-05,-5.747036999637587e-05,1.1954908168955105e-06,619.3997878856369,619.3998358646884,619.4193525737852,619.3873266735993
0.30800000000000005,1.2187998919775194e-06,2.0000012200466233,0.09427837859825954,0.0002770447832699738,-0.00027753812023226796,-1.928205536506008e-07,1.4048349633969883e-22,2.0,0.16945244272071341,8.648847452942043e-23,-4.54770287236768e-06,-4.548199500833533e-06,0.7544745111557845,0.0,0.0,0.0,3.2672523472282755,7.055661061661469e-05,-7.037659644205393e-05,1.1416883269692179e-06,618.4150693234991,618.4151194856797,618.4381045333739,618.3988327459402
0.31200000000000006,1.1770932182016824e-06,2.0000011783612814,0.09738739820350896,0.0001629446268310841,-0.00016352401406358587,-1.1167342098275793e-06,1.4021401258889292e-22,2.0,0.1729639073027977,8.632256722269089e-23,-6.318974903737891e-06,-6.320414751758783e-06,0.767527064794203,0.0,0.0,0.0,3.2249732074947977,8.256828105335752e-05,-8.238324464900068e-05,1.0871950811614407e-06,617.4146574244725,617.4147090696783,617.4409210577198,617.39488194935
0.31600000000000006,1.1347536302654286e-06,2.0000011360451504,0.10054761510031901,4.9483855627519954e-05,-5.014129794360731e-05,-1.9609720424243537e-06,1.3994271493864348e-22,2.0,0.1764990076092341,8.615554319122208e-23,-8.042515531963377e-06,-8.044772796980703e-06,0.7804362096182931,0.0,0.0,0.0,3.1821681865999927,9.352335792025445e-05,-9.333605943509092e-05,1.0320599879363406e-06,616.400148354369,616.4002007169803,616.4293542687757,616.377114665992
0.32000000000000006,1.092217234083481e-06,2.000001093534645,0.10375846130597473,-6.216390067517803e-05,6.143837369107083e-05,-2.72828857357808e-06,1.3966963492245923e-22,2.0,0.18005733274771932,8.5987421848576e-23,-9.701233366550746e-06,-9.704155487275811e-06,0.7932009362867046,0.0,0.0,0.0,3.138804862528323,0.00010336474613217035,-0.00010317809454362165,9.768708664295682e-07,615.3707011339362,615.3707534029905,615.4025477801302,615.3447087436367
0.32400000000000007,1.0499122001535382e-06,2.000001051258206,0.10701931202532429,-0.00017078119702661662,0.00016999945761004786,-3.4218192776164587e-06,1.39394803759612e-22,2.0,0.1836384759205638,8.581822241485513e-23,-1.1278253750973785e-05,-1.1281662552769124e-05,0.8058170044084347,0.0,0.0,0.0,3.0950117453194603,0.00011192526892379398,-0.00011174234089645576,9.221858385824926e-07,614.3292986723958,614.3293499855592,614.3634377840651,614.3006970355272
0.32800000000000007,1.0082533579955022e-06,2.000001009630888,0.11032952565016978,-0.0002751875107708783,0.0002743631992598117,-4.044666154771579e-06,1.3911825235778358e-22,2.0,0.18724203439020098,8.564796391833199e-23,-1.275697015140903e-05,-1.2760663321063493e-05,0.8182777775334429,0.0,0.0,0.0,3.050838038089493,0.00011909938472168176,-0.00011892332127265885,8.680945540239215e-07,613.2770530884299,613.2771025607476,613.3131053103891,613.2462232553877
0.3320000000000001,9.67637576519754e-07,2.0000009690497316,0.11368845258481858,-0.0003742659620869084,0.0003734143130239025,-4.6000057365933335e-06,1.3884001131569223e-22,2.0,0.1908676094449645,8.547666519706606e-23,-1.4121133400811511e-05,-1.4124886609415485e-05,0.8305776555866154,0.0,0.0,0.0,3.0063156292571667,0.0001248197902725264,-0.00012465379594495338,8.148114552303266e-07,612.2146697934994,612.2147165174208,612.2522355734544,612.1820142708707
0.3360000000000001,9.284395957552429e-07,2.0000009298895924,0.11709543557695284,-0.0004669750510925654,0.00046611268730638983,-5.0910634988982545e-06,1.385601109256986e-22,2.0,0.19451480636513083,8.530434490050822e-23,-1.5355518189772966e-05,-1.535908781692746e-05,0.8427146668564072,0.0,0.0,0.0,2.9614760507915356,0.00012903858503639248,-0.00012888580618621942,7.625241554520873e-07,611.142850069858,611.1428931493202,611.1815148611713,611.1087875002752
0.3400000000000001,8.91008191789834e-07,2.000000892499298,0.12054981009435826,-0.0005523595829978738,0.0005515042801831767,-5.521090503204076e-06,1.3827858117639156e-22,2.0,0.19818323438922603,8.513102149109266e-23,-1.6446135634702435e-05,-1.6449262054650777e-05,0.854686921929545,0.0,0.0,0.0,2.9163503740918606,0.00013172595201541937,-0.00013158948444346146,7.113949912505609e-07,610.0622886674611,610.0623272157458,610.1016278115476,610.0272488014065
0.3440000000000001,8.556627154423563e-07,2.0000008571981835,0.1240509047235085,-0.0006295604995800987,0.0006287309249155469,-5.893343119393896e-06,1.3799545175515386e-22,2.0,0.20187250668059406,8.495671324581641e-23,-1.7380423421682007e-05,-1.738283480939052e-05,0.8664926264057053,0.0,0.0,0.0,2.8709691531234096,0.00013287042999028697,-0.0001327532354936008,6.615636626836168e-07,608.9736724679716,608.9737056313277,609.0132562078949,608.9380910445492
0.3480000000000001,8.226900386139017e-07,2.000000824273036,0.12759804158477905,-0.0006978234982918156,0.0006970389268276494,-6.21106546271126e-06,1.3771075205070784e-22,2.0,0.20558224029422517,8.478143825780663e-23,-1.8147421224801032e-05,-1.8148837704896644e-05,0.8781300864095106,0.0,0.0,0.0,2.8253623774669214,0.00013247881460552353,-0.00013238366521213215,6.131495714207086e-07,607.8776793807965,607.8777063544394,607.9170779025603,607.8419929859804
0.3520000000000001,7.923419366304809e-07,2.000000793975473,0.1311905367598137,-0.0007565063460063112,0.0007557863590251519,-6.477474192746871e-06,1.3742451115564135e-22,2.0,0.20931205614384213,8.460521443787568e-23,-1.873792815858288e-05,-1.8738066508792606e-05,0.8895977124913742,0.0,0.0,0.0,2.779559433925472,0.00013057582554121865,-0.0001305052850057588,5.662538587291008e-07,606.7749774258633,606.7749974595497,606.8137658613757,606.739618389848
0.3560000000000001,7.648329290962355e-07,2.0000007665197836,0.1348277007272406,-0.0008050848115035667,0.000804448981595956,-6.695745350964062e-06,1.3713675786891404e-22,2.0,0.2130615789692425,8.442805951606414e-23,-1.9144639741618473e-05,-1.9143218338600695e-05,0.9008940224485498,0.0,0.0,0.0,2.7335890754651793,0.00012720366234675822,-0.00012715999942084408,5.209611626069722e-07,605.6662239596686,605.666236382748,605.7039873192412,605.6316153538598
0.3600000000000001,7.403383513681791e-07,2.000000742081001,0.13850882593075284,-0.000843162771350527,0.0008426302932674339,-6.869235222376367e-06,1.368475206983442e-22,2.0,0.21683043730389517,8.424999104317176e-23,-1.9362282857237865e-05,-1.9359026904548087e-05,0.9120163559526138,0.0,0.0,0.0,2.6875055219148085,0.0001224249221839967,-0.0001224100377381111,4.776124545057093e-07,604.5526965347234,604.5527007774818,604.5890363087805,604.5192471418034
0.3640000000000001,7.18993311524183e-07,2.0000007207938584,0.14223319525393607,-0.0008704717330803205,0.0008700610793086308,-7.0008545897675225e-06,1.3655682786307603e-22,2.0,0.22061826344278906,8.407102639227653e-23,-1.9387745994076885e-05,-1.9382393516235424e-05,0.9229616788343554,0.0,0.0,0.0,2.6413464252567196,0.000116318745769704,-0.00011633417703885199,4.3582513723676556e-07,603.4352816254578,603.4352772186844,603.4698184515021,603.4033789063245
0.3680000000000001,7.008927133686598e-07,2.0000007027528204,0.1460001172390927,-0.0008868548110610146,0.000886583516327785,-7.093420049262141e-06,1.3626470729602802e-22,2.0,0.2244246934105323,8.389118276024192e-23,-1.92200500346539e-05,-1.9212356920185046e-05,0.9337302828321832,0.0,0.0,0.0,2.595078321619721,0.00010896555582340527,-0.00010901250336279591,3.9560871199645265e-07,602.3131451336993,602.3131317017118,602.3455205814921,602.2831558058516
0.3720000000000001,6.860904842261154e-07,2.000000688011311,0.149808899566608,-0.0008922814841199741,0.000892165839745205,-7.150069678404631e-06,1.3597118664632193e-22,2.0,0.22824936692969985,8.371047716921236e-23,-1.88602725559392e-05,-1.8850016953923583e-05,0.9443250963106721,0.0,0.0,0.0,2.5487208091987146,0.00010046090003466146,-0.00010054020656651214,3.574543784194765e-07,601.1867364979593,601.1867137653463,601.2166189332431,601.1590036016016
0.376,6.745989656773196e-07,2.00000067658111,0.15365881394857744,-0.0008868730428057947,0.000886927661766448,-7.173540921844558e-06,1.3567629328169306e-22,2.0,0.2320919273894278,8.352892646809707e-23,-1.8311798557680978e-05,-1.829878632618594e-05,0.9547435410324472,0.0,0.0,0.0,2.5023648180994287,9.15560405625505e-05,-9.166724406920403e-05,3.215221625253757e-07,600.058247031377,600.0582150957928,600.0855190224294,600.0329007793126
0.38,6.663910270750659e-07,2.0000006684344713,0.15754915065911912,-0.0008708516095769522,0.0008710892291520806,-7.1665532838498664e-06,1.3538005429088158e-22,2.0,0.2359520218142531,8.33465473340423e-23,-1.758027499419646e-05,-1.756434540887826e-05,0.9649827959708649,0.0,0.0,0.0,2.455991810008909,8.176931991478837e-05,-8.19124073301987e-05,2.8740598496918123e-07,598.9272130588274,598.9271718891758,598.9516166824992,598.9045216265887
0.384,6.614009298827971e-07,2.000000663505,0.16147920337241956,-0.0008445423764456988,0.0008449736272696727,-7.131598268302925e-06,1.3508249648600536e-22,2.0,0.23982930083319517,8.316335627389217e-23,-1.6673370592526584e-05,-1.6654400450179778e-05,0.9750443829007551,0.0,0.0,0.0,2.409613480888821,7.120630188470968e-05,-7.138080758978992e-05,2.549490504123083e-07,597.7939064007003,597.7938560960715,597.8152121701908,597.7741087445711
0.388,6.595261862059245e-07,2.0000006616895125,0.16544828001937031,-0.0008083526865340901,0.0008089859346829399,-7.071221043149784e-06,1.3478364640491417e-22,2.0,0.24372341864907995,8.297936962563797e-23,-1.560041494482205e-05,-1.5578321903350057e-05,0.9849305999342682,0.0,0.0,0.0,2.363219438665605,5.996699128101757e-05,-6.0172118247145344e-05,2.243144036427203e-07,596.6580591303051,596.6579998859398,596.6760656020734,596.6413673015837
0.392,6.606283420970059e-07,2.000000662848833,0.16945566586235947,-0.0007628131100856348,0.0007636541689503919,-6.987767811950198e-06,1.344835303135255e-22,2.0,0.24763403300810274,8.27946035598563e-23,-1.437251251360369e-05,-1.4347258467572964e-05,0.9946411138345372,0.0,0.0,0.0,2.316873830639881,4.819370842418007e-05,-4.8428097373725895e-05,1.95372360776093e-07,595.5212318903504,595.5211640653678,595.5357771687414,595.5078178057681
0.396,6.645364785912738e-07,2.0000006668113026,0.17350066882763113,-0.0007085100062587031,0.0007095620621275679,-6.883406105023179e-06,1.341821742081422e-22,2.0,0.251560805169629,8.260907408113586e-23,-1.3002364617426126e-05,-1.2973958558941992e-05,1.0041760188803164,0.0,0.0,0.0,2.2705495771396307,3.599051666444633e-05,-3.625247541694591e-05,1.680089348726894e-07,594.3827530027842,594.3826770547519,594.3937040749544,594.3727591426726
0.4,6.710494989183991e-07,2.0000006733750753,0.1775826151832486,-0.0006460827303501888,0.000647346277789798,-6.760266792903892e-06,1.33879603817752e-22,2.0,0.2555033998762308,8.242279702949315e-23,-1.15039237866111e-05,-1.1472423616280574e-05,1.0135388091437252,0.0,0.0,0.0,2.224227700245181,2.345063582621944e-05,-2.3738140043313834e-05,1.4226884759092996e-07,593.2421450714321,593.242061556903,593.2493953481916,593.2356879127508
0.404,6.799373804417711e-07,2.00000068230938,0.18170080223500537,-0.0005762894093286757,0.0005777620388411987,-6.620490764693694e-06,1.3357584460630904e-22,2.0,0.2594614853239578,8.223578808177708e-23,-9.892362342733003e-06,-9.857876213413993e-06,1.0227294923225316,0.0,0.0,0.0,2.1779846938093894,1.0737470974825663e-05,-1.10479768394254e-05,1.1824999167745296e-07,592.1012846321105,592.1011942622481,592.1047747149066,592.0984342655472
0.40800000000000003,6.909441359635176e-07,2.000000693357492,0.1858544974934111,-0.0005000036895967664,0.0005016799213118969,-6.4662821587015645e-06,1.3327092177499759e-22,2.0,0.26343473313284044,8.204806275306267e-23,-8.184511472800363e-06,-8.147200080778697e-06,1.0317430593257206,0.0,0.0,0.0,2.131899717283888,-1.960267467327259e-06,1.629798031766565e-06,9.611300254225963e-08,590.962128565632,590.9620322001567,590.9618542322158,590.9629011011768
0.41200000000000003,7.0379116939764e-07,2.000000706240099,0.19004293777731962,-0.0004182093523127588,0.00042008051088798456,-6.2995008481578904e-06,1.3296486026447796e-22,2.0,0.2674228183176237,8.185963639803372e-23,-6.399301322860105e-06,-6.359380358609769e-06,1.0405715233148474,0.0,0.0,0.0,2.0860547505214684,-1.444502957338837e-05,1.4098133215257137e-05,7.554522556276626e-08,589.8267195133762,589.8266181630573,589.8227333118471,589.8310725677587
0.41600000000000004,7.181826376715202e-07,2.000000720660676,0.19426539198378281,-0.0003318871048783914,0.00033394143211974275,-6.121854413285217e-06,1.3265768475711505e-22,2.0,0.27142541925873015,8.167052421235479e-23,-4.556919309427187e-06,-4.514659981768222e-06,1.0492131458606866,0.0,0.0,0.0,2.0404054103700133,-2.661750591583259e-05,2.6257947931924602e-05,5.6444253063222424e-08,588.6939768687068,588.6938716169951,588.6863604618293,588.7018384392885
0.42000000000000004,7.33808935093359e-07,2.0000007363089796,0.1985211576303583,-0.00024201009060987583,0.0002442328753084695,-5.934911392648117e-06,1.3234941967918923e-22,2.0,0.27544221767345,8.148074123403235e-23,-2.677791554012812e-06,-2.633518386320934e-06,1.0576736934402586,0.0,0.0,0.0,1.9949133589777048,-3.840092287446707e-05,3.803267002502197e-05,3.871702261057792e-08,587.5629620789027,587.5628540744829,587.5518198626031,587.5742369713631
0.42400000000000004,7.503500303079824e-07,2.0000007528643944,0.20280955391424305,-0.00014954574280273138,0.00015191945982629228,-5.7401777424691585e-06,1.3204008920309008e-22,2.0,0.27947289858735697,8.129030234476536e-23,-7.819900966844774e-07,-7.360777944268585e-07,1.0659597231383775,0.0,0.0,0.0,1.9495534826159011,-4.971526976592911e-05,4.934248659333492e-05,2.2354188350070045e-08,586.4330589331612,586.4329493893921,586.4185194080476,586.4476279073617
0.42800000000000005,7.674779066559398e-07,2.0000007699983833,0.20712986838021563,-5.553066117612383e-05,5.8035068309593776e-05,-5.539191507801374e-06,1.317297172494928e-22,2.0,0.28351715030594793,8.109922227128517e-23,1.1103849632731315e-06,1.1575148232670252e-06,1.074071487401769,0.0,0.0,0.0,1.9044082640966888,-6.040072875263889e-05,6.002780804882283e-05,7.454530629947137e-09,585.3063342974026,585.3062245022678,585.2885741561923,585.3240306668682
0.43200000000000005,7.848604061594951e-07,2.0000007873783425,0.21148135861837608,3.8944596599749494e-05,-3.633229921911256e-05,-5.3333326118495944e-06,1.3141832748951771e-22,2.0,0.28757466438650475,8.090751558668497e-23,2.9786373476478657e-06,3.0265196242344873e-06,1.0820038558152967,0.0,0.0,0.0,1.8595577987264347,-7.029154826096504e-05,6.992307418940252e-05,-6.103941305767337e-09,584.1848115372919,584.1847028430603,584.1640571368641,584.2054183135016
0.43600000000000005,8.021657528438039e-07,2.000000804672132,0.2158632864537134,0.00013280010658814562,-0.00013010503438219893,-5.1238520252454635e-06,1.311059433468727e-22,2.0,0.291645135610177,8.071519671173886e-23,4.801543118832467e-06,4.849673267193568e-06,1.0897518649355322,0.0,0.0,0.0,1.8150137971721103,-7.92820103204918e-05,7.892260807035434e-05,-1.8415540542407365e-08,583.0688144941946,583.0687082730929,583.0453245448141,583.0920818218154
0.44000000000000006,8.19066410083022e-07,2.0000008215519394,0.22027492618130454,0.0002249882927703373,-0.00022223760258686847,-4.9118470258449975e-06,1.3079258799997894e-22,2.0,0.29572826195428326,8.052227991621047e-23,6.558190035210358e-06,6.606029391947543e-06,1.0973163357843396,0.0,0.0,0.0,1.7707711699161686,-8.729577360296982e-05,8.695006215853597e-05,-2.960868850731383e-08,581.9582472805606,581.9581449107849,581.9323042615212,581.9839007889173
0.44400000000000006,8.352427582424766e-07,2.000000837697962,0.22471557421503177,0.00031451654140775016,-0.0003117391343010013,-4.69837410756543e-06,1.304782843840799e-22,2.0,0.29982374456482985,8.032877932015143e-23,8.228687679026555e-06,8.27566957736585e-06,1.1047010472656764,0.0,0.0,0.0,1.7268048954944057,-9.428327300980394e-05,9.395580536749606e-05,-3.96861457676361e-08,580.8525111683506,580.8524140162172,580.8244139195385,580.8802601457829
0.44800000000000006,8.503860342402635e-07,2.000000852801359,0.22918449427706664,0.0004003935715925203,-0.0003976196845778996,-4.484455145663417e-06,1.3016305519333382e-22,2.0,0.30393128772924555,8.013470889518959e-23,9.794139428703002e-06,9.839676354605862e-06,1.1119058791085537,0.0,0.0,0.0,1.683200533465739,-0.00010014076645891427,9.983596401028026e-05,-4.864507183324083e-08,579.753791767121,579.7537011678565,579.7238718552804,579.7833128132239
0.45200000000000007,8.642019198939529e-07,2.0000008665678375,0.2336809496939523,0.00048167658978895265,-0.0004789374129449524,-4.270916314270065e-06,1.2984692288288974e-22,2.0,0.30805059884933,7.994008246580706e-23,1.1236538130368695e-05,1.1280029919754673e-05,1.1189280257883725,0.0,0.0,0.0,1.639979187126625,-0.00010480896336877245,0.00010453099550213264,-5.6672146218284645e-08,578.6626626401558,578.6625798613898,578.6312706893294,578.6936120998248
0.45600000000000007,8.764137502962941e-07,2.000000878720864,0.23820423238891428,0.0005575088385062916,-0.0005548361795198295,-4.058531480096225e-06,1.295299096709472e-22,2.0,0.3121813884144149,7.974491371060834e-23,1.2539140304182226e-05,1.2579982184908787e-05,1.1257684504219028,0.0,0.0,0.0,1.5971031786034504,-0.00010827632108676368,0.00010802914510877353,-6.379452035445457e-08,577.57821300484,577.5781392576852,577.5457049938823,577.6102416793282
0.4600000000000001,8.867651886671806e-07,2.0000008890043404,0.2427536395119022,0.0006271054085104566,-0.0006245312831206566,-3.847996459386609e-06,1.2921203754079982e-22,2.0,0.3163233699747358,7.954921616357843e-23,1.3687008760219382e-05,1.3724599030605585e-05,1.1324315057225158,0.0,0.0,0.0,1.5545813941753757,-0.0001105232913979674,0.00011031056848909016,-7.007151150668203e-08,576.5007060844795,576.500642498081,576.4674457128348,576.5334566344945
0.4640000000000001,8.950226683490085e-07,2.0000008971850463,0.2473284795629738,0.0006897626706390029,-0.000687318912750595,-3.6399095777714234e-06,1.2889332824286275e-22,2.0,0.3204762601150138,7.9353003215331e-23,1.4667103743992642e-05,1.4700852132909888e-05,1.1389197866104346,0.0,0.0,0.0,1.5124101716195693,-0.0001115459178962449,0.00011137098809357171,-7.558830253342579e-08,575.4300880025575,575.4300356158574,575.396441952709,575.4631995083529
0.4680000000000001,9.00977614442642e-07,2.000000903054859,0.2519280700627725,0.0007448658889532488,-0.0007425837378473542,-3.4348645250927864e-06,1.2857380329668419e-22,2.0,0.3246397784282443,7.915628811434678e-23,1.5468343515720198e-05,1.5497679212839398e-05,1.145235593085784,0.0,0.0,0.0,1.4705902598642706,-0.00011135443003644343,0.00011122022580667172,-8.03255686801112e-08,574.366416378154,574.3663761132225,574.3327503933939,574.3995288943697
0.4720000000000001,9.04448572523302e-07,2.0000009064328825,0.2565517046097217,0.000791882569971449,-0.0007897921008294639,-3.2333442357384853e-06,1.2825348399294107e-22,2.0,0.32881364748969266,7.895908396820226e-23,1.6081653866312593e-05,1.6106035003488367e-05,1.1513783056062659,0.0,0.0,0.0,1.4291890229703776,-0.00010995575097362518,0.00010986462796998386,-8.438809865603039e-08,573.3114482519698,573.3114208622741,573.2781277991028,573.3442013029096
0.4760000000000001,9.052822792562054e-07,2.00000090716651,0.2611987024460742,0.0008303784092786924,-0.0008285082255951898,-3.035786763041752e-06,1.2793239139541912e-22,2.0,0.332997592831094,7.876140374478861e-23,1.650004091605753e-05,1.6518963722907344e-05,1.1573475879178,0.0,0.0,0.0,1.388174036917066,-0.00010739093309658067,0.00010734481808784556,-8.780824371500968e-08,572.2644033875158,572.2643895009342,572.2317834276595,572.2964466922954
0.4800000000000001,9.033549306885377e-07,2.000000905132685,0.2658683960599622,0.0008600148835614396,-0.0008583917631555177,-2.8425558839885767e-06,1.276105463429772e-22,2.0,0.33719134291505654,7.856326027352111e-23,1.6718670541422234e-05,1.673167705484942e-05,1.1631471544644398,0.0,0.0,0.0,1.3475372659641771,-0.00010370095249758037,0.00010370130192539185,-9.065450583963943e-08,571.2251198347717,571.2251199401862,571.1935446602067,571.2561132232593
0.4840000000000001,8.985724034192446e-07,2.0000009002381143,0.2705601641304204,0.0008805382088698285,-0.000879186988225785,-2.6539783089921034e-06,1.2728796945149626e-22,2.0,0.3413946291096666,7.836466624653898e-23,1.67348467698914e-05,1.6741529891592194e-05,1.1687838663227121,0.0,0.0,0.0,1.307203433125345,-9.893092017581128e-05,9.89789331636029e-05,-9.295494474145244e-08,570.1917096754827,570.1917241861578,570.1615115923901,570.2213247217778
0.4880000000000001,8.908721179934131e-07,2.0000008924211308,0.27527336079399184,0.000891805136908747,-0.000890748150955361,-2.4703673620802154e-06,1.2696468111581283e-22,2.0,0.34560718566329346,7.816563421989576e-23,1.6548016203172116e-05,1.6548025330020245e-05,1.1742609440194876,0.0,0.0,0.0,1.2672393864006954,-9.314180219987054e-05,9.323797446652382e-05,-9.471145719240616e-08,569.1659223907567,569.1659515087027,569.1374170923663,569.1938470732821
0.4920000000000001,8.802233506905496e-07,2.000000881651996,0.28000731553128266,0.0008937896609515389,-0.0008930461954490652,-2.2919869587821385e-06,1.266407015116374e-22,2.0,0.3498287496795929,7.796617661474034e-23,1.6159955969855965e-05,1.6153005231049876e-05,1.1795755590090178,0.0,0.0,0.0,1.22771302901555,-8.642594910789013e-05,8.656996991814563e-05,-9.596854730299085e-08,568.1495470733155,568.1495907563052,568.1230238199965,568.1754952859625
0.4960000000000001,8.666264276553128e-07,2.000000867932081,0.28476136386850087,0.0008865668020213963,-0.0008861527859219587,-2.1190607183963837e-06,1.263160505974577e-22,2.0,0.35405906109270824,7.776630571848866e-23,1.5574865266616647e-05,1.5560742898353372e-05,1.1847237994286157,0.0,0.0,0.0,1.1886307832346756,-7.887708274725806e-05,7.906800683416749e-05,-9.676208506098578e-08,567.1428000604019,567.1428580724319,567.1185209811828,567.1665124129798
0.5000000000000001,8.501120028629675e-07,2.0000008512931315,0.2895348547182674,0.0008703030255726752,-0.0008702308133316697,-1.9517742335891797e-06,1.2599074811642663e-22,2.0,0.3582978626426669,7.756603368598613e-23,1.4799161317665282e-05,1.4777735735676817e-05,1.1897069588052074,0.0,0.0,0.0,1.1499840222178985,-7.058387542316805e-05,7.082019577337004e-05,-9.712692828564475e-08,566.145510045756,566.145581977868,566.1237114398903,566.1667525876559
0.5040000000000001,8.307399939914102e-07,2.000000831796192,0.29432715889951744,0.0008452429289979831,-0.0008455211879836571,-1.790285799591305e-06,1.2566481359823574e-22,2.0,0.3625448998509709,7.736537254066093e-23,1.384114163309731e-05,1.3812364037202082e-05,1.1945289666647216,0.0,0.0,0.0,1.1117464425910042,-6.162988942092954e-05,6.190964967868792e-05,-9.708694993679097e-08,565.1570466536429,565.1571319570985,565.1379403648658,565.1756096018315
0.5080000000000001,8.085993601341912e-07,2.000000809531372,0.29913763735639415,0.0008117404591245521,-0.0008123738688891582,-1.6347238462835831e-06,1.253382663609736e-22,2.0,0.3667999209963806,7.716433417566817e-23,1.2711016768705911e-05,1.2674923993694748e-05,1.199191971283602,0.0,0.0,0.0,1.07395558393676,-5.213121492638377e-05,5.24517927753196e-05,-9.667013257390513e-08,564.1784293724004,564.1785272913577,564.16219270696,564.1941370998203
0.512,7.838058654969847e-07,2.000000784615598,0.3039656712426158,0.0007702167291685135,-0.0007712059436624138,-1.4851878595250714e-06,1.250111255129696e-22,2.0,0.3710626770908894,7.696293035502501e-23,1.142076625661383e-05,1.1377482616029522e-05,1.2036975734867545,0.0,0.0,0.0,1.0365882846015535,-4.2185621791215925e-05,4.254395405491746e-05,-9.590459990073286e-08,563.2091083061777,563.20921794541,563.1958893217904,563.2218141176409
0.516,7.565014570744285e-07,2.0000007571919745,0.3088106273692134,0.0007212032470021529,-0.000722544668487846,-1.3417504924461687e-06,1.246834099546232e-22,2.0,0.37533292185588896,7.676117271473677e-23,9.984210903907824e-06,9.933949853681587e-06,1.2080462978022855,0.0,0.0,0.0,0.9996909033022938,-3.1928824833433587e-05,3.23211843083924e-05,-9.481719088604837e-08,562.2503373220434,562.2504575773248,562.2402430289516,562.2599351930181
0.52,7.268515620230923e-07,2.0000007274270697,0.3136718845241845,0.0006652966441161995,-0.0006669824218580118,-1.2044620601892175e-06,1.2435513838021858e-22,2.0,0.3796104116985217,7.655907276391426e-23,8.416835405816639e-06,8.359899788067707e-06,1.2122384983136154,0.0,0.0,0.0,0.9632568797358341,-2.1475928205496467e-05,2.1898133253620235e-05,-9.343059069691423e-08,561.3019996886061,561.3021293099641,561.2951020535189,561.3084183504607
0.524,6.950425113090011e-07,2.0000006955083265,0.3185488485158789,0.0006031261170068792,-0.000605144283358386,-1.0733479777665803e-06,1.2402632927972513e-22,2.0,0.3838949056882217,7.635664188588213e-23,6.7353661806693174e-06,6.672146865438046e-06,1.21627751283167,0.0,0.0,0.0,0.927248780511229,-1.0909196027563099e-05,1.1356810363952222e-05,-9.17713912443082e-08,560.3631716602628,560.3633093127727,560.359517444336,560.3663647971849
0.528,6.612801071161134e-07,2.000000661642614,0.3234409250677575,0.0005353902465803196,-0.0005377247499299268,-9.484030286642398e-07,1.2369700094058352e-22,2.0,0.38818616553344054,7.615389133927849e-23,4.9573568187534265e-06,4.8883288366416514e-06,1.2201669886475377,0.0,0.0,0.0,0.8916833604493934,-3.450638068017519e-07,8.132035272026263e-07,-8.987390032167242e-08,559.4343391705448,559.434483374144,559.4339392260744,559.4342960135857
0.532,6.257874715833007e-07,2.000000626054066,0.3283475106229917,0.00046286522604558705,-0.0004654959728704026,-8.296064091307217e-07,1.2336717144947775e-22,2.0,0.39248395555855753,7.595083225914588e-23,3.1014282601976654e-06,3.0271473968698425e-06,1.2239071002916286,0.0,0.0,0.0,0.8565960779841231,1.0076040137519254e-05,-9.592641922050318e-06,-8.775610980726251e-08,558.5164805016502,558.5166296501114,558.5193021684995,558.5132335586532
