Time_s,X,Y,Z,Roll_deg,Pitch_deg,Yaw_deg,Ref_X,Ref_Y,Ref_Z,Ref_Yaw,vx,vy,vz,p,q,r,T_pert,tau_x,tau_y,tau_z,RPM_0,RPM_1,RPM_2,RPM_3
0.0,-0.8607231184428401,3.117394714540182,0.024999982234363904,-179.99999578767247,-4.21232706390937e-06,-160.36780119944868,-0.8599484676362416,3.112789059297096,0.0018,0.0,0.0,0.0,0.0,0.0,0.0,0.0,-0.7399508701355141,1.0,0.00750516000669835,0.2,0.0,270.724670124329,895.4661789499401,678.0819652567029
0.003999999999997783,-0.8607231184428401,3.117394714540182,0.024999982234363904,-179.99999578767247,-4.21232706390937e-06,-160.36780119944868,-0.8597644384920229,3.1116949214149283,0.0022276151999997256,0.0,0.0,0.0,0.0,0.0,0.0,0.0,0.12780838745063816,1.0,1.0,0.2,0.0,519.3278371585187,810.0646313969094,810.0646313969094
0.003999999999997783,-0.8607231184428401,3.117394714540182,0.024999982234363904,-179.99999578767247,-4.21232706390937e-06,-160.36780119944868,-0.8581257135195519,3.1019519479394635,0.0060354017863195495,0.0,0.0,0.0,0.0,0.0,0.0,0.0,-0.6054201128239142,1.0,0.02578142930786903,0.2,0.0,283.5059386878863,895.9042973260542,683.285388299622
0.008000000000002672,-0.8607231184428401,3.117394714540182,0.024999982234363904,-179.99999578767247,-4.21232706390937e-06,-160.36780119944868,-0.8577710089393045,3.099843066110583,0.006859603141313123,0.0,0.0,0.0,0.0,0.0,0.0,0.0,1.067234188439611,1.0,1.0,0.2,0.0,545.1371899922774,826.8481483955455,826.8481483955455
0.008000000000002672,-0.8607231184428401,3.117394714540182,0.024999982234363904,-179.99999578767247,-4.21232706390937e-06,-160.36780119944868,-0.8553319035040982,3.0853414627553573,0.012527175866951002,0.0,0.0,0.0,0.0,0.0,0.0,0.0,-0.3988203470660519,1.0,0.05491656722699013,0.2,0.0,302.3876312010115,896.474044405486,691.3331932547609
0.012000000000000455,-0.8607231184428401,3.117394714540182,0.024999982234363904,-179.99999578767247,-4.21232706390937e-06,-160.36780119944868,-0.8548191443215756,3.082292873639707,0.013718637259205144,0.0,0.0,0.0,0.0,0.0,0.0,0.0,2.0192201867406503,1.0,1.0,0.2,0.0,570.100892486457,843.5154605615243,843.5154605615243
0.012000000000000455,-0.8607231184428401,3.117394714540182,0.024999982234363904,-179.99999578767247,-4.21232706390937e-06,-160.36780119944868,-0.8516398389338286,3.0633904412098683,0.02110615902926943,0.0,0.0,0.0,0.0,0.0,0.0,0.0,-0.1254929062929249,1.0,0.09499464311887748,0.2,0.0,326.09525560589225,897.080036582604,702.0266521444452
0.015999999999998238,-0.8607231184428401,3.117394714540182,0.024999982234363904,-179.99999578767247,-4.21232706390937e-06,-160.36780119944868,-0.8509809491550085,3.0594730385058506,0.0226371735093082,0.0,0.0,0.0,0.0,0.0,0.0,0.0,2.98171050077947,1.0,1.0,0.2,0.0,594.2749313823828,860.0383704591333,860.0383704591334
0.015999999999998238,-0.8607231184428401,3.117394714540182,0.024999982234363904,-179.99999578767247,-4.21232706390937e-06,-160.36780119944868,-0.847118284340313,3.036507720062303,0.031612568109336034,0.0,0.0,0.0,0.0,0.0,0.0,0.0,0.2095159941974091,1.0,0.1460964563147249,0.2,0.0,353.47061416135546,897.6322469347314,715.1536755607648
0.020000000000003126,-0.8607231184428401,3.117394714540182,0.024999982234363904,-179.99999578767247,-4.21232706390937e-06,-160.36780119944868,-0.846324525514692,3.0317884588599298,0.03345696802985191,0.0,0.0,0.0,0.0,0.0,0.0,0.0,3.952782315103516,1.0,1.0,0.2,0.0,617.7065025289518,876.3929642911423,876.3929642911424
0.020000000000003126,-0.8607231184428401,3.117394714540182,0.024999982234363904,-179.99999578767247,-4.21232706390937e-06,-160.36780119944868,-0.8418321669613142,3.0050793215958294,0.043895536385039076,0.0,0.0,0.0,0.0,0.0,0.0,0.0,0.6014406955518187,1.0,0.20829966554321933,0.2,0.0,383.56534024051115,898.045731527858,730.4968684575484
0.02400000000000091,-0.8607231184428401,3.117394714540182,0.024999982234363904,-179.99999578767247,-4.21232706390937e-06,-160.36780119944868,-0.8409141709531567,2.9996214132168686,0.04602861725271299,0.0,0.0,0.0,0.0,0.0,0.0,0.0,4.930638862414787,1.0,1.0,0.2,0.0,640.436077545994,892.5590591187588,892.5590591187588
0.02400000000000091,-0.8607231184428401,3.117394714540182,0.024999982234363904,-179.99999578767247,-4.21232706390937e-06,-160.36780119944868,-0.835842766960956,2.969469584563844,0.057812671575258504,0.0,0.0,0.0,0.0,0.0,0.0,0.0,1.045782211674817,1.0,0.28167891315589466,0.2,0.0,415.6465960864706,898.2402872448885,747.8404892961702
0.027999999999998693,-0.8607231184428401,3.117394714540182,0.024999982234363904,-179.99999578767247,-4.21232706390937e-06,-160.36780119944868,-0.8348105671924873,2.9633326823169654,0.06021111945321544,0.0,0.0,0.0,0.0,0.0,0.0,0.0,5.913602744125099,1.0,1.0,0.2,0.0,662.4988887899425,908.5197203365341,908.5197203365342
0.027999999999998693,-0.8607231184428401,3.117394714540182,0.024999982234363904,-179.99999578767247,-4.21232706390937e-06,-160.36780119944868,-0.8292078987702077,2.9300222423425355,0.07322963447211137,0.0,0.0,0.0,0.0,0.0,0.0,0.0,1.5382949930284024,1.0,0.3663059443678744,0.2,0.0,449.1646100593428,898.1400563650249,766.9759784518855
0.03200000000000358,-0.8607231184428401,3.117394714540182,0.024999982234363904,-179.99999578767247,-4.21232706390937e-06,-160.36780119944868,-0.8281019460378721,2.923446844812579,0.07587145677300748,0.0,0.0,0.0,0.0,0.0,0.0,0.0,6.900109573868751,1.0,1.0,0.2,0.0,683.926017967703,924.2608412378102,924.2608412378102
0.03200000000000358,-0.8607231184428401,3.117394714540182,0.024999982234363904,-179.99999578767247,-4.21232706390937e-06,-160.36780119944868,-0.8229333272510658,2.8927170295045777,0.09001973727610835,0.0,0.0,0.0,0.0,0.0,0.0,0.0,2.074974308746315,1.0,0.4530324252087675,0.2,0.0,482.0674471237317,898.5573731324054,786.6971006485644
0.036000000000001364,-0.8607231184428401,3.117394714540182,0.024999982234363904,-179.99999578767247,-4.21232706390937e-06,-160.36780119944868,-0.8218823825790125,2.886468680186658,0.09288419679297753,0.0,0.0,0.0,0.0,0.0,0.0,0.0,7.888701929110207,1.0,1.0,0.2,0.0,704.7452084729086,939.7707770823633,939.7707770823633
0.036000000000001364,-0.8607231184428401,3.117394714540182,0.024999982234363904,-179.99999578767247,-4.21232706390937e-06,-160.36780119944868,-0.8162032484760378,2.852703616580251,0.10806356074515648,0.0,0.0,0.0,0.0,0.0,0.0,0.0,2.6520442191787215,1.0,0.549573463035749,0.2,0.0,515.6565788446526,898.6907438758864,807.7159227712656
0.03999999999999915,-0.8607231184428401,3.117394714540182,0.024999982234363904,-179.99999578767247,-4.21232706390937e-06,-160.36780119944868,-0.8150516682603455,2.845856942681432,0.1111311127739185,0.0,0.0,0.0,0.0,0.0,0.0,0.0,8.878023596647939,1.0,1.0,0.2,0.0,724.9814812401092,955.0400267703801,955.0400267703802
0.03999999999999915,-0.8607231184428401,3.117394714540182,0.024999982234363904,-179.99999578767247,-4.21232706390937e-06,-160.36780119944868,-0.809680345551753,2.8139219593516374,0.12724858930761143,0.0,0.0,0.0,0.0,0.0,0.0,0.0,3.2659461122144844,1.0,0.6499694847450959,0.2,0.0,548.7766766835806,899.0537128038396,829.2521603615759
0.044000000000004036,-0.8607231184428401,3.117394714540182,0.024999982234363904,-179.99999578767247,-4.21232706390937e-06,-160.36780119944868,-0.8086208097243579,2.8076225316648493,0.1305008217214581,0.0,0.0,0.0,0.0,0.0,0.0,0.0,9.866814098444253,1.0,1.0,0.2,0.0,744.657608350831,970.0609559544417,970.0609559544417
0.044000000000004036,-0.8607231184428401,3.117394714540182,0.024999982234363904,-179.99999578767247,-4.21232706390937e-06,-160.36780119944868,-0.8029132326068552,2.7736883612584826,0.1474688633269694,0.0,0.0,0.0,0.0,0.0,0.0,0.0,3.9133277779001983,1.0,0.7585234552875078,0.2,0.0,582.0609084537169,899.1792834783847,851.6444127348174
0.04800000000000182,-0.8607231184428401,3.117394714540182,0.024999982234363904,-179.99999578767247,-4.21232706390937e-06,-160.36780119944868,-0.8017565104920635,2.766811116405183,0.15088843946913674,0.0,0.0,0.0,0.0,0.0,0.0,0.0,10.19,1.0,1.0,0.2,0.0,750.9769660593531,974.9203598982721,974.9203598982722
0.04800000000000182,-0.8607231184428401,3.117394714540182,0.024999982234363904,-179.99999578767247,-4.21232706390937e-06,-160.36780119944868,-0.7955983356930966,2.7301979355898927,0.16862464774181,0.0,0.0,0.0,0.0,0.0,0.0,0.0,4.590529443175682,1.0,0.8784765707679782,0.2,0.0,615.8493326301182,898.697334696638,875.0849702134232
0.0519999999999996,-0.8607231184428401,3.117394714540182,0.024999982234363904,-179.99999578767247,-4.21232706390937e-06,-160.36780119944868,-0.7943528388127364,2.722792883935114,0.17219525200916952,0.0,0.0,0.0,0.0,0.0,0.0,0.0,10.19,1.0,1.0,0.2,0.0,750.9769660593531,974.9203598982721,974.9203598982722
0.0519999999999996,-0.8607231184428401,3.117394714540182,0.024999982234363904,-179.99999578767247,-4.21232706390937e-06,-160.36780119944868,-0.7877840859201091,2.6837386275620942,0.1906221163389604,0.0,0.0,0.0,0.0,0.0,0.0,0.0,5.294999285346317,1.0,1.0,0.2,0.0,648.7017439915759,898.5083512411989,898.508351241199
0.055999999999997385,-0.8607231184428401,3.117394714540182,0.024999982234363904,-179.99999578767247,-4.21232706390937e-06,-160.36780119944868,-0.7864577401214335,2.6758528919121978,0.1943284023343368,0.0,0.0,0.0,0.0,0.0,0.0,0.0,10.19,1.0,1.0,0.2,0.0,750.9769660593531,974.9203598982721,974.9203598982722
0.055999999999997385,-0.8607231184428401,3.117394714540182,0.024999982234363904,-179.99999578767247,-4.21232706390937e-06,-160.36780119944868,-0.7802907537081443,2.639187321998029,0.21337305095051468,0.0,0.0,0.0,0.0,0.0,0.0,0.0,6.0239404674021975,1.0,1.0,0.2,0.0,664.9297427375692,910.2938357308125,910.2938357308126
0.060000000000002274,-0.8607231184428401,3.117394714540182,0.024999982234363904,-179.99999578767247,-4.21232706390937e-06,-160.36780119944868,-0.7790750527580073,2.6319594208491117,0.2172005920872419,0.0,0.0,0.0,0.0,0.0,0.0,0.0,10.19,1.0,1.0,0.2,0.0,750.9769660593531,974.9203598982721,974.9203598982722
0.060000000000002274,-0.8607231184428401,3.117394714540182,0.024999982234363904,-179.99999578767247,-4.21232706390937e-06,-160.36780119944868,-0.7726600907448883,2.593819521970479,0.23679455489695939,0.0,0.0,0.0,0.0,0.0,0.0,0.0,6.7747241139606516,1.0,1.0,0.2,0.0,681.2400072940393,922.2750414764829,922.2750414764829
0.06400000000000006,-0.8607231184428401,3.117394714540182,0.024999982234363904,-179.99999578767247,-4.21232706390937e-06,-160.36780119944868,-0.7713956645200938,2.586301926658998,0.24072979734418107,0.0,0.0,0.0,0.0,0.0,0.0,0.0,10.19,1.0,1.0,0.2,0.0,750.9769660593531,974.9203598982721,974.9203598982722
0.06400000000000006,-0.8607231184428401,3.117394714540182,0.024999982234363904,-179.99999578767247,-4.21232706390937e-06,-160.36780119944868,-0.7647586051654883,2.546841556961024,0.26080878002852353,0.0,0.0,0.0,0.0,0.0,0.0,0.0,7.544880711827678,1.0,1.0,0.2,0.0,697.5750045392621,934.4057959743277,934.4057959743278
0.06799999999999784,-0.8607231184428401,3.117394714540182,0.024999982234363904,-179.99999578767247,-4.21232706390937e-06,-160.36780119944868,-0.7634195909272331,2.5388805016126583,0.26483899789086635,0.0,0.0,0.0,0.0,0.0,0.0,0.0,10.19,1.0,1.0,0.2,0.0,750.9769660593531,974.9203598982721,974.9203598982722
0.06799999999999784,-0.8607231184428401,3.117394714540182,0.024999982234363904,-179.99999578767247,-4.21232706390937e-06,-160.36780119944868,-0.7564391463755954,2.4973785490238667,0.28534266674578623,0.0,0.0,0.0,0.0,0.0,0.0,0.0,8.332091919066606,1.0,1.0,0.2,0.0,713.8855524528001,946.6445407824972,946.6445407824973
0.07200000000000273,-0.8607231184428401,3.117394714540182,0.024999982234363904,-179.99999578767247,-4.21232706390937e-06,-160.36780119944868,-0.7550635647551845,2.48920008377427,0.2894559193755206,0.0,0.0,0.0,0.0,0.0,0.0,0.0,10.19,1.0,1.0,0.2,0.0,750.9769660593531,974.9203598982721,974.9203598982722
0.07200000000000273,-0.8607231184428401,3.117394714540182,0.024999982234363904,-179.99999578767247,-4.21232706390937e-06,-160.36780119944868,-0.7486934247375804,2.451326672268903,0.3103276964078105,0.0,0.0,0.0,0.0,0.0,0.0,0.0,9.134182763960606,1.0,1.0,0.2,0.0,730.1297326082336,958.9539775354374,958.9539775354374
0.07600000000000051,-0.8607231184428401,3.117394714540182,0.024999982234363904,-179.99999578767247,-4.21232706390937e-06,-160.36780119944868,-0.7474387181390759,2.4438668646049684,0.31451278775231795,0.0,0.0,0.0,0.0,0.0,0.0,0.0,10.19,1.0,1.0,0.2,0.0,750.9769660593531,974.9203598982721,974.9203598982722
0.07600000000000051,-0.8607231184428401,3.117394714540182,0.024999982234363904,-179.99999578767247,-4.21232706390937e-06,-160.36780119944868,-0.7408689022797763,2.4048062884063115,0.3356996555625369,0.0,0.0,0.0,0.0,0.0,0.0,0.0,9.949114216087935,1.0,1.0,0.2,0.0,746.2719273796952,971.300722838952,971.3007228389521
0.0799999999999983,-0.8607231184428401,3.117394714540182,0.024999982234363904,-179.99999578767247,-4.21232706390937e-06,-160.36780119944868,-0.7395440353854974,2.3969293455230787,0.33994609545423354,0.0,0.0,0.0,0.0,0.0,0.0,0.0,10.19,1.0,1.0,0.2,0.0,750.9769660593531,974.9203598982721,974.9203598982722
0.0799999999999983,-0.8607231184428401,3.117394714540182,0.024999982234363904,-179.99999578767247,-4.21232706390937e-06,-160.36780119944868,-0.7326515713505359,2.355950477560893,0.36139841145931006,0.0,0.0,0.0,0.0,0.0,0.0,0.0,10.19,1.0,1.0,0.2,0.0,750.9769660593531,974.9203598982721,974.9203598982722
0.08400000000000318,-0.8607231184428401,3.117394714540182,0.024999982234363904,-179.99999578767247,-4.21232706390937e-06,-160.36780119944868,-0.7312632450006572,2.347696239034363,0.36569637875910593,0.0,0.0,0.0,0.0,0.0,0.0,0.0,10.19,1.0,1.0,0.2,0.0,750.9769660593531,974.9203598982721,974.9203598982722
0.08400000000000318,-0.8607231184428401,3.117394714540182,0.024999982234363904,-179.99999578767247,-4.21232706390937e-06,-160.36780119944868,-0.7240799742357347,2.304988391344587,0.38736769832723855,0.0,0.0,0.0,0.0,0.0,0.0,0.0,10.19,1.0,1.0,0.2,0.0,750.9769660593531,974.9203598982721,974.9203598982722
0.08800000000000097,-0.8607231184428401,3.117394714540182,0.024999982234363904,-179.99999578767247,-4.21232706390937e-06,-160.36780119944868,-0.7226654790857782,2.2965785672687273,0.39170800583675935,0.0,0.0,0.0,0.0,0.0,0.0,0.0,10.19,1.0,1.0,0.2,0.0,750.9769660593531,974.9203598982721,974.9203598982722
0.08800000000000097,-0.8607231184428401,3.117394714540182,0.024999982234363904,-179.99999578767247,-4.21232706390937e-06,-160.36780119944868,-0.7161416037564005,2.2577911286447074,0.4135549139262654,0.0,0.0,0.0,0.0,0.0,0.0,0.0,10.19,1.0,1.0,0.2,0.0,750.9769660593531,974.9203598982721,974.9203598982722
0.09199999999999875,-0.8607231184428401,3.117394714540182,0.024999982234363904,-179.99999578767247,-4.21232706390937e-06,-160.36780119944868,-0.7148576909258448,2.2501576765016975,0.41792897498784803,0.0,0.0,0.0,0.0,0.0,0.0,0.0,10.19,1.0,1.0,0.2,0.0,750.9769660593531,974.9203598982721,974.9203598982722
0.09199999999999875,-0.8607231184428401,3.117394714540182,0.024999982234363904,-179.99999578767247,-4.21232706390937e-06,-160.36780119944868,-0.7089545795069954,2.2150609647637656,0.4399109258998087,0.0,0.0,0.0,0.0,0.0,0.0,0.0,10.19,1.0,1.0,0.2,0.0,750.9769660593531,974.9203598982721,974.9203598982722
0.09600000000000364,-0.8607231184428401,3.117394714540182,0.024999982234363904,-179.99999578767247,-4.21232706390937e-06,-160.36780119944868,-0.7077626023257669,2.20797411232961,0.4443107226066851,0.0,0.0,0.0,0.0,0.0,0.0,0.0,10.19,1.0,1.0,0.2,0.0,750.9769660593531,974.9203598982721,974.9203598982722
0.09600000000000364,-0.8607231184428401,3.117394714540182,0.024999982234363904,-179.99999578767247,-4.21232706390937e-06,-160.36780119944868,-0.7015233232319072,2.170878729188023,0.46638988747863297,0.0,0.0,0.0,0.0,0.0,0.0,0.0,10.19,1.0,1.0,0.2,0.0,750.9769660593531,974.9203598982721,974.9203598982722
0.10000000000000142,-0.8607231184428401,3.117394714540182,0.024999982234363904,-179.99999578767247,-4.21232706390937e-06,-160.36780119944868,-0.700265186843325,2.163398529844999,0.4708079404213782,0.0,0.0,0.0,0.0,0.0,0.0,0.0,10.19,1.0,1.0,0.2,0.0,750.9769660593531,974.9203598982721,974.9203598982722
0.10000000000000142,-0.8607231184428401,3.117394714540182,0.024999982234363904,-179.99999578767247,-4.21232706390937e-06,-160.36780119944868,-0.6937217071488258,2.124494534255905,0.492949062105913,0.0,0.0,0.0,0.0,0.0,0.0,0.0,10.19,1.0,1.0,0.2,0.0,750.9769660593531,974.9203598982721,974.9203598982722
0.1039999999999992,-0.8607231184428401,3.117394714540182,0.024999982234363904,-179.99999578767247,-4.21232706390937e-06,-160.36780119944868,-0.692434727612,2.116842849133995,0.4973784015845388,0.0,0.0,0.0,0.0,0.0,0.0,0.0,10.19,1.0,1.0,0.2,0.0,750.9769660593531,974.9203598982721,974.9203598982722
0.1039999999999992,-0.8607231184428401,3.117394714540182,0.024999982234363904,-179.99999578767247,-4.21232706390937e-06,-160.36780119944868,-0.6865373833406633,2.081780425739861,0.5195486565726655,0.0,0.0,0.0,0.0,0.0,0.0,0.0,10.19,1.0,1.0,0.2,0.0,750.9769660593531,974.9203598982721,974.9203598982722
0.10799999999999699,-0.8607231184428401,3.117394714540182,0.024999982234363904,-179.99999578767247,-4.21232706390937e-06,-160.36780119944868,-0.6853783387991115,2.0748893729915805,0.5239827952066802,0.0,0.0,0.0,0.0,0.0,0.0,0.0,10.19,1.0,1.0,0.2,0.0,750.9769660593531,974.9203598982721,974.9203598982722
0.10799999999999699,-0.8607231184428401,3.117394714540182,0.024999982234363904,-179.99999578767247,-4.21232706390937e-06,-160.36780119944868,-0.6800886397554943,2.043439679882039,0.5461516622708752,0.0,0.0,0.0,0.0,0.0,0.0,0.0,10.19,1.0,1.0,0.2,0.0,750.9769660593531,974.9203598982721,974.9203598982722
0.11200000000000188,-0.8607231184428401,3.117394714540182,0.024999982234363904,-179.99999578767247,-4.21232706390937e-06,-160.36780119944868,-0.679018912033443,2.0370796566951097,0.5505845689429237,0.0,0.0,0.0,0.0,0.0,0.0,0.0,10.19,1.0,1.0,0.2,0.0,750.9769660593531,974.9203598982721,974.9203598982722
0.11200000000000188,-0.8607231184428401,3.117394714540182,0.024999982234363904,-179.99999578767247,-4.21232706390937e-06,-160.36780119944868,-0.6733800747189781,2.0035541760255544,0.572723704189478,0.0,0.0,0.0,0.0,0.0,0.0,0.0,10.19,1.0,1.0,0.2,0.0,750.9769660593531,974.9203598982721,974.9203598982722
0.11599999999999966,-0.8607231184428401,3.117394714540182,0.024999982234363904,-179.99999578767247,-4.21232706390937e-06,-160.36780119944868,-0.6722725848152145,1.9969696393046403,0.5771497792608439,0.0,0.0,0.0,0.0,0.0,0.0,0.0,10.19,1.0,1.0,0.2,0.0,750.9769660593531,974.9203598982721,974.9203598982722
0.11599999999999966,-0.8607231184428401,3.117394714540182,0.024999982234363904,-179.99999578767247,-4.21232706390937e-06,-160.36780119944868,-0.6672369877477875,1.9670306992840392,0.5992328972949401,0.0,0.0,0.0,0.0,0.0,0.0,0.0,10.19,1.0,1.0,0.2,0.0,750.9769660593531,974.9203598982721,974.9203598982722
0.11999999999999744,-0.8607231184428401,3.117394714540182,0.024999982234363904,-179.99999578767247,-4.21232706390937e-06,-160.36780119944868,-0.6662179332357056,1.9609719516307975,0.6036469490341725,0.0,0.0,0.0,0.0,0.0,0.0,0.0,10.19,1.0,1.0,0.2,0.0,750.9769660593531,974.9203598982721,974.9203598982722
0.11999999999999744,-0.8607231184428401,3.117394714540182,0.024999982234363904,-179.99999578767247,-4.21232706390937e-06,-160.36780119944868,-0.6608287808890058,1.9289309629040785,0.6256497099544454,0.0,0.0,0.0,0.0,0.0,0.0,0.0,10.19,1.0,1.0,0.2,0.0,750.9769660593531,974.9203598982721,974.9203598982722
0.12400000000000233,-0.8607231184428401,3.117394714540182,0.024999982234363904,-179.99999578767247,-4.21232706390937e-06,-160.36780119944868,-0.6597400945491845,1.9224582220170063,0.6300469321227383,0.0,0.0,0.0,0.0,0.0,0.0,0.0,10.19,1.0,1.0,0.2,0.0,750.9769660593531,974.9203598982721,974.9203598982722
0.12400000000000233,-0.8607231184428401,3.117394714540182,0.024999982234363904,-179.99999578767247,-4.21232706390937e-06,-160.36780119944868,-0.6540295026669366,1.8885061274479886,0.6519468340747794,0.0,0.0,0.0,0.0,0.0,0.0,0.0,10.19,1.0,1.0,0.2,0.0,750.9769660593531,974.9203598982721,974.9203598982722
0.1280000000000001,-0.8607231184428401,3.117394714540182,0.024999982234363904,-179.99999578767247,-4.21232706390937e-06,-160.36780119944868,-0.6529085306811729,1.8818414335502898,0.6563227846144736,0.0,0.0,0.0,0.0,0.0,0.0,0.0,10.19,1.0,1.0,0.2,0.0,750.9769660593531,974.9203598982721,974.9203598982722
0.1280000000000001,-0.8607231184428401,3.117394714540182,0.024999982234363904,-179.99999578767247,-4.21232706390937e-06,-160.36780119944868,-0.6478269954770665,1.8516293701839783,0.6780990616448946,0.0,0.0,0.0,0.0,0.0,0.0,0.0,10.19,1.0,1.0,0.2,0.0,750.9769660593531,974.9203598982721,974.9203598982722
0.1319999999999979,-0.8607231184428401,3.117394714540182,0.024999982234363904,-179.99999578767247,-4.21232706390937e-06,-160.36780119944868,-0.6467995623488985,1.845520807805472,0.6824496424198843,0.0,0.0,0.0,0.0,0.0,0.0,0.0,10.19,1.0,1.0,0.2,0.0,750.9769660593531,974.9203598982721,974.9203598982722
0.1319999999999979,-0.8607231184428401,3.117394714540182,0.024999982234363904,-179.99999578767247,-4.21232706390937e-06,-160.36780119944868,-0.641388507040392,1.8133495958994512,0.7040831673841688,0.0,0.0,0.0,0.0,0.0,0.0,0.0,10.19,1.0,1.0,0.2,0.0,750.9769660593531,974.9203598982721,974.9203598982722
0.13600000000000279,-0.8607231184428401,3.117394714540182,0.024999982234363904,-179.99999578767247,-4.21232706390937e-06,-160.36780119944868,-0.6402961925251763,1.8068552838413612,0.7084046049230908,0.0,0.0,0.0,0.0,0.0,0.0,0.0,10.19,1.0,1.0,0.2,0.0,750.9769660593531,974.9203598982721,974.9203598982722
0.13600000000000279,-0.8607231184428401,3.117394714540182,0.024999982234363904,-179.99999578767247,-4.21232706390937e-06,-160.36780119944868,-0.6345860477303963,1.772905847412918,0.7298777972115688,0.0,0.0,0.0,0.0,0.0,0.0,0.0,10.19,1.0,1.0,0.2,0.0,750.9769660593531,974.9203598982721,974.9203598982722
0.14000000000000057,-0.8607231184428401,3.117394714540182,0.024999982234363904,-179.99999578767247,-4.21232706390937e-06,-160.36780119944868,-0.633465864053494,1.7662458403738779,0.73416662440707,0.0,0.0,0.0,0.0,0.0,0.0,0.0,10.19,1.0,1.0,0.2,0.0,750.9769660593531,974.9203598982721,974.9203598982722
0.14000000000000057,-0.8607231184428401,3.117394714540182,0.024999982234363904,-179.99999578767247,-4.21232706390937e-06,-160.36780119944868,-0.6284055323010008,1.7361598412771213,0.7554633622639708,0.0,0.0,0.0,0.0,0.0,0.0,0.0,10.19,1.0,1.0,0.2,0.0,750.9769660593531,974.9203598982721,974.9203598982722
0.14399999999999835,-0.8607231184428401,3.117394714540182,0.024999982234363904,-179.99999578767247,-4.21232706390937e-06,-160.36780119944868,-0.6273829881475459,1.7300803461013197,0.7597164009834505,0.0,0.0,0.0,0.0,0.0,0.0,0.0,10.19,1.0,1.0,0.2,0.0,750.9769660593531,974.9203598982721,974.9203598982722
0.14399999999999835,-0.8607231184428401,3.117394714540182,0.024999982234363904,-179.99999578767247,-4.21232706390937e-06,-160.36780119944868,-0.6220123859369723,1.6981496464635448,0.7808219382041313,0.0,0.0,0.0,0.0,0.0,0.0,0.0,10.19,1.0,1.0,0.2,0.0,750.9769660593531,974.9203598982721,974.9203598982722
0.14800000000000324,-0.8607231184428401,3.117394714540182,0.024999982234363904,-179.99999578767247,-4.21232706390937e-06,-160.36780119944868,-0.6209287624942679,1.69170700682784,0.7850362827691676,0.0,0.0,0.0,0.0,0.0,0.0,0.0,10.19,1.0,1.0,0.2,0.0,750.9769660593531,974.9203598982721,974.9203598982722
0.14800000000000324,-0.8607231184428401,3.117394714540182,0.024999982234363904,-179.99999578767247,-4.21232706390937e-06,-160.36780119944868,-0.6152768964273185,1.6581040642339187,0.8059371695703218,0.0,0.0,0.0,0.0,0.0,0.0,0.0,10.19,1.0,1.0,0.2,0.0,750.9769660593531,974.9203598982721,974.9203598982722
0.15200000000000102,-0.8607231184428401,3.117394714540182,0.024999982234363904,-179.99999578767247,-4.21232706390937e-06,-160.36780119944868,-0.6141689237564825,1.6515166572407745,0.810110171064123,0.0,0.0,0.0,0.0,0.0,0.0,0.0,10.19,1.0,1.0,0.2,0.0,750.9769660593531,974.9203598982721,974.9203598982722
0.15200000000000102,-0.8607231184428401,3.117394714540182,0.024999982234363904,-179.99999578767247,-4.21232706390937e-06,-160.36780119944868,-0.609183350978768,1.6218751346245488,0.8307941789310419,0.0,0.0,0.0,0.0,0.0,0.0,0.0,10.19,1.0,1.0,0.2,0.0,750.9769660593531,974.9203598982721,974.9203598982722
0.1559999999999988,-0.8607231184428401,3.117394714540182,0.024999982234363904,-179.99999578767247,-4.21232706390937e-06,-160.36780119944868,-0.6081762711972569,1.6158875822507395,0.8349234302951013,0.0,0.0,0.0,0.0,0.0,0.0,0.0,10.19,1.0,1.0,0.2,0.0,750.9769660593531,974.9203598982721,974.9203598982722
0.1559999999999988,-0.8607231184428401,3.117394714540182,0.024999982234363904,-179.99999578767247,-4.21232706390937e-06,-160.36780119944868,-0.6028956375800748,1.5844917872697943,0.8553794806189255,0.0,0.0,0.0,0.0,0.0,0.0,0.0,10.19,1.0,1.0,0.2,0.0,750.9769660593531,974.9203598982721,974.9203598982722
0.1600000000000037,-0.8607231184428401,3.117394714540182,0.024999982234363904,-179.99999578767247,-4.21232706390937e-06,-160.36780119944868,-0.6018304801343655,1.5781589364772102,0.8594628025016159,0.0,0.0,0.0,0.0,0.0,0.0,0.0,10.19,1.0,1.0,0.2,0.0,750.9769660593531,974.9203598982721,974.9203598982722
0.1600000000000037,-0.8607231184428401,3.117394714540182,0.024999982234363904,-179.99999578767247,-4.21232706390937e-06,-160.36780119944868,-0.5962825927074166,1.545174194709271,0.8796808988279857,0.0,0.0,0.0,0.0,0.0,0.0,0.0,10.19,1.0,1.0,0.2,0.0,750.9769660593531,974.9203598982721,974.9203598982722
0.16400000000000148,-0.8607231184428401,3.117394714540182,0.024999982234363904,-179.99999578767247,-4.21232706390937e-06,-160.36780119944868,-0.5951958500107786,1.5387130096746435,0.8837163261497164,0.0,0.0,0.0,0.0,0.0,0.0,0.0,10.19,1.0,1.0,0.2,0.0,750.9769660593531,974.9203598982721,974.9203598982722
0.16400000000000148,-0.8607231184428401,3.117394714540182,0.024999982234363904,-179.99999578767247,-4.21232706390937e-06,-160.36780119944868,-0.5903271338781658,1.509766253546257,0.9036874898683261,0.0,0.0,0.0,0.0,0.0,0.0,0.0,10.19,1.0,1.0,0.2,0.0,750.9769660593531,974.9203598982721,974.9203598982722
0.16799999999999926,-0.8607231184428401,3.117394714540182,0.024999982234363904,-179.99999578767247,-4.21232706390937e-06,-160.36780119944868,-0.5893438237935424,1.5039200229501635,0.9076732590694859,0.0,0.0,0.0,0.0,0.0,0.0,0.0,10.19,1.0,1.0,0.2,0.0,750.9769660593531,974.9203598982721,974.9203598982722
0.16799999999999926,-0.8607231184428401,3.117394714540182,0.024999982234363904,-179.99999578767247,-4.21232706390937e-06,-160.36780119944868,-0.5841918569543959,1.4732892111278535,0.9273894683817849,0.0,0.0,0.0,0.0,0.0,0.0,0.0,10.19,1.0,1.0,0.2,0.0,750.9769660593531,974.9203598982721,974.9203598982722
0.17199999999999704,-0.8607231184428401,3.117394714540182,0.024999982234363904,-179.99999578767247,-4.21232706390937e-06,-160.36780119944868,-0.5831527974001308,1.4671115243001678,0.9313240053210313,0.0,0.0,0.0,0.0,0.0,0.0,0.0,10.19,1.0,1.0,0.2,0.0,750.9769660593531,974.9203598982721,974.9203598982722
0.17199999999999704,-0.8607231184428401,3.117394714540182,0.024999982234363904,-179.99999578767247,-4.21232706390937e-06,-160.36780119944868,-0.5777443799774219,1.434955995838159,0.9507781373307106,0.0,0.0,0.0,0.0,0.0,0.0,0.0,10.19,1.0,1.0,0.2,0.0,750.9769660593531,974.9203598982721,974.9203598982722
0.17600000000000193,-0.8607231184428401,3.117394714540182,0.024999982234363904,-179.99999578767247,-4.21232706390937e-06,-160.36780119944868,-0.5766548778970141,1.428478404998208,0.954660045802884,0.0,0.0,0.0,0.0,0.0,0.0,0.0,10.19,1.0,1.0,0.2,0.0,750.9769660593531,974.9203598982721,974.9203598982722
0.17600000000000193,-0.8607231184428401,3.117394714540182,0.024999982234363904,-179.99999578767247,-4.21232706390937e-06,-160.36780119944868,-0.5710152287289963,1.394948097485977,0.9738458215808543,0.0,0.0,0.0,0.0,0.0,0.0,0.0,10.19,1.0,1.0,0.2,0.0,750.9769660593531,974.9203598982721,974.9203598982722
0.17999999999999972,-0.8607231184428401,3.117394714540182,0.024999982234363904,-179.99999578767247,-4.21232706390937e-06,-160.36780119944868,-0.5699112635374264,1.3883845167997775,0.9776738724250023,0.0,0.0,0.0,0.0,0.0,0.0,0.0,10.19,1.0,1.0,0.2,0.0,750.9769660593531,974.9203598982721,974.9203598982722
0.17999999999999972,-0.8607231184428401,3.117394714540182,0.024999982234363904,-179.99999578767247,-4.21232706390937e-06,-160.36780119944868,-0.5649843578064593,1.3590917967525897,0.9965858049073248,0.0,0.0,0.0,0.0,0.0,0.0,0.0,10.19,1.0,1.0,0.2,0.0,750.9769660593531,974.9203598982721,974.9203598982722
0.1839999999999975,-0.8607231184428401,3.117394714540182,0.024999982234363904,-179.99999578767247,-4.21232706390937e-06,-160.36780119944868,-0.5639904617971397,1.3531826279665857,1.000358925676853,0.0,0.0,0.0,0.0,0.0,0.0,0.0,10.19,1.0,1.0,0.2,0.0,750.9769660593531,974.9203598982721,974.9203598982722
0.1839999999999975,-0.8607231184428401,3.117394714540182,0.024999982234363904,-179.99999578767247,-4.21232706390937e-06,-160.36780119944868,-0.5588115591377177,1.3223916703071812,1.0189922702605363,0.0,0.0,0.0,0.0,0.0,0.0,0.0,10.19,1.0,1.0,0.2,0.0,750.9769660593531,974.9203598982721,974.9203598982722
0.1880000000000024,-0.8607231184428401,3.117394714540182,0.024999982234363904,-179.99999578767247,-4.21232706390937e-06,-160.36780119944868,-0.5577680907560857,1.3161877709735441,1.0227095354285471,0.0,0.0,0.0,0.0,0.0,0.0,0.0,10.19,1.0,1.0,0.2,0.0,750.9769660593531,974.9203598982721,974.9203598982722
0.1880000000000024,-0.8607231184428401,3.117394714540182,0.024999982234363904,-179.99999578767247,-4.21232706390937e-06,-160.36780119944868,-0.5523617980807407,1.2840448751116096,1.0410602431362916,0.0,0.0,0.0,0.0,0.0,0.0,0.0,10.19,1.0,1.0,0.2,0.0,750.9769660593531,974.9203598982721,974.9203598982722
0.19200000000000017,-0.8607231184428401,3.117394714540182,0.024999982234363904,-179.99999578767247,-4.21232706390937e-06,-160.36780119944868,-0.5513046156556262,1.2777594394835141,1.044720864810587,0.0,0.0,0.0,0.0,0.0,0.0,0.0,10.19,1.0,1.0,0.2,0.0,750.9769660593531,974.9203598982721,974.9203598982722
0.19200000000000017,-0.8607231184428401,3.117394714540182,0.024999982234363904,-179.99999578767247,-4.21232706390937e-06,-160.36780119944868,-0.5466143349100935,1.2498735637790002,1.0627855379014552,0.0,0.0,0.0,0.0,0.0,0.0,0.0,10.19,1.0,1.0,0.2,0.0,750.9769660593531,974.9203598982721,974.9203598982722
0.19599999999999795,-0.8607231184428401,3.117394714540182,0.024999982234363904,-179.99999578767247,-4.21232706390937e-06,-160.36780119944868,-0.5456988433509838,1.2444305455012186,1.0663888570248443,0.0,0.0,0.0,0.0,0.0,0.0,0.0,10.19,1.0,1.0,0.2,0.0,750.9769660593531,974.9203598982721,974.9203598982722
0.19599999999999795,-0.8607231184428401,3.117394714540182,0.024999982234363904,-179.99999578767247,-4.21232706390937e-06,-160.36780119944868,-0.5409049040641505,1.2159283721046796,1.0841647069334601,0.0,0.0,0.0,0.0,0.0,0.0,0.0,10.19,1.0,1.0,0.2,0.0,750.9769660593531,974.9203598982721,974.9203598982722
0.20000000000000284,-0.8607231184428401,3.117394714540182,0.024999982234363904,-179.99999578767247,-4.21232706390937e-06,-160.36780119944868,-0.5399381490845248,1.2101805692201206,1.0877101849459574,0.0,0.0,0.0,0.0,0.0,0.0,0.0,10.19,1.0,1.0,0.2,0.0,750.9769660593531,974.9203598982721,974.9203598982722
0.20000000000000284,-0.8607231184428401,3.117394714540182,0.024999982234363904,-179.99999578767247,-4.21232706390937e-06,-160.36780119944868,-0.5349084563461132,1.1802767331504285,1.1051949924382225,0.0,0.0,0.0,0.0,0.0,0.0,0.0,10.19,1.0,1.0,0.2,0.0,750.9769660593531,974.9203598982721,974.9203598982722
0.20400000000000063,-0.8607231184428401,3.117394714540182,0.024999982234363904,-179.99999578767247,-4.21232706390937e-06,-160.36780119944868,-0.5338953323565752,1.1742532451806673,1.1086822033789645,0.0,0.0,0.0,0.0,0.0,0.0,0.0,10.19,1.0,1.0,0.2,0.0,750.9769660593531,974.9203598982721,974.9203598982722
0.20400000000000063,-0.8607231184428401,3.117394714540182,0.024999982234363904,-179.99999578767247,-4.21232706390937e-06,-160.36780119944868,-0.5286531438066229,1.1430860238021114,1.1258742808174194,0.0,0.0,0.0,0.0,0.0,0.0,0.0,10.19,1.0,1.0,0.2,0.0,750.9769660593531,974.9203598982721,974.9203598982722
0.2079999999999984,-0.8607231184428401,3.117394714540182,0.024999982234363904,-179.99999578767247,-4.21232706390937e-06,-160.36780119944868,-0.5276292418682398,1.1369984559705786,1.1293029038451468,0.0,0.0,0.0,0.0,0.0,0.0,0.0,10.19,1.0,1.0,0.2,0.0,750.9769660593531,974.9203598982721,974.9203598982722
0.2079999999999984,-0.8607231184428401,3.117394714540182,0.024999982234363904,-179.99999578767247,-4.21232706390937e-06,-160.36780119944868,-0.5231166872467536,1.1101692437950712,1.1462010594620138,0.0,0.0,0.0,0.0,0.0,0.0,0.0,10.19,1.0,1.0,0.2,0.0,750.9769660593531,974.9203598982721,974.9203598982722
0.2120000000000033,-0.8607231184428401,3.117394714540182,0.024999982234363904,-179.99999578767247,-4.21232706390937e-06,-160.36780119944868,-0.52223716028507,1.1049400515861316,1.1495708717737703,0.0,0.0,0.0,0.0,0.0,0.0,0.0,10.19,1.0,1.0,0.2,0.0,750.9769660593531,974.9203598982721,974.9203598982722
0.2120000000000033,-0.8607231184428401,3.117394714540182,0.024999982234363904,-179.99999578767247,-4.21232706390937e-06,-160.36780119944868,-0.5176333701209053,1.0775684021577179,1.1661743758544094,0.0,0.0,0.0,0.0,0.0,0.0,0.0,10.19,1.0,1.0,0.2,0.0,750.9769660593531,974.9203598982721,974.9203598982722
0.21600000000000108,-0.8607231184428401,3.117394714540182,0.024999982234363904,-179.99999578767247,-4.21232706390937e-06,-160.36780119944868,-0.5167050263831425,1.0720489717681887,1.1694852459832112,0.0,0.0,0.0,0.0,0.0,0.0,0.0,10.19,1.0,1.0,0.2,0.0,750.9769660593531,974.9203598982721,974.9203598982722
0.21600000000000108,-0.8607231184428401,3.117394714540182,0.024999982234363904,-179.99999578767247,-4.21232706390937e-06,-160.36780119944868,-0.5118767762919102,1.043342804862796,1.1857937988672032,0.0,0.0,0.0,0.0,0.0,0.0,0.0,10.19,1.0,1.0,0.2,0.0,750.9769660593531,974.9203598982721,974.9203598982722
0.21999999999999886,-0.8607231184428401,3.117394714540182,0.024999982234363904,-179.99999578767247,-4.21232706390937e-06,-160.36780119944868,-0.5109042865099367,1.0375609059413184,1.1890456803403189,0.0,0.0,0.0,0.0,0.0,0.0,0.0,10.19,1.0,1.0,0.2,0.0,750.9769660593531,974.9203598982721,974.9203598982722
0.21999999999999886,-0.8607231184428401,3.117394714540182,0.024999982234363904,-179.99999578767247,-4.21232706390937e-06,-160.36780119944868,-0.5058737706768,1.0076521761950121,1.2050593821516653,0.0,0.0,0.0,0.0,0.0,0.0,0.0,10.19,1.0,1.0,0.2,0.0,750.9769660593531,974.9203598982721,974.9203598982722
0.22400000000000375,-0.8607231184428401,3.117394714540182,0.024999982234363904,-179.99999578767247,-4.21232706390937e-06,-160.36780119944868,-0.5048615292924266,1.0016339357187916,1.2082523074918339,0.0,0.0,0.0,0.0,0.0,0.0,0.0,10.19,1.0,1.0,0.2,0.0,750.9769660593531,974.9203598982721,974.9203598982722
0.22400000000000375,-0.8607231184428401,3.117394714540182,0.024999982234363904,-179.99999578767247,-4.21232706390937e-06,-160.36780119944868,-0.499649619409514,0.9706467349384427,1.2239716295138647,0.0,0.0,0.0,0.0,0.0,0.0,0.0,10.19,1.0,1.0,0.2,0.0,750.9769660593531,974.9203598982721,974.9203598982722
0.22800000000000153,-0.8607231184428401,3.117394714540182,0.024999982234363904,-179.99999578767247,-4.21232706390937e-06,-160.36780119944868,-0.49863274466261626,0.9646009469915147,1.2271057045667537,0.0,0.0,0.0,0.0,0.0,0.0,0.0,10.19,1.0,1.0,0.2,0.0,750.9769660593531,974.9203598982721,974.9203598982722
0.22800000000000153,-0.8607231184428401,3.117394714540182,0.024999982234363904,-179.99999578767247,-4.21232706390937e-06,-160.36780119944868,-0.4941793146885963,0.938123258031731,1.2425314621812305,0.0,0.0,0.0,0.0,0.0,0.0,0.0,10.19,1.0,1.0,0.2,0.0,750.9769660593531,974.9203598982721,974.9203598982722
0.23199999999999932,-0.8607231184428401,3.117394714540182,0.024999982234363904,-179.99999578767247,-4.21232706390937e-06,-160.36780119944868,-0.4933125125026656,0.9329697204657149,1.245606860753211,0.0,0.0,0.0,0.0,0.0,0.0,0.0,10.19,1.0,1.0,0.2,0.0,750.9769660593531,974.9203598982721,974.9203598982722
0.23199999999999932,-0.8607231184428401,3.117394714540182,0.024999982234363904,-179.99999578767247,-4.21232706390937e-06,-160.36780119944868,-0.48879456096753654,0.9061084211570064,1.2607401878668487,0.0,0.0,0.0,0.0,0.0,0.0,0.0,10.19,1.0,1.0,0.2,0.0,750.9769660593531,974.9203598982721,974.9203598982722
0.2359999999999971,-0.8607231184428401,3.117394714540182,0.024999982234363904,-179.99999578767247,-4.21232706390937e-06,-160.36780119944868,-0.48788421714000074,0.900696008510447,1.2637571466577386,0.0,0.0,0.0,0.0,0.0,0.0,0.0,10.19,1.0,1.0,0.2,0.0,750.9769660593531,974.9203598982721,974.9203598982722
0.2359999999999971,-0.8607231184428401,3.117394714540182,0.024999982234363904,-179.99999578767247,-4.21232706390937e-06,-160.36780119944868,-0.483166505355154,0.8726470426639441,1.2785994715429374,0.0,0.0,0.0,0.0,0.0,0.0,0.0,10.19,1.0,1.0,0.2,0.0,750.9769660593531,974.9203598982721,974.9203598982722
0.240000000000002,-0.8607231184428401,3.117394714540182,0.024999982234363904,-179.99999578767247,-4.21232706390937e-06,-160.36780119944868,-0.4822168915122743,0.8670011517191323,1.2815582853592806,0.0,0.0,0.0,0.0,0.0,0.0,0.0,10.19,1.0,1.0,0.2,0.0,750.9769660593531,974.9203598982721,974.9203598982722
0.240000000000002,-0.8607231184428401,3.117394714540182,0.024999982234363904,-179.99999578767247,-4.21232706390937e-06,-160.36780119944868,-0.4773197112483843,0.837885163242002,1.2961113078392539,0.0,0.0,0.0,0.0,0.0,0.0,0.0,10.19,1.0,1.0,0.2,0.0,750.9769660593531,974.9203598982721,974.9203598982722
0.24399999999999977,-0.8607231184428401,3.117394714540182,0.024999982234363904,-179.99999578767247,-4.21232706390937e-06,-160.36780119944868,-0.4763348449186352,0.8320296800530477,1.2990123250742127,0.0,0.0,0.0,0.0,0.0,0.0,0.0,10.19,1.0,1.0,0.2,0.0,750.9769660593531,974.9203598982721,974.9203598982722
0.24399999999999977,-0.8607231184428401,3.117394714540182,0.024999982234363904,-179.99999578767247,-4.21232706390937e-06,-160.36780119944868,-0.47127727180838525,0.8019600823528991,1.3132779949859603,0.0,0.0,0.0,0.0,0.0,0.0,0.0,10.19,1.0,1.0,0.2,0.0,750.9769660593531,974.9203598982721,974.9203598982722
0.24799999999999756,-0.8607231184428401,3.117394714540182,0.024999982234363904,-179.99999578767247,-4.21232706390937e-06,-160.36780119944868,-0.4702919154122792,0.7961016854941116,1.3161216133527005,0.0,0.0,0.0,0.0,0.0,0.0,0.0,10.19,1.0,1.0,0.2,0.0,750.9769660593531,974.9203598982721,974.9203598982722
0.24799999999999756,-0.8607231184428401,3.117394714540182,0.024999982234363904,-179.99999578767247,-4.21232706390937e-06,-160.36780119944868,-0.46601212843330586,0.7706563839839368,1.3301021102243697,0.0,0.0,0.0,0.0,0.0,0.0,0.0,10.19,1.0,1.0,0.2,0.0,750.9769660593531,974.9203598982721,974.9203598982722
0.25200000000000244,-0.8607231184428401,3.117394714540182,0.024999982234363904,-179.99999578767247,-4.21232706390937e-06,-160.36780119944868,-0.4651496660896361,0.7655286487756965,1.332888772730247,0.0,0.0,0.0,0.0,0.0,0.0,0.0,10.19,1.0,1.0,0.2,0.0,750.9769660593531,974.9203598982721,974.9203598982722
0.25200000000000244,-0.8607231184428401,3.117394714540182,0.024999982234363904,-179.99999578767247,-4.21232706390937e-06,-160.36780119944868,-0.46067745837491236,0.7389393175130984,1.3465864866123964,0.0,0.0,0.0,0.0,0.0,0.0,0.0,10.19,1.0,1.0,0.2,0.0,750.9769660593531,974.9203598982721,974.9203598982722
0.2560000000000002,-0.8607231184428401,3.117394714540182,0.024999982234363904,-179.99999578767247,-4.21232706390937e-06,-160.36780119944868,-0.45977716574198196,0.7335866638401816,1.3493166777619896,0.0,0.0,0.0,0.0,0.0,0.0,0.0,10.19,1.0,1.0,0.2,0.0,750.9769660593531,974.9203598982721,974.9203598982722
0.2560000000000002,-0.8607231184428401,3.117394714540182,0.024999982234363904,-179.99999578767247,-4.21232706390937e-06,-160.36780119944868,-0.4551319909180389,0.7059689635800022,1.3627341911550988,0.0,0.0,0.0,0.0,0.0,0.0,0.0,10.19,1.0,1.0,0.2,0.0,750.9769660593531,974.9203598982721,974.9203598982722
0.259999999999998,-0.8607231184428401,3.117394714540182,0.024999982234363904,-179.99999578767247,-4.21232706390937e-06,-160.36780119944868,-0.45419771962115524,0.7004142911259049,1.3654084333706942,0.0,0.0,0.0,0.0,0.0,0.0,0.0,10.19,1.0,1.0,0.2,0.0,750.9769660593531,974.9203598982721,974.9203598982722
0.259999999999998,-0.8607231184428401,3.117394714540182,0.024999982234363904,-179.99999578767247,-4.21232706390937e-06,-160.36780119944868,-0.4493978665781405,0.6718769577296202,1.3785485041939656,0.0,0.0,0.0,0.0,0.0,0.0,0.0,10.19,1.0,1.0,0.2,0.0,750.9769660593531,974.9203598982721,974.9203598982722
0.2640000000000029,-0.8607231184428401,3.117394714540182,0.024999982234363904,-179.99999578767247,-4.21232706390937e-06,-160.36780119944868,-0.4484642233259068,0.6663260192897529,1.3811673544424963,0.0,0.0,0.0,0.0,0.0,0.0,0.0,10.19,1.0,1.0,0.2,0.0,750.9769660593531,974.9203598982721,974.9203598982722
0.2640000000000029,-0.8607231184428401,3.117394714540182,0.024999982234363904,-179.99999578767247,-4.21232706390937e-06,-160.36780119944868,-0.444447133046019,0.6424425704481339,1.394032899991577,0.0,0.0,0.0,0.0,0.0,0.0,0.0,10.19,1.0,1.0,0.2,0.0,750.9769660593531,974.9203598982721,974.9203598982722
0.2680000000000007,-0.8607231184428401,3.117394714540182,0.024999982234363904,-179.99999578767247,-4.21232706390937e-06,-160.36780119944868,-0.4436683419421879,0.6378122992342198,1.3965969466076742,0.0,0.0,0.0,0.0,0.0,0.0,0.0,10.19,1.0,1.0,0.2,0.0,750.9769660593531,974.9203598982721,974.9203598982722
0.2680000000000007,-0.8607231184428401,3.117394714540182,0.024999982234363904,-179.99999578767247,-4.21232706390937e-06,-160.36780119944868,-0.4403833730530302,0.6182816487025868,1.4091910284513909,0.0,0.0,0.0,0.0,0.0,0.0,0.0,10.19,1.0,1.0,0.2,0.0,750.9769660593531,974.9203598982721,974.9203598982722
0.27199999999999847,-0.8607231184428401,3.117394714540182,0.024999982234363904,-179.99999578767247,-4.21232706390937e-06,-160.36780119944868,-0.4397184093991031,0.6143281340181851,1.4117008881466837,0.0,0.0,0.0,0.0,0.0,0.0,0.0,10.19,1.0,1.0,0.2,0.0,750.9769660593531,974.9203598982721,974.9203598982722
0.27199999999999847,-0.8607231184428401,3.117394714540182,0.024999982234363904,-179.99999578767247,-4.21232706390937e-06,-160.36780119944868,-0.4361973336571848,0.5933937196808702,1.4240266979152343,0.0,0.0,0.0,0.0,0.0,0.0,0.0,10.19,1.0,1.0,0.2,0.0,750.9769660593531,974.9203598982721,974.9203598982722
0.27600000000000335,-0.8607231184428401,3.117394714540182,0.024999982234363904,-179.99999578767247,-4.21232706390937e-06,-160.36780119944868,-0.43548586598656924,0.589163717233903,1.426483012964378,0.0,0.0,0.0,0.0,0.0,0.0,0.0,10.19,1.0,1.0,0.2,0.0,750.9769660593531,974.9203598982721,974.9203598982722
0.27600000000000335,-0.8607231184428401,3.117394714540182,0.024999982234363904,-179.99999578767247,-4.21232706390937e-06,-160.36780119944868,-0.43175003065529216,0.5669524583876712,1.438543858983671,0.0,0.0,0.0,0.0,0.0,0.0,0.0,10.19,1.0,1.0,0.2,0.0,750.9769660593531,974.9203598982721,974.9203598982722
0.28000000000000114,-0.8607231184428401,3.117394714540182,0.024999982234363904,-179.99999578767247,-4.21232706390937e-06,-160.36780119944868,-0.43099628659272865,0.5624711033511562,1.4409472945781585,0.0,0.0,0.0,0.0,0.0,0.0,0.0,10.19,1.0,1.0,0.2,0.0,750.9769660593531,974.9203598982721,974.9203598982722
0.28000000000000114,-0.8607231184428401,3.117394714540182,0.024999982234363904,-179.99999578767247,-4.21232706390937e-06,-160.36780119944868,-0.4270657928407447,0.5391025106865086,1.452746589307136,0.0,0.0,0.0,0.0,0.0,0.0,0.0,10.19,1.0,1.0,0.2,0.0,750.9769660593531,974.9203598982721,974.9203598982722
0.2839999999999989,-0.8607231184428401,3.117394714540182,0.024999982234363904,-179.99999578767247,-4.21232706390937e-06,-160.36780119944868,-0.4263047389390747,0.5345776952953154,1.4550978310683658,0.0,0.0,0.0,0.0,0.0,0.0,0.0,10.19,1.0,1.0,0.2,0.0,750.9769660593531,974.9203598982721,974.9203598982722
0.2839999999999989,-0.8607231184428401,3.117394714540182,0.024999982234363904,-179.99999578767247,-4.21232706390937e-06,-160.36780119944868,-0.4231187621427774,0.515635598274016,1.4666390792981894,0.0,0.0,0.0,0.0,0.0,0.0,0.0,10.19,1.0,1.0,0.2,0.0,750.9769660593531,974.9203598982721,974.9203598982722
0.2880000000000038,-0.8607231184428401,3.117394714540182,0.024999982234363904,-179.99999578767247,-4.21232706390937e-06,-160.36780119944868,-0.4224739808523911,0.5118020770210646,1.4689388309415505,0.0,0.0,0.0,0.0,0.0,0.0,0.0,10.19,1.0,1.0,0.2,0.0,750.9769660593531,974.9203598982721,974.9203598982722
0.2880000000000038,-0.8607231184428401,3.117394714540182,0.024999982234363904,-179.99999578767247,-4.21232706390937e-06,-160.36780119944868,-0.41906328220481204,0.4915239052628962,1.4802256187174878,0.0,0.0,0.0,0.0,0.0,0.0,0.0,10.19,1.0,1.0,0.2,0.0,750.9769660593531,974.9203598982721,974.9203598982722
0.2920000000000016,-0.8607231184428401,3.117394714540182,0.024999982234363904,-179.99999578767247,-4.21232706390937e-06,-160.36780119944868,-0.41837424187389144,0.4874272436628949,1.482474599859738,0.0,0.0,0.0,0.0,0.0,0.0,0.0,10.19,1.0,1.0,0.2,0.0,750.9769660593531,974.9203598982721,974.9203598982722
0.2920000000000016,-0.8607231184428401,3.117394714540182,0.024999982234363904,-179.99999578767247,-4.21232706390937e-06,-160.36780119944868,-0.4147592155008763,0.46593424962358176,1.4935105840884455,0.0,0.0,0.0,0.0,0.0,0.0,0.0,10.19,1.0,1.0,0.2,0.0,750.9769660593531,974.9203598982721,974.9203598982722
0.2959999999999994,-0.8607231184428401,3.117394714540182,0.024999982234363904,-179.99999578767247,-4.21232706390937e-06,-160.36780119944868,-0.41402995495781086,0.46159846036842944,1.4957095281910098,0.0,0.0,0.0,0.0,0.0,0.0,0.0,10.19,1.0,1.0,0.2,0.0,750.9769660593531,974.9203598982721,974.9203598982722
0.2959999999999994,-0.8607231184428401,3.117394714540182,0.024999982234363904,-179.99999578767247,-4.21232706390937e-06,-160.36780119944868,-0.41022980344593946,0.4390048122548707,1.5064984268976955,0.0,0.0,0.0,0.0,0.0,0.0,0.0,10.19,1.0,1.0,0.2,0.0,750.9769660593531,974.9203598982721,974.9203598982722
0.29999999999999716,-0.8607231184428401,3.117394714540182,0.024999982234363904,-179.99999578767247,-4.21232706390937e-06,-160.36780119944868,-0.40949511126653393,0.43463672942411613,1.508648079338767,0.0,0.0,0.0,0.0,0.0,0.0,0.0,10.19,1.0,1.0,0.2,0.0,750.9769660593531,974.9203598982721,974.9203598982722
0.29999999999999716,-0.8607231184428401,3.117394714540182,0.024999982234363904,-179.99999578767247,-4.21232706390937e-06,-160.36780119944868,-0.40644816322978483,0.4165212223061626,1.5191936625404043,0.0,0.0,0.0,0.0,0.0,0.0,0.0,10.19,1.0,1.0,0.2,0.0,750.9769660593531,974.9203598982721,974.9203598982722
0.30400000000000205,-0.8607231184428401,3.117394714540182,0.024999982234363904,-179.99999578767247,-4.21232706390937e-06,-160.36780119944868,-0.4058624401961102,0.41303882954537136,1.521294778809199,0.0,0.0,0.0,0.0,0.0,0.0,0.0,10.19,1.0,1.0,0.2,0.0,750.9769660593531,974.9203598982721,974.9203598982722
0.30400000000000205,-0.8607231184428401,3.117394714540182,0.024999982234363904,-179.99999578767247,-4.21232706390937e-06,-160.36780119944868,-0.4027442657416662,0.3944998486230815,1.5316008599715933,0.0,0.0,0.0,0.0,0.0,0.0,0.0,10.19,1.0,1.0,0.2,0.0,750.9769660593531,974.9203598982721,974.9203598982722
0.30799999999999983,-0.8607231184428401,3.117394714540182,0.024999982234363904,-179.99999578767247,-4.21232706390937e-06,-160.36780119944868,-0.40211361567590176,0.39075034399828873,1.5336542039783223,0.0,0.0,0.0,0.0,0.0,0.0,0.0,10.19,1.0,1.0,0.2,0.0,750.9769660593531,974.9203598982721,974.9203598982722
0.30799999999999983,-0.8607231184428401,3.117394714540182,0.024999982234363904,-179.99999578767247,-4.21232706390937e-06,-160.36780119944868,-0.3987876581126988,0.37097599695215433,1.5437246320263736,0.0,0.0,0.0,0.0,0.0,0.0,0.0,10.19,1.0,1.0,0.2,0.0,750.9769660593531,974.9203598982721,974.9203598982722
0.3119999999999976,-0.8607231184428401,3.117394714540182,0.024999982234363904,-179.99999578767247,-4.21232706390937e-06,-160.36780119944868,-0.3981160925425182,0.36698323083995016,1.5457309745219143,0.0,0.0,0.0,0.0,0.0,0.0,0.0,10.19,1.0,1.0,0.2,0.0,750.9769660593531,974.9203598982721,974.9203598982722
0.3119999999999976,-0.8607231184428401,3.117394714540182,0.024999982234363904,-179.99999578767247,-4.21232706390937e-06,-160.36780119944868,-0.3946014298793794,0.3460869452048241,1.5555696263738918,0.0,0.0,0.0,0.0,0.0,0.0,0.0,10.19,1.0,1.0,0.2,0.0,750.9769660593531,974.9203598982721,974.9203598982722
0.3160000000000025,-0.8607231184428401,3.117394714540182,0.024999982234363904,-179.99999578767247,-4.21232706390937e-06,-160.36780119944868,-0.3938927268856667,0.3418733800332906,1.5575297434732955,0.0,0.0,0.0,0.0,0.0,0.0,0.0,10.19,1.0,1.0,0.2,0.0,750.9769660593531,974.9203598982721,974.9203598982722
0.3160000000000025,-0.8607231184428401,3.117394714540182,0.024999982234363904,-179.99999578767247,-4.21232706390937e-06,-160.36780119944868,-0.3902073193610237,0.31996193768507747,1.5671405170713557,0.0,0.0,0.0,0.0,0.0,0.0,0.0,10.19,1.0,1.0,0.2,0.0,750.9769660593531,974.9203598982721,974.9203598982722
0.3200000000000003,-0.8607231184428401,3.117394714540182,0.024999982234363904,-179.99999578767247,-4.21232706390937e-06,-160.36780119944868,-0.3894960214029216,0.3157329442570396,1.5690551888757167,0.0,0.0,0.0,0.0,0.0,0.0,0.0,10.19,1.0,1.0,0.2,0.0,750.9769660593531,974.9203598982721,974.9203598982722
0.3200000000000003,-0.8607231184428401,3.117394714540182,0.024999982234363904,-179.99999578767247,-4.21232706390937e-06,-160.36780119944868,-0.38580237458057715,0.2937725154954193,1.5784419966862304,0.0,0.0,0.0,0.0,0.0,0.0,0.0,10.19,1.0,1.0,0.2,0.0,750.9769660593531,974.9203598982721,974.9203598982722
0.32399999999999807,-0.8607231184428401,3.117394714540182,0.024999982234363904,-179.99999578767247,-4.21232706390937e-06,-160.36780119944868,-0.3850586210829974,0.28935055896156775,1.5803120059977063,0.0,0.0,0.0,0.0,0.0,0.0,0.0,10.19,1.0,1.0,0.2,0.0,750.9769660593531,974.9203598982721,974.9203598982722
0.32399999999999807,-0.8607231184428401,3.117394714540182,0.024999982234363904,-179.99999578767247,-4.21232706390937e-06,-160.36780119944868,-0.3812164268853959,0.26650694774938855,1.5894787689562495,0.0,0.0,0.0,0.0,0.0,0.0,0.0,10.19,1.0,1.0,0.2,0.0,750.9769660593531,974.9203598982721,974.9203598982722
0.32800000000000296,-0.8607231184428401,3.117394714540182,0.024999982234363904,-179.99999578767247,-4.21232706390937e-06,-160.36780119944868,-0.38044348552058105,0.2619114559237373,1.5913049000811774,0.0,0.0,0.0,0.0,0.0,0.0,0.0,10.19,1.0,1.0,0.2,0.0,750.9769660593531,974.9203598982721,974.9203598982722
0.32800000000000296,-0.8607231184428401,3.117394714540182,0.024999982234363904,-179.99999578767247,-4.21232706390937e-06,-160.36780119944868,-0.37646826196898703,0.23827692403287154,1.6002555419582551,0.0,0.0,0.0,0.0,0.0,0.0,0.0,10.19,1.0,1.0,0.2,0.0,750.9769660593531,974.9203598982721,974.9203598982722
0.33200000000000074,-0.8607231184428401,3.117394714540182,0.024999982234363904,-179.99999578767247,-4.21232706390937e-06,-160.36780119944868,-0.3756692049377616,0.23352616256197392,1.6020385795936543,0.0,0.0,0.0,0.0,0.0,0.0,0.0,10.19,1.0,1.0,0.2,0.0,750.9769660593531,974.9203598982721,974.9203598982722
0.33200000000000074,-0.8607231184428401,3.117394714540182,0.024999982234363904,-179.99999578767247,-4.21232706390937e-06,-160.36780119944868,-0.3715755346065561,0.209187410102437,1.6107770217584003,0.0,0.0,0.0,0.0,0.0,0.0,0.0,10.19,1.0,1.0,0.2,0.0,750.9769660593531,974.9203598982721,974.9203598982722
0.3359999999999985,-0.8607231184428401,3.117394714540182,0.024999982234363904,-179.99999578767247,-4.21232706390937e-06,-160.36780119944868,-0.37078423466212845,0.20448276807939478,1.61251774995737,0.0,0.0,0.0,0.0,0.0,0.0,0.0,10.19,1.0,1.0,0.2,0.0,750.9769660593531,974.9203598982721,974.9203598982722
0.3359999999999985,-0.8607231184428401,3.117394714540182,0.024999982234363904,-179.99999578767247,-4.21232706390937e-06,-160.36780119944868,-0.3675060699187189,0.18499257132289879,1.6210479065175698,0.0,0.0,0.0,0.0,0.0,0.0,0.0,10.19,1.0,1.0,0.2,0.0,750.9769660593531,974.9203598982721,974.9203598982722
0.3400000000000034,-0.8607231184428401,3.117394714540182,0.024999982234363904,-179.99999578767247,-4.21232706390937e-06,-160.36780119944868,-0.3668760603791673,0.1812468749209666,1.6227471077292328,0.0,0.0,0.0,0.0,0.0,0.0,0.0,10.19,1.0,1.0,0.2,0.0,750.9769660593531,974.9203598982721,974.9203598982722
0.3400000000000034,-0.8607231184428401,3.117394714540182,0.024999982234363904,-179.99999578767247,-4.21232706390937e-06,-160.36780119944868,-0.36435947789553574,0.16628463488756418,1.6310728810270825,0.0,0.0,0.0,0.0,0.0,0.0,0.0,10.19,1.0,1.0,0.2,0.0,750.9769660593531,974.9203598982721,974.9203598982722
0.3440000000000012,-0.8607231184428401,3.117394714540182,0.024999982234363904,-179.99999578767247,-4.21232706390937e-06,-160.36780119944868,-0.3638490842555662,0.1632501100101096,1.6327313352070196,0.0,0.0,0.0,0.0,0.0,0.0,0.0,10.19,1.0,1.0,0.2,0.0,750.9769660593531,974.9203598982721,974.9203598982722
0.3440000000000012,-0.8607231184428401,3.117394714540182,0.024999982234363904,-179.99999578767247,-4.21232706390937e-06,-160.36780119944868,-0.36112276997187803,0.14704091798705615,1.6408566116510424,0.0,0.0,0.0,0.0,0.0,0.0,0.0,10.19,1.0,1.0,0.2,0.0,750.9769660593531,974.9203598982721,974.9203598982722
0.347999999999999,-0.8607231184428401,3.117394714540182,0.024999982234363904,-179.99999578767247,-4.21232706390937e-06,-160.36780119944868,-0.36057104984970256,0.14376068817025509,1.642475095438361,0.0,0.0,0.0,0.0,0.0,0.0,0.0,10.19,1.0,1.0,0.2,0.0,750.9769660593531,974.9203598982721,974.9203598982722
0.347999999999999,-0.8607231184428401,3.117394714540182,0.024999982234363904,-179.99999578767247,-4.21232706390937e-06,-160.36780119944868,-0.3576534513306117,0.12641422341192834,1.6504037416528679,0.0,0.0,0.0,0.0,0.0,0.0,0.0,10.19,1.0,1.0,0.2,0.0,750.9769660593531,974.9203598982721,974.9203598982722
0.35200000000000387,-0.8607231184428401,3.117394714540182,0.024999982234363904,-179.99999578767247,-4.21232706390937e-06,-160.36780119944868,-0.3570950443712547,0.12309423727335972,1.6519830276101568,0.0,0.0,0.0,0.0,0.0,0.0,0.0,10.19,1.0,1.0,0.2,0.0,750.9769660593531,974.9203598982721,974.9203598982722
0.35200000000000387,-0.8607231184428401,3.117394714540182,0.024999982234363904,-179.99999578767247,-4.21232706390937e-06,-160.36780119944868,-0.3549237969289446,0.11018517285164639,1.659718886884557,0.0,0.0,0.0,0.0,0.0,0.0,0.0,10.19,1.0,1.0,0.2,0.0,750.9769660593531,974.9203598982721,974.9203598982722
0.35600000000000165,-0.8607231184428401,3.117394714540182,0.024999982234363904,-179.99999578767247,-4.21232706390937e-06,-160.36780119944868,-0.35448198117765495,0.10755837505569465,1.6612597427972497,0.0,0.0,0.0,0.0,0.0,0.0,0.0,10.19,1.0,1.0,0.2,0.0,750.9769660593531,974.9203598982721,974.9203598982722
0.35600000000000165,-0.8607231184428401,3.117394714540182,0.024999982234363904,-179.99999578767247,-4.21232706390937e-06,-160.36780119944868,-0.35208641336353247,0.09331562287716455,1.6688066318183923,0.0,0.0,0.0,0.0,0.0,0.0,0.0,10.19,1.0,1.0,0.2,0.0,750.9769660593531,974.9203598982721,974.9203598982722
0.35999999999999943,-0.8607231184428401,3.117394714540182,0.024999982234363904,-179.99999578767247,-4.21232706390937e-06,-160.36780119944868,-0.35160037405258104,0.09042589568426505,1.6703098200502238,0.0,0.0,0.0,0.0,0.0,0.0,0.0,10.19,1.0,1.0,0.2,0.0,750.9769660593531,974.9203598982721,974.9203598982722
0.35999999999999943,-0.8607231184428401,3.117394714540182,0.024999982234363904,-179.99999578767247,-4.21232706390937e-06,-160.36780119944868,-0.3489995489544608,0.07496279457151403,1.6776715259017903,0.0,0.0,0.0,0.0,0.0,0.0,0.0,10.19,1.0,1.0,0.2,0.0,750.9769660593531,974.9203598982721,974.9203598982722
0.3639999999999972,-0.8607231184428401,3.117394714540182,0.024999982234363904,-179.99999578767247,-4.21232706390937e-06,-160.36780119944868,-0.34850404796357404,0.07201681334075485,1.6791378028031265,0.0,0.0,0.0,0.0,0.0,0.0,0.0,10.19,1.0,1.0,0.2,0.0,750.9769660593531,974.9203598982721,974.9203598982722
0.3639999999999972,-0.8607231184428401,3.117394714540182,0.024999982234363904,-179.99999578767247,-4.21232706390937e-06,-160.36780119944868,-0.3466361904698365,0.060911541667258526,1.686318080216888,0.0,0.0,0.0,0.0,0.0,0.0,0.0,10.19,1.0,1.0,0.2,0.0,750.9769660593531,974.9203598982721,974.9203598982722
0.3680000000000021,-0.8607231184428401,3.117394714540182,0.024999982234363904,-179.99999578767247,-4.21232706390937e-06,-160.36780119944868,-0.34625462292621656,0.0586429471690728,1.6877481955829612,0.0,0.0,0.0,0.0,0.0,0.0,0.0,10.19,1.0,1.0,0.2,0.0,750.9769660593531,974.9203598982721,974.9203598982722
0.3680000000000021,-0.8607231184428401,3.117394714540182,0.024999982234363904,-179.99999578767247,-4.21232706390937e-06,-160.36780119944868,-0.3441496263105715,0.046127774375160746,1.6947507644274724,0.0,0.0,0.0,0.0,0.0,0.0,0.0,10.19,1.0,1.0,0.2,0.0,750.9769660593531,974.9203598982721,974.9203598982722
0.3719999999999999,-0.8607231184428401,3.117394714540182,0.024999982234363904,-179.99999578767247,-4.21232706390937e-06,-160.36780119944868,-0.3437212895927731,0.04358111563120765,1.6961454610036277,0.0,0.0,0.0,0.0,0.0,0.0,0.0,10.19,1.0,1.0,0.2,0.0,750.9769660593531,974.9203598982721,974.9203598982722
0.3719999999999999,-0.8607231184428401,3.117394714540182,0.024999982234363904,-179.99999578767247,-4.21232706390937e-06,-160.36780119944868,-0.341398757858486,0.0297725965305534,1.7029740039966579,0.0,0.0,0.0,0.0,0.0,0.0,0.0,10.19,1.0,1.0,0.2,0.0,750.9769660593531,974.9203598982721,974.9203598982722
0.37599999999999767,-0.8607231184428401,3.117394714540182,0.024999982234363904,-179.99999578767247,-4.21232706390937e-06,-160.36780119944868,-0.34095852126477216,0.027155187552513838,1.704334017027936,0.0,0.0,0.0,0.0,0.0,0.0,0.0,10.19,1.0,1.0,0.2,0.0,750.9769660593531,974.9203598982721,974.9203598982722
0.37599999999999767,-0.8607231184428401,3.117394714540182,0.024999982234363904,-179.99999578767247,-4.21232706390937e-06,-160.36780119944868,-0.3393571974117761,0.017634580930009976,1.7109921776596215,0.0,0.0,0.0,0.0,0.0,0.0,0.0,10.19,1.0,1.0,0.2,0.0,750.9769660593531,974.9203598982721,974.9203598982722
0.38000000000000256,-0.8607231184428401,3.117394714540182,0.024999982234363904,-179.99999578767247,-4.21232706390937e-06,-160.36780119944868,-0.3390285589593169,0.015680674216487285,1.7123182344820485,0.0,0.0,0.0,0.0,0.0,0.0,0.0,10.19,1.0,1.0,0.2,0.0,750.9769660593531,974.9203598982721,974.9203598982722
0.38000000000000256,-0.8607231184428401,3.117394714540182,0.024999982234363904,-179.99999578767247,-4.21232706390937e-06,-160.36780119944868,-0.3371788325296969,0.004683200056147016,1.7188096151364136,0.0,0.0,0.0,0.0,0.0,0.0,0.0,10.19,1.0,1.0,0.2,0.0,750.9769660593531,974.9203598982721,974.9203598982722
0.38400000000000034,-0.8607231184428401,3.117394714540182,0.024999982234363904,-179.99999578767247,-4.21232706390937e-06,-160.36780119944868,-0.3368011881492331,0.002437930566863028,1.7201024348075706,0.0,0.0,0.0,0.0,0.0,0.0,0.0,10.19,1.0,1.0,0.2,0.0,750.9769660593531,974.9203598982721,974.9203598982722
0.38400000000000034,-0.8607231184428401,3.117394714540182,0.024999982234363904,-179.99999578767247,-4.21232706390937e-06,-160.36780119944868,-0.3347231384917181,-0.009917030170287743,1.7264305950706846,0.0,0.0,0.0,0.0,0.0,0.0,0.0,10.19,1.0,1.0,0.2,0.0,750.9769660593531,974.9203598982721,974.9203598982722
0.3879999999999981,-0.8607231184428401,3.117394714540182,0.024999982234363904,-179.99999578767247,-4.21232706390937e-06,-160.36780119944868,-0.3343314518786716,-0.012245787189137946,1.7276908880372528,0.0,0.0,0.0,0.0,0.0,0.0,0.0,10.19,1.0,1.0,0.2,0.0,750.9769660593531,974.9203598982721,974.9203598982722
0.3879999999999981,-0.8607231184428401,3.117394714540182,0.024999982234363904,-179.99999578767247,-4.21232706390937e-06,-160.36780119944868,-0.3329642772972597,-0.02037426872618358,1.7338593431808926,0.0,0.0,0.0,0.0,0.0,0.0,0.0,10.19,1.0,1.0,0.2,0.0,750.9769660593531,974.9203598982721,974.9203598982722
