Time_s,X,Y,Z,Roll_deg,Pitch_deg,Yaw_deg,Ref_X,Ref_Y,Ref_Z,Ref_Yaw,vx,vy,vz,p,q,r,T_pert,tau_x,tau_y,tau_z,RPM_0,RPM_1,RPM_2,RPM_3
0.0040000000000000036,3.3827230054016896e-22,2.0,0.010006999594037988,-2.096004393768565e-18,1.4202641527917514e-18,1.8284134537641468e-20,1.5271478250114865e-22,2.0,0.010074639714689831,9.401864931293104e-23,6.963764715863389e-20,400.0,2.0013999188075973,0.0,0.0,0.0,0.13727673356390743,2.447572233571506e-18,-3.820779320707456e-18,-1.5066042318395035e-20,539.3555031529193,539.3555031529194,539.3555031529193,539.3555031529194
0.007999999999999993,3.952540555299858e-22,2.0,0.010010999365527828,-4.1692232875920586e-18,8.807414544004454e-19,6.54798512656098e-20,1.5270385281404422e-22,2.0,0.01021705724096241,9.401192046584669e-23,4.501334925896633e-20,222.22222222222223,1.112333262836425,0.0,0.0,0.0,0.28307763549941695,2.5642946195555448e-18,1.8754091198906816e-18,-5.566211366587819e-20,543.293890269062,543.2938902690621,543.293890269062,543.2938902690621
0.011999999999999997,7.402081679312138e-22,2.0,0.010014999143162406,-4.7097378620065475e-18,2.6200457216157935e-18,1.165282981768169e-19,1.5268755694448375e-22,2.0,0.010429397942859043,9.400188793579058e-23,4.9853630805881074e-20,-6.353270466678788e-23,0.0009999434801687829,0.0,0.0,0.0,0.42940122296091865,9.162777576018498e-19,-5.4967189418980595e-18,-6.210095670298278e-20,547.2178993483706,547.2178993483707,547.2178993483706,547.2178993483706
0.016,5.798553775126906e-22,2.0,0.010018998937164,-6.2421267452001525e-18,1.1810898427964475e-18,1.2981151193900569e-19,1.52665959873308e-22,2.0,0.010710815098006973,9.398859172812945e-23,3.0380049972637e-20,-8.7579723712825e-23,0.00099994574487422,0.0,0.0,0.0,0.5762362289606603,2.111483189874972e-18,7.097601646216968e-18,-2.00816481202869e-20,551.1275385726827,551.1275385726829,551.1275385726827,551.1275385726829
0.020000000000000004,3.218281779011143e-22,2.0,0.010022998752888732,-8.507809156624924e-18,3.182071593767286e-19,4.24461125496261e-20,1.5263912599243093e-22,2.0,0.0110604696579496,9.397207148565805e-23,-1.8117857125258075e-20,-1.1457123621174906e-22,0.0009999500064861166,0.0,0.0,0.0,0.7235715214890885,3.0725621857070813e-18,2.193570255424559e-18,9.694614901951415e-20,555.0228183328048,555.022818332805,555.0228183328048,555.022818332805
0.024000000000000007,1.1490783050291357e-22,2.0,0.010026998592234576,-8.737868866427269e-18,-7.675887715596613e-19,1.7027852862626587e-19,1.5260711910958864e-22,2.0,0.011477530186265229,9.395236649152282e-23,-4.0640231039438995e-20,-1.385546946984242e-22,0.0009999554558362891,0.0,0.0,0.0,0.8713960815215802,8.504323479863928e-19,8.626410888137282e-19,-1.508516762298683e-19,558.9037505785221,558.9037505785222,558.9037505785221,558.9037505785221
0.02800000000000001,1.8367005498705274e-22,2.0,0.010030998455083415,-1.0372991579774066e-17,-8.107044430195707e-19,7.382662938849593e-21,1.525700024530525e-22,2.0,0.011961172797154364,9.392951567212351e-23,-9.591962343840035e-21,-1.594128586195984e-22,0.0009999612956791346,0.0,0.0,0.0,1.019699001913165,2.5069019648765266e-18,-2.937960774260447e-18,1.8351546241235606e-19,562.7703487389754,562.7703487389755,562.7703487389754,562.7703487389755
0.032000000000000015,2.9283201892795774e-22,2.0,0.010034998340290584,-1.2054641426377782e-17,-8.631169643427035e-19,-1.4398805369197832e-19,1.525278386763065e-22,2.0,0.012510581094492133,9.39035575999928e-23,4.185946080000399e-21,-1.805845096716974e-22,0.0009999670714624584,0.0,0.0,0.0,1.1684694872873993,2.6730467755515285e-18,-4.116047789603942e-19,1.7674103254983938e-19,566.6226276725292,566.6226276725292,566.6226276725292,566.6226276725292
0.03599999999999999,3.1488245560494135e-22,2.0,0.010038998246023981,-1.1913865394253626e-17,-1.0236661707567149e-18,5.594323415175423e-20,1.5248068986268912e-22,2.0,0.013124946111342442,9.387453049665406e-23,1.4945476258107732e-20,-1.9982335802761536e-22,0.0009999725250982652,0.0,0.0,0.0,1.3176968543490384,6.59936242548653e-19,1.1695578337768911e-18,-2.274197577629708e-19,570.4606036300818,570.4606036300819,570.4606036300818,570.4606036300819
0.039999999999999994,4.89443305621389e-22,2.0,0.010042998170290657,-1.2098941520753451e-17,-9.387061571981509e-19,2.0528617681354023e-19,1.5242861753000008e-22,2.0,0.013803466249930544,9.384247223545751e-23,2.795553297670291e-20,-2.0863476515887525e-22,0.0009999775305904665,0.0,0.0,0.0,1.467370530524548,1.0308177655907792e-18,-1.826481036092151e-18,-1.7653466428399213e-19,574.2842941777939,574.2842941777939,574.2842941777939,574.2842941777939
0.044,6.543240795361972e-22,2.0,0.010046998111132013,-1.2332927068668096e-17,-9.23461301577875e-19,4.140151221326837e-19,1.5237168263507224e-22,2.0,0.014545347222070591,9.380742034439484e-23,3.657030828023241e-20,-2.1224520693209815e-22,0.0009999820423899075,0.0,0.0,0.0,1.617480053657299,1.1005868260197934e-18,1.0956238054217805e-20,-2.5203968368325397e-19,578.0937181500618,578.0937181500619,578.0937181500618,578.0937181500618
0.048,7.57502121462321e-22,2.0,0.010050998066706293,-1.2213458518174206e-17,-1.1722813362247782e-18,2.7786428034638313e-19,1.5230994557830867e-22,2.0,0.015349801990044964,9.376941200889251e-23,3.5643771775387446e-20,-2.14315621633952e-22,0.000999986074998356,0.0,0.0,0.0,1.7680150712769984,7.038475114828483e-19,9.308490022385157e-19,1.4226308092218016e-19,581.888895594111,581.8888955941111,581.888895594111,581.8888955941111
0.052000000000000005,3.643008165187177e-14,1.9999999999999636,0.010054998035421439,3.9810799521472745e-11,3.9810811103658564e-11,4.2942475173674e-12,1.5224346620818545e-22,2.0,0.016216050707932004,9.37284840745839e-23,3.6428208588992005e-12,-3.641344265280196e-12,0.0009999896672186273,0.0,0.0,0.0,1.918965339549307,-4.70833902835145e-10,-4.710059667907458e-10,-5.0163598355879075e-12,585.6698478555974,585.6698475784737,585.6698477014046,585.669847701354
0.05600000000000001,9.624438555308165e-14,1.9999999999999036,0.010058998015732436,8.550555143978935e-11,8.55055629833411e-11,5.701393013623569e-12,1.521723038257202e-22,2.0,0.01714332066337891,9.36846730500603e-23,9.623730585286247e-12,-9.636027950122489e-12,0.000999992855540803,0.0,0.0,0.0,2.070320723014336,-3.60899030157503e-10,-3.591342832818698e-10,-1.820104072902199e-12,589.436596916277,589.4365967057709,589.4365968051217,589.4365968056377
0.06000000000000001,1.4640285210832227e-13,1.9999999999998535,0.010062998006252264,1.2382378818513856e-10,1.2382379980264788e-10,6.8960939049349125e-12,1.520965171889068e-22,2.0,0.018130846219816574,9.363801510960119e-23,1.4396114568632967e-11,-1.44092346933842e-11,0.0009999956745748717,0.0,0.0,0.0,2.222071193025908,1.2603897360999793e-11,1.1389390080460881e-11,-1.6297171027122101e-12,593.1891662479402,593.1891662549106,593.1891662465798,593.189166246227
0.06400000000000002,-2.6933478324823195e-11,2.0000000000269336,0.010067188894014532,2.640419268209079e-06,2.6404325349278753e-06,1.0745255798683706e-07,1.5201616451711636e-22,2.0,0.01917786875911307,9.358854609588364e-23,-2.7070595321700994e-09,2.7070771572615097e-09,0.001019086980867126,0.0,0.0,0.0,2.3738194161917945,-2.767062283746819e-06,-2.7670807653824e-06,-1.255138066327569e-07,596.9190813205948,596.9174836572008,596.9178981429525,596.917898137617
0.06799999999999999,-1.737792827530087e-10,2.0000000001737748,0.010074766507850734,1.742478431832609e-05,1.7425232214567084e-05,7.094887957725566e-07,1.519313034954648e-22,2.0,0.020283636624662676,9.353630152267125e-23,-1.7555444879329457e-08,1.7555003440733217e-08,0.0013768498043425987,0.0,0.0,0.0,2.5194509108735326,-1.602645777256602e-05,-1.6026910083824205e-05,-7.076858734407624e-07,600.4806090967212,600.4714103684263,600.473855571517,600.4738554417116
0.072,-3.938630589673125e-10,2.000000000393843,0.010090912454354551,4.3052638197264235e-05,4.305467572566218e-05,1.7491929727782607e-06,1.5184199127914722e-22,2.0,0.021447405064907207,9.348131657748258e-23,-4.05298964955546e-08,4.052786682691222e-08,0.00259144493782118,0.0,0.0,0.0,2.6548239041444597,-3.0141270527211054e-05,-3.0143028065203623e-05,-1.2436727800673213e-06,603.772919813465,603.7557135505454,603.7605517841214,603.7605512824842
0.076,-5.972962162783565e-10,2.0000000005972476,0.010120428434129107,7.748821899992918e-05,7.749363687518816e-05,3.1391037921106936e-06,1.5174828449773939e-22,2.0,0.022668436177286467,9.34236261242394e-23,-5.549386161861425e-08,5.548886835687191e-08,0.0050203683741683715,0.0,0.0,0.0,2.78053459615991,-4.316343512113763e-05,-4.316735288655235e-05,-1.6954631156646035e-06,606.8141517826906,606.7896347129441,606.7967866157213,606.7967855031062
0.08,-6.637842905227964e-10,2.0000000006636975,0.010167625032063362,0.00011883358608245334,0.00011884469501512049,4.798800183628374e-06,1.5165023925946655e-22,2.0,0.02394599885261479,9.336326470589466e-23,-5.103904006222804e-08,5.103042315961162e-08,0.00861685394393658,0.0,0.0,0.0,2.8974170831378045,-5.500050790864438e-05,-5.500739058426023e-05,-2.0676895360510217e-06,609.6280502406122,609.5969531479196,609.6063029917656,609.6063010461473
0.084,-4.463604717770788e-10,2.0000000004462377,0.01023648198472382,0.00016525127398666684,0.00016527077385137593,6.657144006497485e-06,1.5154791115543964e-22,2.0,0.02527936871988048,9.330026654704065e-23,-2.2787248539895052e-08,2.2775377815884503e-08,0.01327594798057424,0.0,0.0,0.0,3.005995936374621,-6.557620071753241e-05,-6.558675084416308e-05,-2.3678936226341e-06,612.2302684235216,612.193348630001,612.2047404080823,612.2047374383947
0.08800000000000001,2.2295683540567438e-10,1.9999999997769091,0.010330620780967472,0.00021501020784388866,0.00021504105353870715,8.652310525506444e-06,1.5144135526385945e-22,2.0,0.02666782809146507,9.32346655564972e-23,3.2454384850814086e-08,-3.2467918568002325e-08,0.018906146872939816,0.0,0.0,0.0,3.106861966414253,-7.484669985967524e-05,-7.486153922890246e-05,-2.6040337449254843e-06,614.6375501621716,614.5955751116732,614.6088205602351,614.6088163995348
0.09200000000000001,1.5276507899400244e-09,1.999999998472263,0.010453336314829908,0.00026649363913204804,0.00026653890540881913,1.0730597459486889e-05,1.5133062615418873e-22,2.0,0.02811066590877935,9.316649532988023e-23,1.1685907384376532e-07,-1.1687126522876446e-07,0.02542247556615193,0.0,0.0,0.0,3.200553249497073,-8.278197588957255e-05,-8.280160222086772e-05,-2.7830594910725914e-06,616.8649344023846,616.8186757210673,616.8335611464722,616.8335556634386
0.09600000000000002,3.6614255347997353e-09,1.999999996338641,0.010607655697339971,0.00031819052385419666,0.00031825326465894586,1.2844893032014915e-05,1.512157778912925e-22,2.0,0.029607177688313144,9.309578915215078e-23,2.317992811675458e-07,-2.3180571078560062e-07,0.032747770128860244,0.0,0.0,0.0,3.2874989994676165,-8.934806115000705e-05,-8.937282458057812e-05,-2.910464424295735e-06,618.924502470158,618.8747396624639,618.8910290566333,618.8910221614406
0.10000000000000002,6.822602349583375e-09,1.9999999931777819,0.010796352734214261,0.00036870614654576625,0.0003687892629093863,1.4956311366323624e-05,1.5109686403954694e-22,2.0,0.031156665468095753,9.302258000014462e-23,3.7803773113540175e-07,-3.780325486841448e-07,0.040814038657647586,0.0,0.0,0.0,3.368107669979211,-9.452256053570042e-05,-9.455269278935615e-05,-2.9939231350106447e-06,620.8275499846077,620.7750653893441,620.7924970594582,620.7924886950555
0.104,1.1208095271605405e-08,1.999999988792843,0.011021907977343343,0.00041679623563598396,0.00041690237331603794,1.7031854092421187e-05,1.509739376669169e-22,2.0,0.03275843775456411,9.294690054508253e-23,5.558271400756211e-07,-5.558030204912409e-07,0.04955445627086542,0.0,0.0,0.0,3.44287695200919,-9.832143379168084e-05,-9.835702187021355e-05,-3.0387163828878038e-06,622.5872134845126,622.5327725758244,622.5510765710173,622.5510667200397
0.108,1.700886419380169e-08,1.9999999829929478,0.011286581899370771,0.0004613468962668932,0.00046147833962848145,1.904352149175352e-05,1.5084705134900242e-22,2.0,0.034411809469835686,9.286878315506155e-23,7.650164100530915e-07,-7.649647006207348e-07,0.05890358207251121,0.0,0.0,0.0,3.512165462511412,-0.00010075968817338238,-0.00010080068954081725,-3.0493283639830514e-06,624.2131170086737,624.1574700522141,624.1763699858785,624.1763586660251
0.112,2.4405971610817393e-08,1.9999999755971283,0.011592496512139349,0.0005013525433132769,0.000501511098009771,2.0968529690099918e-05,1.5071625717305436e-22,2.0,0.03611610189938309,9.278825989752725e-23,1.005206334643094e-06,-1.005116949484303e-06,0.06881164750306443,0.0,0.0,0.0,3.576173274796958,-0.0001018387001525485,-0.0001018849163892581,-3.030702250712597e-06,625.7109864189546,625.6548768601143,625.6740845987761,625.67407186972
0.116,3.356555829829253e-08,1.9999999664393464,0.011941583260980682,0.0005359443843296178,0.0005361313014301853,2.2788601128468698e-05,1.5058160674195944e-22,2.0,0.03787064264010755,9.270536254172705e-23,1.2757804419135231e-06,-1.2756419587351912e-06,0.07923671913470667,0.0,0.0,0.0,3.6352107117525385,-0.00010158459115689866,-0.00010163567527445759,-2.987166552653713e-06,627.0889887396835,627.0331408244992,627.0523647569378,627.0523507180767
0.12000000000000001,4.463524514607288e-08,1.9999999553720906,0.012335622362807951,0.0005643822562114202,0.0005645981629081537,2.448915222410672e-05,1.5044315117819496e-22,2.0,0.03967476554880828,9.262012256114495e-23,1.5759133755133356e-06,-1.575713059577555e-06,0.09013617329078202,0.0,0.0,0.0,3.689514420128324,-0.00010003560146630223,-0.00010009107806424394,-2.9222858827921937e-06,628.3534352443428,628.2985482121104,628.3174985484482,628.3174833331506
0.12400000000000001,5.7740361874673855e-08,1.9999999422701455,0.012776218320132704,0.000586058249646159,0.0005863031156486474,2.6059138135448622e-05,1.503009411277532e-22,2.0,0.04152781069104484,9.253257113591762e-23,1.9046069029099518e-06,-1.9043306809435734e-06,0.10146917610006637,0.0,0.0,0.0,3.7393756482934783,-9.723782676556521e-05,-9.72971261258507e-05,-2.8395952015786965e-06,629.5117931069826,629.4585379181688,629.4769285798108,629.4769123460186
0.128,7.2981372593757e-08,1.999999927033163,0.013264844752605786,0.0006004930502654325,0.0006007661567573292,2.7490554454196693e-05,1.5015502676403618e-22,2.0,0.04342912429038968,9.244273915523214e-23,2.2607027511898257e-06,-2.260335192763084e-06,0.11319644537551363,0.0,0.0,0.0,3.7850003456493138,-9.325276205111459e-05,-9.331519908591568e-05,-2.7421926791165352e-06,630.569444059039,630.5184556469472,630.5360094976164,630.5359924335645
0.132,9.04315602591409e-08,1.9999999095879744,0.013802867377656873,0.0006073411522971253,0.0006076410741365688,2.877856318076845e-05,1.5000545779172025e-22,2.0,0.04537805867806793,9.23506572197053e-23,2.6428736645846356e-06,-2.6423980642482955e-06,0.12528616727827263,0.0,0.0,0.0,3.8265520799479695,-8.815742611627972e-05,-8.822221344843733e-05,-2.6334484947262164e-06,631.5307071777219,631.4825766844376,631.4990287072707,631.4990110278837
0.136,1.1013514032005954e-07,1.9999998898904752,0.014391545618626472,0.0006063846279816588,0.000606709237822046,2.991978368569712e-05,1.498522834505916e-22,2.0,0.047373972242981614,9.225635564374486e-23,3.049608635333018e-06,-3.049007055144326e-06,0.13771051650667324,0.0,0.0,0.0,3.864194680190119,-8.20335160760654e-05,-8.209980105015207e-05,-2.514866423325249e-06,632.3998344837191,632.3551074453655,632.3702111317485,632.3701930685991
0.14,1.3210580508918967e-07,1.999999867927077,0.01503201342500468,0.0005975156620494791,0.0005978621629490914,3.091312968219906e-05,1.4969555251935228e-22,2.0,0.0494162293821156,9.215986445789277e-23,3.4792256846304895e-06,-3.4784789091961007e-06,0.1504414543502408,0.0,0.0,0.0,3.898134374361163,-7.49542507785129e-05,-7.502112622999709e-05,-2.3889878004469227e-06,633.1819914932795,633.1411731671587,633.1546949079452,633.1546767064659
0.14400000000000002,1.5632600983258116e-07,1.999999843715418,0.01572531002641155,0.000580745032336805,0.0005811099977058638,3.175923307610045e-05,1.4953531331939713e-22,2.0,0.05150420045132223,9.206121341115043e-23,3.929860975931303e-06,-3.928948691155082e-06,0.16345086396429515,0.0,0.0,0.0,3.928519059219239,-6.701741382055421e-05,-6.708393199271755e-05,-2.2577751403261067e-06,633.8809412373204,633.844483667498,633.8562109188551,633.8561928346533
0.14800000000000002,1.827466659476335e-07,1.9999998173046682,0.01647238200385514,0.0005561908021109295,0.0005565702314885893,3.245970735498288e-05,1.4937161371856195e-22,2.0,0.05363726171648213,9.196043197328619e-23,4.399429023601815e-06,-4.3983299685705345e-06,0.17671432619853764,0.0,0.0,0.0,3.9554955315576303,-5.831952728945851e-05,-5.838472963180292e-05,-2.1224010337571272e-06,634.5003695959733,634.4686727936954,634.4784157934641,634.4783980843787
0.15200000000000002,2.112873303550113e-07,1.999999788775337,0.017274082299526303,0.0005240624985757469,0.0005244518866840544,3.301798305708871e-05,1.4920450113484293e-22,2.0,0.055814795305038314,9.185754933712528e-23,4.885634291582271e-06,-4.8843262901035e-06,0.19020855916011523,0.0,0.0,0.0,3.979215635061384,-4.895119271592106e-05,-4.9014124041798583e-05,-1.9850543382339878e-06,635.0440333164042,635.0174488846181,635.0250359293206,635.0250188517604
0.15600000000000003,2.418366497997618e-07,1.999999758238826,0.018131200285831747,0.0004846914546603336,0.0004850858741486896,3.343808582159796e-05,1.4903402254008768e-22,2.0,0.05803618915790085,9.175259442082217e-23,5.385898073454167e-06,-5.384358306958872e-06,0.20391307224973607,0.0,0.0,0.0,3.999773256245189,-3.904751480464843e-05,-3.910723925733773e-05,-1.8465710946946473e-06,635.5143248858993,635.4931321472465,635.4984254260892,635.4984092308454
0.16000000000000003,2.742536020840877e-07,1.9999997258361875,0.01904444459736257,0.00043848593199645653,0.00043888012323589864,3.372535492067175e-05,1.4886022446365804e-22,2.0,0.06030083698171934,9.164559587011554e-23,5.897359238747637e-06,-5.895564533157093e-06,0.21780922045066445,0.0,0.0,0.0,4.017299233786665,-2.8708855691800196e-05,-2.8764481342165366e-05,-1.7086511398847115e-06,635.9144452700285,635.8988704575445,635.9017539856835,635.9017389114629
0.16400000000000003,3.0836861857218025e-07,1.9999996917369982,0.02001446797679765,0.000385973790949358,0.00038636227423663553,3.388586873088274e-05,1.4868315299606487e-22,2.0,0.06260813820152067,9.153658206056608e-23,6.4168060614099444e-06,-6.414733149460413e-06,0.2318799345052724,0.0,0.0,0.0,4.03187663741296,-1.8090018086350808e-05,-1.8140720774383808e-05,-1.5723771123278284e-06,636.2464794723078,636.2366664015071,636.2370624552798,636.237048722394
0.16800000000000004,3.4398570408120254e-07,1.99999965613724,0.021041858124664716,0.00032776389107593793,0.0003281410800123642,3.392608765317441e-05,1.4850285379257496e-22,2.0,0.06495749791370913,9.142558109977703e-23,6.940663243341482e-06,-6.9382892606004326e-06,0.24610937808897854,0.0,0.0,0.0,4.043608971051972,-7.321155203670425e-06,-7.366203257006993e-06,-1.438444874600629e-06,636.5129480437521,636.5089716663869,636.5068351206785,636.5068229245289
0.17200000000000004,3.808848698271775e-07,1.9999996192568652,0.02212713837048484,0.00026452558346610474,0.0002648858977018715,3.385237482789217e-05,1.483193720767904e-22,2.0,0.06734832683942643,9.131262082959785e-23,7.465024659429564e-06,-7.462327520297855e-06,0.2604817695263629,0.0,0.0,0.0,4.052600531384091,3.4808510523971753e-06,3.4420934637979518e-06,-1.3070060957968548e-06,636.7163603652411,636.718234039056,636.7135502871877,636.7135397975027
0.17600000000000005,4.188247283510711e-07,1.9999995813372018,0.023270770729440567,0.0001969829729975802,0.00019732095492726328,3.367260870652763e-05,1.481327526442005e-22,2.0,0.06978004127826891,9.119772882831096e-23,7.985730869866192e-06,-7.982689868163703e-06,0.27498127550755064,0.0,0.0,0.0,4.058951544505836,1.4198029784435194e-05,1.4166087420059926e-05,-1.180092189970114e-06,636.8591129085769,636.8667878146895,636.8595676552274,636.8595590120551
0.18000000000000005,4.575449174398427e-07,1.9999995426385304,0.024473168224028553,0.00012595440391006122,0.00012626486260216738,3.3393829908378046e-05,1.4794303986570646e-22,2.0,0.07225206306235926,9.108093241280168e-23,8.498230439878121e-06,-8.494826658637844e-06,0.2895936057270622,0.0,0.0,0.0,4.062739264561955,2.4662645413718382e-05,2.4637869943526187e-05,-1.0570479512019024e-06,636.9430644507917,636.9564026157282,636.9467034495282,636.9466967465378
0.18400000000000005,4.967700624012036e-07,1.999999503436122,0.025734685665968378,5.22678127371749e-05,5.254592402392269e-05,3.302340257603659e-05,1.4775027769111919e-22,2.0,0.07476381951077028,9.096225864071167e-23,8.997653710078153e-06,-8.993870776078722e-06,0.3043052487094846,0.0,0.0,0.0,4.064061295681444,3.477960922756345e-05,3.476223999716939e-05,-9.385404163453769e-07,636.9705055460437,636.9893190757268,636.9772214757935,636.9772167767826
0.188,5.362128783026007e-07,1.9999994640171375,0.027055626226422252,-2.3219287229741116e-05,-2.2977869116820654e-05,3.256870475436862e-05,1.475545096526301e-22,2.0,0.07731474338429795,9.084173431257566e-23,9.478927925404998e-06,-9.474752571071854e-06,0.3191025791215035,0.0,0.0,0.0,4.063003842711434,4.443676754948024e-05,4.44268839573727e-05,-8.248882208451897e-07,636.9434533282398,636.9674950111638,636.9531084144279,636.9531057404542
0.192,5.755777725786447e-07,1.9999994246770263,0.028436243832960954,-9.96388863855638e-05,-9.943793128208448e-05,3.203665704019643e-05,1.4735577886825537e-22,2.0,0.07990427284058148,9.071938597394203e-23,9.936814125043923e-06,-9.932236875630312e-06,0.3339726998582323,0.0,0.0,0.0,4.05964997094614,5.353394494862551e-05,5.353148553427501e-05,-7.158599593153179e-07,636.8638348174762,636.8928044233733,636.8762655453863,636.8762648799195
0.196,6.145646442578576e-07,1.9999993857157317,0.029876745973927532,-0.00017614371019969107,-0.00017598634189787068,3.143417752407241e-05,1.4715412804525387e-22,2.0,0.08253185138956735,9.059523991747694e-23,1.0365994700490852e-05,-1.036101026359694e-05,0.34890348962843964,0.0,0.0,0.0,4.0540787023810205,6.200157863614744e-05,6.200632567262566e-05,-6.117368860119617e-07,636.7334642549708,636.7670248793678,636.7484880618323,636.7484893465403
0.2,6.528718562118089e-07,1.9999993474347177,0.031377293860888375,-0.00025186132387640945,-0.0002517499181629096,3.076909130129304e-05,1.4694959948351878e-22,2.0,0.08519692784931537,9.046932218505241e-23,1.0761069923048868e-05,-1.0755677873894888e-05,0.3638832492694155,0.0,0.0,0.0,4.046370287600512,6.972442320259002e-05,6.973601504171172e-05,-5.138626049609375e-07,636.5541870470772,636.591940141355,636.571586773803,636.5715899118171
0.20400000000000001,6.90199726422186e-07,1.9999993101334834,0.03293800265650286,-0.000325893537398725,-0.0003258296207356968,3.004812836721506e-05,1.467422350789431e-22,2.0,0.08789895630214384,9.034165856981831e-23,1.1116417797383056e-05,-1.1110623221238881e-05,0.3789004591388112,0.0,0.0,0.0,4.036606067316903,7.657639920938e-05,7.659426135919273e-05,-4.2127918985839854e-07,636.3278638022289,636.3693429929616,636.3473912080043,636.3473960451508
0.20800000000000002,7.262548628827327e-07,1.9999992741052297,0.034558948483109676,-0.0003973899826549669,-0.00039737419858491536,2.9277970661890177e-05,1.4653207632675947e-22,2.0,0.09063739605111149,9.02122746182585e-23,1.1426325097014007e-05,-1.1420139243175635e-05,0.39394422920157696,0.0,0.0,0.0,4.02485470302138,8.250282929218126e-05,8.252627261463164e-05,-3.342068597753292e-07,636.0560379088498,636.1007473949305,636.0774294645478,636.0774358157942
0.21200000000000002,7.607535295883638e-07,1.9999992396334991,0.03624016896490038,-0.0004655390269952997,-0.0004655711044849007,2.846473688263845e-05,1.463191643248543e-22,2.0,0.09341171157683369,9.008119563223116e-23,1.168522317516688e-05,-1.1678663750478565e-05,0.4090046521013687,0.0,0.0,0.0,4.01118507671989,8.74493822238497e-05,8.747756634242289e-05,-2.522620400964028e-07,635.7402495149329,635.7876639523666,635.763228076454,635.7632357158467
0.21600000000000003,7.934251221296831e-07,1.9999992069887023,0.03798166931813552,-0.0005295893511498145,-0.0005296681030741872,2.7614356946320212e-05,1.461035397770563e-22,2.0,0.09622137249463045,8.994844667099338e-23,1.1887821259608987e-05,-1.1880912682712917e-05,0.42407265303705605,0.0,0.0,0.0,3.995655013277608,9.13853913039045e-05,9.14173904506393e-05,-1.7547545879456473e-07,635.3817721942506,635.4313492680956,635.4060520817118,635.4060607600553
0.22000000000000003,8.240151123501081e-07,1.9999991764251777,0.03978341798875282,-0.000588835021045811,-0.0005889583396176967,2.6732606030779536e-05,1.458852429963999e-22,2.0,0.09906585351200384,8.981405255321031e-23,1.202912492189246e-05,-1.2021898421456837e-05,0.43913949237339855,0.0,0.0,0.0,3.978332299464153,9.427010154355014e-05,9.430487099096498e-05,-1.039098576984793e-07,634.9821058033559,635.0332804498059,635.0073898169932,635.0073992525773
0.22400000000000003,8.522879810005818e-07,1.9999991481782624,0.04164534508562256,-0.0006426201320444187,-0.0006427849989196311,2.582525776643506e-05,1.4566431390836349e-22,2.0,0.10194463438644231,8.967803785894871e-23,1.210445451633547e-05,-1.2096948293190674e-05,0.45419599778622466,0.0,0.0,0.0,3.9592891486833075,9.606882542317931e-05,9.610523015867264e-05,-3.780057655714318e-08,634.5428463619969,634.5950337702081,634.5688267743094,634.5688366604988
0.22800000000000004,8.78029967403144e-07,1.9999991224615463,0.04356733716511624,-0.0006903415549325812,-0.0006905440646114455,2.4897740778591557e-05,1.4544079205408282e-22,2.0,0.10485719988354962,8.954042693165533e-23,1.2109451854746406e-05,-1.2101711073879867e-05,0.469232134970092,0.0,0.0,0.0,3.9386096554752044,9.675303834776725e-05,9.678985910211346e-05,2.3018321313727558e-08,634.0658584313144,634.1184570865628,634.0922196554915,634.0922296621723
0.23200000000000004,9.010516079899668e-07,1.9999990994643377,0.04554924767783874,-0.0007314696403054684,-0.0007317050551258049,2.395508975123318e-05,1.4521471659353956e-22,2.0,0.10780303973549583,8.940124388011993e-23,1.2040193203055866e-05,-1.2032269733254527e-05,0.48423821549076757,0.0,0.0,0.0,3.916358174671874,9.632198696334696e-05,9.635794975887528e-05,7.878410484637939e-08,633.5525419693355,633.6049485325769,633.57896819563,633.5789779770626
0.23600000000000004,9.211899133078821e-07,1.999999079349489,0.04759089888785489,-0.0007655547922213197,-0.0007658176161113199,2.3002016818276224e-05,1.4498612630872546e-22,2.0,0.11078164859978822,8.926051258042327e-23,1.1893319994346697e-05,-1.1885272071796457e-05,0.4992057451979169,0.0,0.0,0.0,3.8925962945607244,9.478947899082178e-05,9.482329829528014e-05,1.2966682319903573e-07,633.0042272769196,633.0558443134923,633.0304061334095,633.0304153398105
0.24000000000000005,9.383101387544164e-07,1.99999906225163,0.04969208636622263,-0.0007922307180995536,-0.000792514785250597,2.2042732305363576e-05,1.4475505960678203e-22,2.0,0.1137925260183595,8.911825667787008e-23,1.1666148567606954e-05,-1.1658040149467666e-05,0.5141273339484294,0.0,0.0,0.0,3.8673775505795867,9.218128567808072e-05,9.221166823017871e-05,1.7605917240383854e-07,632.4220535349069,632.472295873896,632.4476799065959,632.4476881850536
0.24400000000000005,9.523071607105695e-07,1.9999990482757937,0.051852585350499664,-0.0008112159465112018,-0.0008115145222639921,2.1081354669153225e-05,1.4452155452311606e-22,2.0,0.11683517637697126,8.897449958890712e-23,1.135672443839605e-05,-1.1348624406162861e-05,0.5289967340724421,0.0,0.0,0.0,3.8407434945074304,8.853349221003979e-05,8.855916975119356e-05,2.1789558044280153e-07,631.8068790550196,631.8551793074404,631.8316565124024,631.831663515688
0.24800000000000005,9.63106982519971e-07,1.9999990374959136,0.054072129401863595,-0.000822324926235221,-0.000822630834040608,2.012172514953992e-05,1.4428564872449125e-22,2.0,0.11990910886493011,8.882926450302652e-23,1.0963907897107373e-05,-1.0955889140427235e-05,0.5438065919922718,0.0,0.0,0.0,3.81277971362221,8.389800204320651e-05,8.39177694657662e-05,2.5533076324822884e-07,631.1605757710691,631.2063928009146,631.1842214321789,631.1842268290706
0.25200000000000006,9.706672165196778e-07,1.999999029954343,0.05635042454672947,-0.0008254644514692297,-0.0008257702046956821,1.9167334083781382e-05,1.4404737951209587e-22,2.0,0.12301383743511432,8.868257438465437e-23,1.0487446414136346e-05,-1.047958458501246e-05,0.5585486658009665,0.0,0.0,0.0,3.7835444942414442,7.833948357075814e-05,7.835221226827916e-05,2.886168969172799e-07,630.4843816906131,630.5272076088158,630.5066299965504,630.5066334754677
0.256,9.749773775570093e-07,1.9999990256615625,0.05868715140087976,-0.0008206336080198866,-0.0008209315506303203,1.8221376398751123e-05,1.438067838245868e-22,2.0,0.1261488807643086,8.853445197502484e-23,9.928019879649099e-06,-9.920392219877797e-06,0.5732156873135305,0.0,0.0,0.0,3.7530927600778288,7.193032216802283e-05,7.193500056647016e-05,3.179557430123753e-07,629.7794556447768,629.8188200638931,629.800060334306,629.8000616144071
0.26,9.76058690328115e-07,1.9999990245963735,0.061081970431360384,-0.0008079175951583957,-0.0008082000424921064,1.7286654748491807e-05,1.4356389824111014e-22,2.0,0.1293137622138451,8.838491979403976e-23,9.287247330534562e-06,-9.27993116997869e-06,0.5878017948492564,0.0,0.0,0.0,3.7214696358546897,6.474712623840338e-05,6.474284981507937e-05,3.436743442513403e-07,629.0467284972405,629.0822009143221,629.0654641627419,629.0654629912626
0.264,9.73963339844913e-07,1.9999990267066479,0.06353453411432176,-0.0007874712851338465,-0.0007877306496269364,1.6365732795080086e-05,1.4331875898429852e-22,2.0,0.13250800979054747,8.823400014211393e-23,8.567623314055697e-06,-8.560694644773534e-06,0.6023029158063441,0.0,0.0,0.0,3.6886962835915638,5.6859502005232826e-05,5.684549175759074e-05,3.659367950484714e-07,628.28657614355,628.3177622217971,628.3032358971097,628.3032320544999
0.268,9.687743165891876e-07,1.9999990319094822,0.066044466082554,-0.0007595432702808897,-0.0007597722223815316,1.5461041822206366e-05,1.4307140192324522e-22,2.0,0.13573115610797692,8.808171510200608e-23,7.77253535585446e-06,-7.766067334157936e-06,0.6167145868143915,0.0,0.0,0.0,3.654836509406149,4.83632832141538e-05,4.8338934924295585e-05,3.8479246207721465e-07,627.5003593431915,627.5269153671676,627.5147617009135,627.5147550144835
0.272,9.60604687836284e-07,1.9999990400919267,0.06861134894253243,-0.0007244918028306515,-0.0007246834568378167,1.457474488363712e-05,1.428218625764553e-22,2.0,0.13898273834797734,8.792808654063585e-23,6.9064402277511335e-06,-6.9005013365765686e-06,0.6310292491506229,0.0,0.0,0.0,3.6199798328502784,3.938584115076374e-05,3.9350756058375765e-05,4.004548439717788e-07,626.6900333619964,626.7116837725744,626.7020314822738,626.7020218348512
0.276,9.495955343424057e-07,1.9999990511130459,0.0712347440249886,-0.000682754650744359,-0.0006829027158229392,1.3708734016011292e-05,1.4257017611477414e-22,2.0,0.14226229822251724,8.777313611088661e-23,5.9749275085474285e-06,-5.969579637811111e-06,0.64523894253514,0.0,0.0,0.0,3.58417706522987,3.0042666202773172e-05,2.999665527435783e-05,4.13151709644737e-07,625.8566595328165,625.8731907543818,625.8661381723952,625.8661255037745
0.28,9.359143142226746e-07,1.9999990648055512,0.07391418365120062,-0.0006348573120487723,-0.0006349562527702915,1.2864732896562582e-05,1.4231637736429301e-22,2.0,0.14556938193582664,8.761688525339437e-23,4.984648396079695e-06,-4.979944973230178e-06,0.6593368020183203,0.0,0.0,0.0,3.547495459270202,2.0460713594524715e-05,2.0403831394809007e-05,4.230020363911563e-07,625.0016838702587,625.0129509495391,625.0085623806372,625.0085466972378
0.28400000000000003,9.197524778565107e-07,1.9999990809781854,0.07664917808209605,-0.000581396799223978,-0.0005814419764461568,1.2044130684648535e-05,1.4206050080923254e-22,2.0,0.14890354014682664,8.745935519832291e-23,3.943264457219689e-06,-3.9392486010439745e-06,0.673316744125324,0.0,0.0,0.0,3.5099891561671726,1.0763839565736894e-05,1.0696349181977726e-05,4.303258142537128e-07,624.1262513493065,624.1321766283902,624.1304836063513,624.1304649719135
0.28800000000000003,9.013223655075784e-07,1.9999990994188188,0.0794392381535864,-0.0005229999177836838,-0.0005229876750990718,1.1248142798814314e-05,1.4180258059480366e-22,2.0,0.15226432793184935,8.730056696712517e-23,2.8592201821028364e-06,-2.855923089409983e-06,0.6871748511720426,0.0,0.0,0.0,3.471667128094062,1.042111133375534e-06,9.644785456251504e-07,4.352689566213809e-07,623.2304611249814,623.2310159544168,623.2320258805414,623.232004414889
0.29200000000000004,8.808551090529527e-07,1.9999991198965454,0.08228385717980058,-0.0004603448512926088,-0.0004602726205395704,1.0477785408809577e-05,1.4154265053004652e-22,2.0,0.15565130474764624,8.714054137429098e-23,1.7415503462094095e-06,-1.738989973123294e-06,0.7009090496269417,0.0,0.0,0.0,3.4325751225008307,-8.596486792686364e-06,-8.683586482481447e-06,4.38014308597862e-07,622.3152699977425,622.3104849466818,622.3141760908416,622.3141519719854
0.29600000000000004,8.585977016941903e-07,1.9999991421646075,0.08518251736110277,-0.0003941442940511295,-0.0003940106754575393,9.73387441809904e-06,1.4128074409064738e-22,2.0,0.15906403439468267,8.697929902908133e-23,5.998527952174345e-07,-5.98032750086351e-07,0.7145161163993257,0.0,0.0,0.0,3.3927465056388755,-1.8048941328231347e-05,-1.8144620442250813e-05,4.3875408567212893e-07,621.3813485374409,621.3713110179242,621.3776337351036,621.3776072005784
0.30000000000000004,8.348097648741893e-07,1.999999165963625,0.08813470490737715,-0.00032511567608108126,-0.000324920478055938,9.017059935674235e-06,1.4101689442173376e-22,2.0,0.16250208498071644,8.681686033724915e-23,-5.558824873596562e-07,5.569739348078909e-07,0.7279944765327967,0.0,0.0,0.0,3.352184369974427,-2.7238851363540002e-05,-2.734206099868401e-05,4.376484583840997e-07,620.4286635652104,620.4135033967315,620.4223872604894,620.4223585934676
0.30400000000000005,8.097611173411896e-07,1.9999991910240207,0.09113989035352431,-0.0002540040426534302,-0.00025374833457894217,8.327837927804601e-06,1.4075113434064792e-22,2.0,0.1659650288846585,8.665324550274681e-23,-1.715395491406128e-06,1.715786077722726e-06,0.7413426953901305,0.0,0.0,0.0,3.3109316944711464,-3.606960281980629e-05,-3.617909251520613e-05,4.348507942405369e-07,619.4581158981129,619.4380168776662,619.4493648686101,619.4493344094985
0.30800000000000005,7.837280992740073e-07,1.9999992170696925,0.09419756631483102,-0.0001815229393063868,-0.00018120904153879562,7.666560985932193e-06,1.4048349633969885e-22,2.0,0.16945244272071341,8.648847452942041e-23,-2.8683636105858362e-06,2.868097521409887e-06,0.7545613818787619,0.0,0.0,0.0,3.2689553964329177,-4.449530430984197e-05,-4.460970346769666e-05,4.305082117406321e-07,618.4688262550271,618.4439981942201,618.457700679546,618.4576688036339
0.31200000000000006,7.569917607565761e-07,1.9999992438198197,0.09730719026838938,-0.00010842528510394031,-0.00010805680152268587,7.033420169740227e-06,1.4021401258889294e-22,2.0,0.1729639073027977,8.632256722269086e-23,-4.004413106570138e-06,4.003551181745431e-06,0.7676484671379036,0.0,0.0,0.0,3.2263378784597143,-5.240822467516449e-05,-5.252598306734189e-05,4.2479492698246304e-07,617.4626256049106,617.4333391707261,617.4492565511707,617.4492236856597
0.31600000000000006,7.298354563644323e-07,1.999999270991263,0.10046814447954938,-3.554447012431107e-05,-3.512633270319684e-05,6.428463413855703e-06,1.399427149386435e-22,2.0,0.1764990076092341,8.615554319122205e-23,-5.112718685789908e-06,5.111338656101106e-06,0.7805945322798615,0.0,0.0,0.0,3.183244055944474,-5.9641601410379715e-05,-5.976095950215337e-05,4.17870287138625e-07,616.4432961329296,616.4099164620246,616.4278623140904,616.4278289469181
0.32,7.025405739032425e-07,1.999999298302831,0.10367979548397654,3.6291775484385524e-05,3.675334037618017e-05,5.85162226862925e-06,1.3966963492245928e-22,2.0,0.18005733274771926,8.598742184857599e-23,-6.181794389192127e-06,6.179991163915495e-06,0.7933872759199485,0.0,0.0,0.0,3.1397205845707177,-6.61000446925566e-05,-6.621912493890025e-05,4.098682790977112e-07,615.4118542249962,615.3748015328488,615.3945622499954,615.3945289046005
0.324,6.753831996365621e-07,1.99999932547861,0.10694150237775923,0.00010628022478761843,0.0001067777607704542,5.302717431625698e-06,1.3939480375961205e-22,2.0,0.18363847592056373,8.581822241485512e-23,-7.200031609462015e-06,7.197916851581278e-06,0.8060211852553689,0.0,0.0,0.0,3.0957978585335297,-7.171792290692499e-05,-7.183476772197882e-05,4.0092120720552085e-07,614.3689436570637,614.3286769514184,614.3500198906567,614.3499871156065
0.328,6.486310430609115e-07,1.9999993522510349,0.11025261690976208,0.0001736505764127224,0.0001741754844812953,4.781469107666073e-06,1.3911825235778363e-22,2.0,0.18724203439020093,8.564796391833198e-23,-8.156215419301515e-06,8.1539165898612e-06,0.8184944127987539,0.0,0.0,0.0,3.0515063832239813,-7.644134355538472e-05,-7.655393972586065e-05,3.9115382561271575e-07,613.3152178799282,613.2722286855234,613.294905288307,613.2948736506685
0.332,6.225405180117744e-07,1.9999993783638024,0.11361248365820424,0.00023767360567902694,0.00023821625362745736,4.287507161620736e-06,1.3884001131569228e-22,2.0,0.19086760944496445,8.547666519706605e-23,-9.039666403863427e-06,9.03732520142409e-06,0.8308051351570063,0.0,0.0,0.0,3.0068766008397247,-8.022740157155635e-05,-8.033369750834399e-05,3.806831549575324e-07,612.2513358432717,612.2061422987113,612.2298910242592,612.2298611049248
0.336,5.973540125493372e-07,1.9999994035745992,0.11702044026230463,0.00029766879968629115,0.00029821865224763605,3.820380968991893e-06,1.3856011092569864e-22,2.0,0.19451480636513077,8.530434490050821e-23,-9.840377076764882e-06,9.838147795194694e-06,0.842951575824461,0.0,0.0,0.0,2.9619387724891997,-8.304455584572657e-05,-8.314253528753794e-05,3.696184184892471e-07,611.1779594496738,611.1311001238763,611.1556495304984,611.1556219035496
0.34,5.732973760226342e-07,1.9999994276576103,0.12047581769890714,0.00035301137721178934,0.000353557145343871,3.37956891544003e-06,1.382785811763916e-22,2.0,0.19818323438922597,8.513102149109265e-23,-1.0549142977529867e-05,1.0547190432787004e-05,0.8549320187088576,0.0,0.0,0.0,2.9167228790165005,-8.487297234649669e-05,-8.496064791068517e-05,3.580610476605728e-07,610.0957513955713,610.0477788762804,610.0728508054324,610.0728260399572
0.34400000000000003,5.505776485841626e-07,1.9999994504057872,0.1239779405954515,0.0004031386117879325,0.0004036684188330767,2.964487496625256e-06,1.379954517551539e-22,2.0,0.201872506680594,8.49567132458164e-23,-1.1157686022359681e-05,1.1156183067731499e-05,0.866744818881531,0.0,0.0,0.0,2.8712585379182927,-8.570458023565255e-05,-8.578004463632206e-05,3.4610475894192516e-07,609.0053733070441,608.9568476806104,608.9821605036344,608.9821391492358
0.34800000000000003,5.293810551018744e-07,1.9999994716328526,0.12752612757193083,0.0004475553855315441,0.0004480569478973609,2.5744999716496553e-06,1.3771075205070789e-22,2.0,0.20558224029422512,8.478143825780661e-23,-1.1658768170688753e-05,1.1657893121759448e-05,0.8783884112429137,0.0,0.0,0.0,2.825574934040933,-8.554304563635206e-05,-8.560451492748143e-05,3.33835701617255e-07,607.907484147047,607.8589664320667,607.8842383192906,607.8842208937158
0.35200000000000004,5.098712818637529e-07,1.9999994911750223,0.13111969160556708,0.0004858389122157934,0.0004862997319367809,2.208924527144235e-06,1.374245111556414e-22,2.0,0.20931205614384207,8.460521443787567e-23,-1.2046293602235925e-05,1.2046227278839706e-05,0.8898613174107641,0.0,0.0,0.0,2.7797007620784893,-8.440361896224106e-05,-8.44494486421409e-05,3.21332674090361e-07,606.8027388434626,606.7547844537535,606.7797366256498,606.7797236100093
0.35600000000000004,4.921880507468841e-07,1.9999995088924285,0.13475794041286926,0.0005176425795324075,0.0005180501456423827,1.8670419146665737e-06,1.371367578689141e-22,2.0,0.21306157896924244,8.442805951606413e-23,-1.2315397755124154e-05,1.2316320247060978e-05,0.901162151094762,0.0,0.0,0.0,2.733664179177348,-8.23128117924232e-05,-8.234151485982486e-05,3.086674038975905e-07,605.6917870939562,605.6449394188995,605.6692993395534,605.6692911729298
0.36000000000000004,4.7644608195171487e-07,1.9999995246701603,0.13844018339446926,0.0005426971047282849,0.0005430390855696397,1.5481479317821872e-06,1.3684752069834424e-22,2.0,0.21683043730389512,8.424999104317175e-23,-1.2462516071803671e-05,1.2464603468529016e-05,0.9122902771762345,0.0,0.0,0.0,2.687479473003222,-7.930675521640721e-05,-7.93170599266676e-05,2.9585184957801055e-07,604.5749505583882,604.5297353780769,604.5532393778841,604.5532364405658
0.36400000000000005,4.627344175472287e-07,1.9999995384189397,0.1421657422618342,0.0005608097486470082,0.000561074163539126,1.251459561856407e-06,1.3655682786307608e-22,2.0,0.220618263442789,8.407102639227652e-23,-1.2485408048452484e-05,1.2488829446925063e-05,0.923246836981291,0.0,0.0,0.0,2.6411393674089005,-7.542908520644617e-05,-7.541989220570166e-05,2.830069953983712e-07,603.4520325562902,603.4089536268013,603.4313494355811,603.4313520608827
0.36800000000000005,4.5111538009791913e-07,1.999999550076164,0.14593390776293652,0.0005718771312407894,0.0005720526199355483,9.761678323214239e-07,1.3626470729602807e-22,2.0,0.22442469341053226,8.389118276024191e-23,-1.2383237390531579e-05,1.2388151465312392e-05,0.934030381947536,0.0,0.0,0.0,2.5947240761694155,-7.073856539059021e-05,-7.070908229429775e-05,2.70195315175726e-07,602.3249631447018,602.284493513989,602.3055444450395,602.3055528804458
0.37200000000000005,4.4162481645153787e-07,1.9999995596056648,0.1497439722267775,0.0005758744354715406,0.0005759504489660602,7.215100021924188e-07,1.3597118664632198e-22,2.0,0.2282493669296998,8.371047716921235e-23,-1.2156619652294144e-05,1.2163170873516666e-05,0.9446379749061874,0.0,0.0,0.0,2.5482488065206716,-6.530128600139267e-05,-6.525098217146632e-05,2.5739602212742725e-07,601.1941078608335,601.1566853426948,601.176172300643,601.1761867201055
0.37600000000000006,4.342725519191081e-07,1.9999995669972588,0.15359524903407587,0.0005728430765511032,0.0005728100097051614,4.867062397459227e-07,1.3567629328169308e-22,2.0,0.23209192738942785,8.352892646809706e-23,-1.1807532816311102e-05,1.1815848311238534e-05,0.9550705253485026,0.0,0.0,0.0,2.5016892547531593,-5.957395480872421e-05,-5.950298271615503e-05,2.4461003063758496e-07,600.0589843193474,600.0247866999692,600.0426207084474,600.0426410908459
0.38000000000000006,4.2904236480456423e-07,1.9999995722667752,0.15748704581216258,0.0005629030472477711,0.0005627524307515006,2.709553239143035e-07,1.353800542908816e-22,2.0,0.23595202181425315,8.334654733404229e-23,-1.1339242543874815e-05,1.1349429414580684e-05,0.9653300906051021,0.0,0.0,0.0,2.455074902424768,-5.324435412500954e-05,-5.315261892940128e-05,2.319611125380115e-07,598.920197970154,598.8895838912281,598.9055858845653,598.905612279914
0.384,4.2589253871419685e-07,1.9999995754555078,0.1614186567209096,0.000546253840048733,0.0005459785381855783,7.340399329937166e-08,1.350824964860054e-22,2.0,0.23982930083319517,8.316335627389215e-23,-1.0756339452105286e-05,1.076848181592006e-05,0.9754155106419458,0.0,0.0,0.0,2.4084511248367035,-4.639355420556726e-05,-4.6281283748791186e-05,2.1954162973964518e-07,597.7788610854595,597.7521445110824,597.7661580930165,597.7661904586371
0.388,4.2475654287418803e-07,1.9999995766295395,0.1653893465083009,0.000523183057507192,0.0005227774933928066,-1.0679129282617265e-07,1.3478364640491422e-22,2.0,0.24372341864907995,8.297936962563796e-23,-1.0064869106723108e-05,1.0079024623613037e-05,0.9853221102694224,0.0,0.0,0.0,2.3618961401655354,-3.9119770239481675e-05,-3.898756365573323e-05,2.073739940497845e-07,596.6369043803099,596.6143443490722,596.626240711348,596.6262788970258
0.392,4.2554478732083775e-07,1.9999995758779943,0.16939837871381777,0.0004940426688560853,0.000493502958075869,-2.7045328232383646e-07,1.3448353031352554e-22,2.0,0.24763403300810274,8.279460355985629e-23,-9.272262433776223e-06,9.28845928190082e-06,0.9950458362625042,0.0,0.0,0.0,2.3154319186727914,-3.1512350651903366e-05,-3.136111918091163e-05,1.9546734292947973e-07,595.4948896534869,595.4766949153635,595.4863704724471,595.4864142367607
0.396,4.28146281763366e-07,1.9999995733113833,0.17344502456926741,0.0004592369288971299,0.00045856097075900644,-4.183501042097233e-07,1.3418217420814224e-22,2.0,0.251560805169629,8.260907408113585e-23,-8.387137276502236e-06,8.405371813978584e-06,1.0045861745623677,0.0,0.0,0.0,2.269062458012366,-2.365112941950379e-05,-2.3482045041104526e-05,1.8379050336334278e-07,594.3529381537508,594.3392722910104,594.34664598902,594.3466950135497
0.4,4.324302572464543e-07,1.9999995690599919,0.17752856037425194,0.00041922082433956567,0.0004184083746731718,-5.513516161794138e-07,1.3387960381775205e-22,2.0,0.2555033998762308,8.242279702949314e-23,-7.4190142627511834e-06,7.439249795770863e-06,1.0139444563793896,0.0,0.0,0.0,2.2227968898903887,-1.5618520026072126e-05,-1.5433032765336833e-05,1.7249275176822736e-07,593.2112990887105,593.202278663818,593.207293464334,593.2073473480293
0.404,4.382471112120297e-07,1.9999995632729382,0.18164821861528224,0.0003745436468522894,0.00037359648717980606,-6.702790138912006e-07,1.3357584460630909e-22,2.0,0.2594614853239578,8.223578808177707e-23,-6.378544061412125e-06,6.400709113141231e-06,1.0231175227898979,0.0,0.0,0.0,2.1767434412763493,-7.5447473609549295e-06,-7.3446712747733664e-06,1.6155192245700598e-07,592.0726851234718,592.0683514709186,592.0709879399968,592.0710461732651
0.40800000000000003,4.454316899500853e-07,1.9999995561149009,0.18580325044098248,0.00032578009033484883,0.0003247020234662389,-7.75863593309766e-07,1.3327092177499763e-22,2.0,0.26343473313284044,8.204806275306266e-23,-5.277465380462279e-06,5.301452575772006e-06,1.0321020613119771,0.0,0.0,0.0,2.130884993352219,4.859719657828083e-07,6.985836288132659e-07,1.5089573674949154e-07,590.9367148567712,590.9370602900163,590.9373233237243,590.9373853242577
0.41200000000000003,4.5380560771874865e-07,1.9999995477638053,0.18999293189091201,0.00027351693756160725,0.00027231374429387875,-8.688542306396286e-07,1.32964860264478e-22,2.0,0.2674228183176237,8.185963639803371e-23,-4.128135152954137e-06,4.153801077059122e-06,1.040900934195498,0.0,0.0,0.0,2.0851912423212955,8.411573434279686e-06,8.634517317488311e-06,1.4057382900692308e-07,589.8026703553827,589.8076507758904,589.8055636589517,589.8056287972572
0.41600000000000004,4.631790556954413e-07,1.9999995384090228,0.1942165396993445,0.0002183716674108291,0.00021705108666171825,-9.499839692758128e-07,1.326576847571151e-22,2.0,0.27142541925873015,8.167052421235477e-23,-2.9431631289803264e-06,2.9703294189051834e-06,1.0495181597681738,0.0,0.0,0.0,2.0396802484121848,1.6151341824026795e-05,1.63821943414032e-05,1.3059757604796434e-07,588.6710349996256,588.6805586813882,588.676168586521,588.6762361649234
0.42000000000000004,4.7335312563372204e-07,1.9999995282490528,0.19847335167013855,0.00016098524536928616,0.00015955692575119515,-1.0199688713753472e-06,1.3234941967918928e-22,2.0,0.27544221767345,8.148074123403234e-23,-1.7354782929092208e-06,1.7639327968369593e-06,1.057954646837266,0.0,0.0,0.0,1.9943693393300077,2.362314279144006e-05,2.385932215796299e-05,1.2097641417516374e-07,587.5422780474622,587.5562044444532,587.549583013792,587.5496522841114
0.42400000000000004,4.841221849892181e-07,1.999999517489155,0.2027626469930565,0.00010201494194673894,0.00010049036515608708,-1.0795072658215015e-06,1.3204008920309013e-22,2.0,0.27947289858735697,8.129030234476535e-23,-5.183027602078809e-07,5.47801097269595e-07,1.0662106813446246,0.0,0.0,0.0,1.949275216686793,3.0748854590728015e-05,3.098763055274462e-05,1.1171825388067097e-07,586.41685554184,586.4349972644443,586.4262396153252,586.4263097813654
0.42800000000000005,4.95276278805781e-07,1.9999995063389533,0.20708370655247757,4.212706647586522e-05,4.051944310093662e-05,-1.1292790505451036e-06,1.3172971724949284e-22,2.0,0.28351715030594793,8.109922227128516e-23,6.95001115635918e-07,-6.647335536154328e-07,1.074286628819959,0.0,0.0,0.0,1.9044139609042634,3.74551228570408e-05,3.7693657909106636e-05,1.0282951122487854e-07,585.2952100546869,585.3173353229464,585.3065588107298,585.3066290400678
0.43200000000000005,5.066035319653375e-07,1.9999994950100393,0.2114358132280052,-1.8010326204360516e-05,-1.968618750412344e-05,-1.1699450228576648e-06,1.3141832748951776e-22,2.0,0.28757466438650475,8.090751558668496e-23,1.8910818643284106e-06,-1.8603473192665903e-06,1.0821829314507938,0.0,0.0,0.0,1.8598010373766136,4.367412568446369e-05,4.390952012199879e-05,9.43151106229868e-08,584.1777704582618,584.2036060357665,584.1909487757298,584.191018212759
0.43600000000000005,5.178925750899786e-07,1.9999994837135509,0.21581825853885928,-7.774003873625108e-05,-7.946788478696978e-05,-1.2021141278818303e-06,1.3110594334687274e-22,2.0,0.291645135610177,8.071519671173885e-23,3.0567701355203623e-06,-3.025895451676326e-06,1.0899007412613066,0.0,0.0,0.0,1.8154384116283409,4.9349974129588095e-05,4.957929414355561e-05,8.614097927742314e-08,583.0646268029195,583.0938647582403,583.0794821187561,583.0795498928875
0.44000000000000006,5.289349198795287e-07,1.9999994726578028,0.22023035283970557,-0.00013643117433330618,-0.00013819348112923904,-1.2264147001920137e-06,1.30792587999979e-22,2.0,0.29572826195428326,8.052227991621045e-23,4.179353762651398e-06,-4.14868671568184e-06,1.097442909224905,0.0,0.0,0.0,1.7713071293332852,5.44437048102288e-05,5.4664007046125385e-05,7.835417918696052e-08,581.9553389556276,581.9876464681266,581.9717064184232,581.9717716513395
0.44400000000000006,5.395268559507918e-07,1.9999994620463932,0.22467138951486476,-0.00019345457477431104,-0.00019523275175277084,-1.2434291196931092e-06,1.3047828438407995e-22,2.0,0.29982374456482985,8.032877932015142e-23,5.24660659355565e-06,-5.2165119773600115e-06,1.1048103750416194,0.0,0.0,0.0,1.7274603518261231,5.889260391084447e-05,5.910099732717283e-05,7.092628014316622e-08,580.851285931708,580.8862909411821,580.8689809800347,580.869042803817
0.44800000000000006,5.494718362578865e-07,1.999999452075821,0.22914068605202234,-0.00024822087747111764,-0.00024999545835329166,-1.253717537970076e-06,1.3016305519333387e-22,2.0,0.30393128772924555,8.013470889518958e-23,6.246910645754627e-06,-6.217765957273495e-06,1.112004196376739,0.0,0.0,0.0,1.6838684689705228,6.267075064237569e-05,6.286440453721854e-05,6.385472167694152e-08,579.7517585209578,579.7890714290461,579.7705878148355,579.7706453747076
0.45200000000000007,5.585823260402985e-07,1.9999994429336398,0.23363756040896827,-0.0003001682763166543,-0.00030191914832625324,-1.257829561035224e-06,1.298469228828898e-22,2.0,0.30805059884933,7.994008246580704e-23,7.1693704536491514e-06,-7.14156146044479e-06,1.1190264832367642,0.0,0.0,0.0,1.6405491131309553,6.574443510252097e-05,6.592062566796063e-05,5.714971695502018e-08,578.6572380872402,578.6964469481492,578.6769971363992,578.6770496046029
0.45600000000000007,5.666816644382548e-07,1.9999994347965981,0.23816132985832786,-0.00034876736196963747,-0.00035047401131671566,-1.2562951157568956e-06,1.2952990967094725e-22,2.0,0.3121813884144149,7.974491371060833e-23,8.003961135500723e-06,-7.977876983858453e-06,1.1258782498795588,0.0,0.0,0.0,1.5975222926923593,6.808527830940724e-05,6.824143197386434e-05,5.081041502313631e-08,577.5682680952452,577.6089416493173,577.5887427347731,577.5887893237558
0.4600000000000001,5.736057981066631e-07,1.9999994278289068,0.24271131187176476,-0.0003935270235755351,-0.0003951687924131278,-1.24962330569854e-06,1.2921203754079987e-22,2.0,0.3163233699747358,7.954921616357842e-23,8.74152278207126e-06,-8.717550815724071e-06,1.1325593741578417,0.0,0.0,0.0,1.554806289333692,6.967341909181452e-05,6.980715375232366e-05,4.483385727303189e-08,576.4853496194911,576.5270422721642,576.5063184866011,576.5063584617121
0.4640000000000001,5.792048876293261e-07,1.9999994221806332,0.24728681881119816,-0.0004339984038718606,-0.00043555477471101924,-1.238324407005629e-06,1.288933282428628e-22,2.0,0.3204762601150138,7.935300321533099e-23,9.373871237623419e-06,-9.352391518153719e-06,1.1390693426656306,0.0,0.0,0.0,1.5124301981950676,7.049574817379842e-05,7.060492311250986e-05,3.924196024080067e-08,575.4092600486428,575.4515158236728,575.4304966308148,575.4305293257028
0.4680000000000001,5.83344811356401e-07,1.9999994179861962,0.2518871430872859,-0.0004697767856220648,-0.0004712277213980311,-1.2228790484343454e-06,1.2857380329668423e-22,2.0,0.3246397784282443,7.915628811434677e-23,9.893867064705216e-06,-9.8752463141513e-06,1.145405669538841,0.0,0.0,0.0,1.470453443565205,7.05435661360955e-05,7.062638287655144e-05,3.402072163647298e-08,574.3415532484206,574.3839083561579,574.3628270385585,574.3628518859947
0.4720000000000001,5.859082592275625e-07,1.99999941536327,0.25651158891326004,-0.0005005139138684059,-0.0005018401033966478,-1.203714633466071e-06,1.2825348399294111e-22,2.0,0.32881364748969266,7.895908396820225e-23,1.029552531072379e-05,-1.0280110720057444e-05,1.1515669893622646,0.0,0.0,0.0,1.428871685649277,6.982856945721383e-05,6.988350138835199e-05,2.912741260844161e-08,573.2821618754041,573.3241570488559,573.3032444589637,573.3032609706052
0.4760000000000001,5.867956508413958e-07,1.999999414411861,0.2611594834473135,-0.0005259216002187577,-0.0005271046589325709,-1.181257307480443e-06,1.2793239139541917e-22,2.0,0.332997592831094,7.87614037447886e-23,1.0574151234324198e-05,-1.0562265388164801e-05,1.157556061076036,0.0,0.0,0.0,1.3876576391309399,6.837111974328698e-05,6.839691559911523e-05,2.4577854418123044e-08,572.2304286885663,572.2716145179751,572.2510965964262,572.2511043644955
0.4800000000000001,5.859262760467389e-07,1.999999415213166,0.265830136692714,-0.000545773452115335,-0.0005467962667836612,-1.1559095097986033e-06,1.2761054634297725e-22,2.0,0.33719134291505654,7.85632602735211e-23,1.072644483357196e-05,-1.071838070788137e-05,1.1633744557326648,0.0,0.0,0.0,1.3468647145116255,6.619393181387607e-05,6.618973409976906e-05,2.036162365260995e-08,571.1877563971308,571.2276947468177,571.2077917121863,571.2077904457932
0.4840000000000001,5.832386803974648e-07,1.999999417829182,0.27052286461776925,-0.0005599066072254076,-0.0005607535815070899,-1.128042035141867e-06,1.272879694514963e-22,2.0,0.3413946291096666,7.836466624653897e-23,1.0750530128628887e-05,-1.0746545675200736e-05,1.1690216327526557,0.0,0.0,0.0,1.3064999903830699,6.33332900160832e-05,6.329861703581885e-05,1.6458078075918504e-08,570.1543652603876,570.1926376784642,570.1735597922184,570.1735493128796
0.488,5.786911661488864e-07,1.999999422302199,0.27523697965822447,-0.0005682273505861615,-0.0005688846805200294,-1.0980210721602742e-06,1.2696468111581288e-22,2.0,0.3456071856632933,7.816563421989576e-23,1.0645990362736566e-05,-1.0646303127222673e-05,1.1744971478775077,0.0,0.0,0.0,1.2665896738702345,5.983429383352535e-05,5.976908798288018e-05,1.2876887186263985e-08,569.1309654224652,569.1671786482258,569.149123550367,569.149103807497
0.492,5.722618177044796e-07,1.9999994286547687,0.2799717975765161,-0.0005707082071274267,-0.0005711641068359701,-1.0661518485239213e-06,1.2664070151163746e-22,2.0,0.3498287496795927,7.796617661474034e-23,1.0413914361766737e-05,-1.0418696696774986e-05,1.179801379966649,0.0,0.0,0.0,1.2271462065198575,5.574810169781081e-05,5.565270199553387e-05,9.561725461830062e-09,568.1179156133194,568.1517054979233,568.1348560384354,568.1348271019768
0.496,5.639529063437366e-07,1.9999994368852896,0.28472666818404996,-0.0005678569347586404,-0.0005681017087528482,-1.4266506857207416e-06,1.2631605059745774e-22,2.0,0.35405906109270807,7.776630571848866e-23,1.005828283877779e-05,-1.0067658607477268e-05,1.184937516355403,0.0,0.0,0.0,1.188119614837127,5.162661619081819e-05,5.1501640243698566e-05,4.6667544417999544e-07,567.1130734664581,567.1444096283637,567.1302648690439,567.1302268944261
0.5,5.538342565018159e-07,1.9999994469246376,0.28950096697631517,-0.0005650956033670265,-0.0005651218745678725,-2.396389930093321e-06,1.2599074811642668e-22,2.0,0.3582978626426667,7.756603368598613e-23,9.618703016745113e-06,-9.632745373079499e-06,1.1899125039497163,0.0,0.0,0.0,1.1494758584323967,5.2714270005545364e-05,5.256074677417072e-05,1.1932674201873373e-06,566.1143152551082,566.1463601370206,566.1342140223802,566.1341672914417
0.504,5.419287040770394e-07,1.999999458750701,0.29429404793201697,-0.0005627663809295711,-0.0005625695196663213,-3.594644821966022e-06,1.256648135982358e-22,2.0,0.3625448998509707,7.736537254066093e-23,9.152491434285388e-06,-9.171218448562401e-06,1.1947283147625174,0.0,0.0,0.0,1.111275914457178,5.472774756959044e-05,5.4547393529743566e-05,1.500197745148135e-06,565.125671524374,565.1589921633663,565.1472117782398,565.147156784394
0.508,5.282436390504503e-07,1.9999994723568257,0.2991052584754507,-0.0005598849391715252,-0.0005594631188658519,-4.954866699504051e-06,1.2533826636097364e-22,2.0,0.3667999209963804,7.716433417566817e-23,8.693426218225669e-06,-8.716796279072863e-06,1.199382906843753,0.0,0.0,0.0,1.0735511206895116,5.581290032153782e-05,5.560779620392805e-05,1.738855951569976e-06,564.1480047532467,564.1820384791897,564.1706870364662,564.1706243875345
0.512,5.127888428761302e-07,1.9999994877339682,0.30393394949875285,-0.0005556162238550024,-0.000554970389097315,-6.425597989846384e-06,1.2501112551296966e-22,2.0,0.37106267709088936,7.696293035502501e-23,8.225933229319258e-06,-8.253843266646561e-06,1.2038749511219298,0.0,0.0,0.0,1.0363127242703805,5.588133857611413e-05,5.565380380003319e-05,1.9241494229484743e-06,563.1816669443525,563.2157940803709,563.2050104575109,563.2049408379813
0.516,4.955789527069018e-07,1.999999504868221,0.30877948830287144,-0.0005492608310055713,-0.0005483945865365457,-7.96131010951317e-06,1.2468340995462324e-22,2.0,0.3753329218558889,7.676117271473677e-23,7.732716930859724e-06,-7.765004537064346e-06,1.2082059295005565,0.0,0.0,0.0,0.9995456382371153,5.50026839981175e-05,5.475520599616373e-05,2.0608988579132214e-06,562.2262949319942,562.2599353503462,562.2498533842918,562.2497775340336
0.52,4.766357196758811e-07,1.9999995237385475,0.3136412448936881,-0.0005402417393730285,-0.0005391612832032671,-9.525213339368487e-06,1.2435513838021863e-22,2.0,0.37961041169852167,7.655907276391426e-23,7.1997503048446064e-06,-7.236196678701693e-06,1.2123786912560954,0.0,0.0,0.0,0.9632621047104977,5.324015409594812e-05,5.297540786786027e-05,2.157447618263934e-06,561.2822306152792,561.3148401067941,561.3056019891817,561.3055207098319
0.524,4.5598949578877e-07,1.9999995443152847,0.3185186201087164,-0.0005280974289911549,-0.0005268113688188377,-1.1086421888954609e-05,1.2402632927972518e-22,2.0,0.38389490568822165,7.635664188588213e-23,6.61599609278429e-06,-6.656329839005098e-06,1.2163966422064116,0.0,0.0,0.0,0.9274172355379162,5.066386515818313e-05,5.0384601348650384e-05,2.2191836901391758e-06,560.3483294276065,560.379404302453,560.3711488685611,560.3710629892191
0.528,4.3368070450140974e-07,1.9999995665586674,0.3234110340913897,-0.0005124732637162156,-0.0005109924647429717,-1.2618900176655086e-05,1.2369700094058357e-22,2.0,0.3881861655334405,7.615389133927849e-23,5.973160500646265e-06,-6.017062012203043e-06,1.2202656798341187,0.0,0.0,0.0,0.8919885903915672,4.734028358208759e-05,4.704932725868744e-05,2.250504426358656e-06,559.4240280495274,559.4531031737182,559.4459637679635,559.445874144964
0.532,4.0976121014283864e-07,1.999999590417451,0.32831789710874293,-0.0004931225396177198,-0.0004914600456638743,-1.410140492285643e-05,1.233671714494778e-22,2.0,0.3924839555585575,7.595083225914588e-23,5.265551141096967e-06,-5.312656814409589e-06,1.2239881327313822,0.0,0.0,0.0,0.8570123781268977,4.3343929954073486e-05,4.304427476767463e-05,2.2559368829544414e-06,558.5102916972411,558.5369457154596,558.5310480722112,558.5309556185105
