Time_s,X,Y,Z,Roll_deg,Pitch_deg,Yaw_deg,Ref_X,Ref_Y,Ref_Z,Ref_Yaw,vx,vy,vz,p,q,r,T_pert,tau_x,tau_y,tau_z,RPM_0,RPM_1,RPM_2,RPM_3
0.0040000000000000036,-6.51783449945208e-23,4.0,0.010006999594037988,-3.861262043247411e-18,-1.3963409037126566e-18,6.720055526330817e-20,1.7299786806106596e-06,0.00014140997861623788,7.200000000000012e-05,0.0,5.628567488317738e-19,800.0,2.0013999188075973,0.0,0.0,0.0,-10.19,1.0,0.02015933994626746,-7.850087496102184e-20,0.0,405.8159775546229,397.1632752027097,0.0
0.008,2.1564509661662563e-16,3.99999999999999,0.010010999365430017,5.7279951370589056e-11,1.2343238378689758e-12,-1.4360005275764727e-11,5.169114018432141e-06,0.00042252792534608786,0.000215133408,0.0,2.3956099172599962e-14,444.4444444444433,1.1123332628255573,0.0,0.0,0.0,-0.03433847600847206,1.0,0.02137986789194063,1.6774756983257674e-11,331.47495232293267,679.6288908258299,674.186051791869,342.40946387998554
0.012000000000000004,2.63821685138758e-14,3.999999999998682,0.010014999138799493,3.0551698941423758e-09,6.120368164690476e-11,-1.760265010470072e-11,1.0296772324705767e-05,0.0008416672243261056,0.0004285414703013123,0.0,2.637943038448982e-12,-1.3179222156992814e-10,0.000999943043877502,0.0,0.0,0.0,0.11268126516097571,1.0,0.022614502969043437,4.378592463196125e-12,337.5832071256596,682.9404991706142,677.2101668619179,348.9362937149437
0.016,1.5084003336572387e-13,3.999999999991842,0.010018998922870287,1.8730087185932934e-08,3.464403732922949e-10,-1.7446171061205541e-12,1.7092506728111066e-05,0.0013971565303145242,0.0007113732083620774,0.0,1.508194792921577e-11,-8.156823772557757e-10,0.000999944315502842,0.0,0.0,0.0,0.2602149989454665,1.0,0.023863279423118337,-1.779963729840082e-11,343.601213714369,686.2488543007063,680.2300951536984,355.3678398674634
0.020000000000000004,4.4334227008129666e-13,3.999999999976837,0.01002299872570378,5.3118642255911416e-08,1.0168065190873153e-09,8.881036506005973e-12,2.553605566904396e-05,0.002087339645612229,0.001062785356130613,0.0,4.366055732003006e-11,-2.2849631676881933e-09,0.0009999474147948466,0.0,0.0,0.0,0.4082515288472213,1.0,0.025126232378385082,-1.2338450847904317e-11,349.5331564489316,689.5537699534846,683.2456481851459,361.7087409229463
0.024000000000000007,9.427321975071687e-13,3.999999999952863,0.01002699855083687,1.0806276207054985e-07,2.161324387316347e-09,1.5985578394710466e-11,3.672685832635159e-05,0.0029106232649384685,0.0014819422978531054,0.0,8.713071005081538e-11,-4.330806944766854e-09,0.0009999521977135295,0.0,0.0,0.0,0.5567797824964341,1.0,0.039449061702475384,-8.66217910567467e-12,352.2057497715156,694.4755175808102,684.6167383962664,371.00546644971945
0.027999999999999997,1.7159373987031882e-12,3.9999999999200155,0.010030998399197197,1.8334298054379506e-07,3.933380869334329e-09,3.0445158652198256e-11,5.063154478654174e-05,0.0038653805440346,0.0019680160063522034,0.0,1.4426485965039484e-10,-6.540303069872079e-09,0.0009999577560811936,0.0,0.0,0.0,0.7057887990531758,1.0,0.04153030860463322,-1.7546878327505078e-11,357.83788313225637,697.8628870843294,687.5311912141298,377.3081244203929
0.032,3.4382413213663754e-12,3.999999937239421,0.0100351861905005,0.00014383773329731237,7.942196473682733e-09,5.682257708209076e-11,6.721704787526737e-05,0.004949999427721345,0.0025201859817730854,0.0,2.7719314089269014e-10,-6.272353084964791e-06,0.001018755527891755,0.0002482732009716397,2.547959918558523e-09,1.7215373878682268e-11,0.8548863424886481,1.0,0.04363495599914236,-3.2064680247594245e-11,363.38074725937616,701.2386150729744,690.4322962560883,383.51584947736967
0.036000000000000004,6.406697387997863e-12,3.9999979077670536,0.010045273768343924,0.004794638564296664,1.4846996640162356e-08,9.184047230170251e-11,8.645060071487479e-05,0.0061628825304638,0.003137639190793573,0.0,5.119557658709419e-10,-0.00020916605937849322,0.0016275410002868362,0.008365457585548585,1.4599132883018154e-08,7.79369446758415e-11,0.9928447889642134,1.0,0.045763072673862794,-4.3245232101771856e-11,368.3929712917299,704.3698368248911,693.0833784552534,389.21161149011925
0.04000000000000001,1.0116363216663483e-11,3.999990414376659,0.010071739258681956,0.02195829703208593,2.3411951225295004e-08,1.2026485118688396e-10,0.0001082997343004512,0.007502447017841598,0.0038195700062949463,0.0,7.866864800210527e-10,-0.0009577873427452415,0.0038743089453031495,0.03832168905568167,2.9547806765781942e-08,1.2432216984578832e-10,1.1097981558378178,1.0,0.047914722765501176,-3.6987321529943655e-11,372.50886437477794,707.0558029818876,695.2798301795206,394.0516717934986
0.044,1.4549564642559454e-11,3.999974289993221,0.010124012095336423,0.05884386921288339,3.35779667772041e-08,1.46935192835794e-10,0.000132732308997706,0.008967124227520877,0.004565180147490074,0.0,9.684250877312865e-10,-0.002505403281342968,0.008520719955584018,0.10027263881560322,3.909165326633399e-08,1.0872726609976128e-10,1.2075301742272895,1.0,0.05009034234648171,-3.6113921208467415e-11,375.8271878672384,709.3383956242311,697.0633137384765,398.1328559951319
0.048,1.9695087312278826e-11,3.9999467212742568,0.010210323771879757,0.12175571925369155,4.528061177010946e-08,1.7709894953571227e-10,0.0001597164439406101,0.010555360078454484,0.005373678620505554,0.0,1.1429956418483557e-09,-0.004813515719727312,0.01545438010181761,0.19271149721713446,4.600170988031736e-08,7.7121189024964e-11,1.2881609801276637,1.0,0.052289226946135026,-4.130021046510743e-11,378.45101212970786,711.2650006424336,698.481464881431,401.55536683750523
0.052000000000000005,2.554880407116391e-11,3.999905195273431,0.010337772789940585,0.21615058930133324,5.845179186498738e-08,2.1719858397859282e-10,0.00018922054897735767,0.012265614690456728,0.006244281659414509,0.0,1.3107708539381853e-09,-0.007784113384788199,0.02438513116031348,0.31176717587095487,5.26311047937677e-08,3.963236645567726e-11,1.3537171609024508,1.0,0.05451180445574601,-5.415787158273586e-11,380.4725054627677,712.8801259327463,699.5788129775088,404.40930429455483
0.05600000000000001,3.211528787334449e-11,3.9998474358004565,0.010512416162409157,0.34671540315403154,7.302481446498504e-08,2.7566543917782946e-10,0.00022121332231904127,0.014096362269228752,0.007176212667716818,0.0,1.4719354229106954e-09,-0.011325848580250129,0.03504309320229968,0.4538361161542343,5.8967476889949116e-08,-1.051721320832413e-11,1.4060757948164166,1.0,0.05675813122860437,-7.727547318299304e-11,381.9730833102146,714.22432197593,700.3960482776184,406.77413077478485
0.06,3.940064076653985e-11,3.9997713389001155,0.010739367586931555,0.5174502380586754,8.89076619639727e-08,3.592678442720787e-10,0.00025566374820616125,0.016046090992256474,0.008168702160263459,0.0,1.6262937786478476e-09,-0.01535581338730264,0.04718364556003611,0.6156516818099741,6.496734693651015e-08,-8.526397897554023e-11,1.4469479998245,1.0,0.05902826366030256,-1.0905785243784147e-10,383.0241855829906,715.334101179497,700.9698386483658,408.7195708058213
0.064,4.739104577817505e-11,3.9996749179269746,0.011022876596460557,0.7317364714723721,1.0597423697043023e-07,4.857728459773369e-10,0.00029254109459284067,0.018113302895574813,0.009220987705621773,0.0,1.7709296437253074e-09,-0.019799552567817992,0.06058723053384667,0.7942817013093111,7.052926698125341e-08,-1.7941523205884527e-10,1.4779144141726555,1.0,0.06132225824006038,-1.626329348702176e-10,383.68973660538745,716.242829983703,701.3337306401683,410.3079362583926
0.068,5.616783848579387e-11,3.999556230649761,0.011366471049982833,0.992453196659597,1.2427477968874458e-07,6.68340031937907e-10,0.0003318154084530855,0.020296507228653712,0.010332313868878385,0.0,1.9114016474828066e-09,-0.024592551823912782,0.07506372021797633,0.9871868859181149,7.585422138499767e-08,-3.001794784634169e-10,1.500294125810069,1.0,0.06364596810511425,-2.333510469857159e-10,384.02065784791336,716.9788787314951,701.5148274646511,411.59145197890126
0.07200000000000001,6.577784861812619e-11,3.9994133297932257,0.011773040717465608,1.3020485877948547,1.4376095240055452e-07,9.205082467432532e-10,0.00037345651230191393,0.022594233486980052,0.011501932154876639,0.0,2.0526588803469566e-09,-0.029680131678449306,0.09045206606175726,1.1922163178534009,8.111256189986717e-08,-4.5681603264655266e-10,1.5152596822246784,1.0,0.06598820476494377,-3.2219950976266893e-10,384.06496917686314,717.5653294928375,701.5390849573744,412.6121817886413
0.076,7.627158378603179e-11,3.9992442259406364,0.01224489586574927,1.6625919304152796,1.6439470957408874e-07,1.2637231067719345e-09,0.00041743450557972425,0.02500502468930555,0.012729100951885333,0.0,2.1946703301904586e-09,-0.03501587351476498,0.1066155707390044,1.407544360352377,8.627215974770681e-08,-6.59543271991147e-10,1.5238851635198707,1.0,0.06835447525623055,-4.389754905421536e-10,383.86245029082824,718.0250832814979,701.4282340271009,413.41121206942864
0.08,8.772025309477531e-11,3.999046848091585,0.012783841715318054,2.075838112473825,1.8615903665609816e-07,1.7180906497802326e-09,0.000463719762405611,0.027527437267818956,0.01401308547569566,0.0,2.335341656009787e-09,-0.04055969494491531,0.12343612496309556,1.6315937331190853,9.125864500903408e-08,-9.050735600532421e-10,1.5271121059981398,1.0,0.07074483518744717,-5.830011319406097e-10,383.44860350194165,718.3775549086952,701.2018380952543,414.0230922465344
0.084,1.0019117050036571e-10,3.998819014448465,0.013391231338312375,2.543275909445512,2.0901760013322113e-07,2.3063560217565023e-09,0.0005122829293477514,0.03016004095915318,0.015353157714143138,0.0,2.4776356956222194e-09,-0.04627782710811491,0.1408141945665249,1.8630353228448602,9.616063590625317e-08,-1.2033707204992633e-09,1.5257908835754441,1.0,0.0731593405880608,-7.581927082267962e-10,382.8552103841038,718.6402118883037,700.8775197553206,414.478664130245
0.08800000000000001,1.1374701378583029e-10,3.998558407321374,0.014068013162595821,3.0661726535311145,2.3291454856345086e-07,3.0532296466402923e-09,0.0005630949232107405,0.032901418696221485,0.016748596372051536,0.0,2.6189422300505757e-09,-0.0521419803713863,0.15866636913333723,2.100755453268301,1.0087057714437457e-07,-1.555178791955632e-09,1.5206899694980995,1.0,0.07559804713548048,-9.677893115360277e-10,382.1108303058112,718.8287916960587,700.4711781728585,414.805544660754
0.09200000000000001,1.2846459915967208e-10,3.998262552727613,0.014814770112365913,3.645613155891767,2.5782474067569846e-07,3.98952660001308e-09,0.0006165544800399257,0.03575163051210705,0.01819868681659564,0.0,2.7596193310465276e-09,-0.05812860850816082,0.17692320866020655,2.3438270904095324,1.0541280505547438e-07,-1.957066099863948e-09,1.5125113964982921,1.0,0.08304323914748873,-1.2199479027828193e-09,380.11381279289134,719.5544802755489,699.3837963293049,416.061843086902
0.09600000000000002,1.4445840779598497e-10,3.9979288044080237,0.0156317501892013,4.282532845679201,2.838121325520671e-07,5.159129778682503e-09,0.000672627904535667,0.0387092677902387,0.01970272102307982,0.0,2.903089702043572e-09,-0.06421831776308229,0.19552752524737815,2.591486861826586,1.0996223802772844e-07,-2.3967208131315396e-09,1.5019068814170657,1.0,0.08583215792804984,-1.5312123539800768e-09,379.07226766462594,719.6729310547988,698.818264548467,416.2666618206984
0.10000000000000002,1.6195030163318316e-10,3.9975543311550337,0.016518890586012965,4.97774685155379,3.1110453930673337e-07,6.60147979735741e-09,0.0007312818116426838,0.041772934950127474,0.021259997521129354,0.0,3.065331705133898e-09,-0.07039528993460809,0.2144327017295929,2.8431125753438127,1.1504990211063213e-07,-2.911669885887885e-09,1.4894899758803473,1.0,0.08864892907736037,-1.8982116379826654e-09,377.9513927729149,719.7578776251877,698.2108826933663,416.41350495894267
0.104,1.810283805254504e-10,3.99713610729581,0.01747583510663418,5.731974937228128,3.3965201457474034e-07,8.356781928562892e-09,0.0007924831240289844,0.0449412493411745,0.022869821341291525,0.0,3.2437139065095803e-09,-0.0766467948775345,0.2336012745191824,3.098204264735277,1.2055561407343907e-07,-3.5067864242304893e-09,1.4758488842849482,1.0,0.09149361943199961,-2.3234775959150926e-09,376.77329329260834,719.8212886226038,697.5738630398546,416.5230974487575
0.108,2.017721143215662e-10,3.9966709058029686,0.0185019457972277,6.54586306990043,3.693862566951372e-07,1.0468740258890011e-08,0.0008561990695839725,0.048212841137287854,0.024531503962043472,0.0,3.426614276663452e-09,-0.08296276274824764,0.2530036905237969,3.356367563726935,1.260174376019795e-07,-4.179871384563818e-09,1.461557656023498,1.0,0.09436629136613187,-2.8127702019213094e-09,375.559767481954,719.8748375674005,696.9191610367338,416.6156299611789
0.112,2.2426202978017557e-10,3.9961552936558906,0.019596309416855237,7.420002178851842,4.002428017373211e-07,1.2985505545479258e-08,0.0009223971789355833,0.05158635323230205,0.026244363257203765,0.0,3.6061601038601995e-09,-0.08933541666169043,0.2726172406269814,3.61729943933099,1.3120477799227753e-07,-4.902023141514063e-09,1.447186288980783,1.0,0.09726700835760163,-3.3731034000878637e-09,374.33272229912404,719.9301114369697,696.2586897155884,416.7111285656476
0.116,2.485773523715248e-10,3.9955856291591907,0.020757739266103012,8.354944574400674,4.321592439578945e-07,1.5960320857720877e-08,0.0009910452829863209,0.055060441136194856,0.028007723443744872,0.0,3.782103825484094e-09,-0.0957589685012201,0.29242517902086795,3.8807764083139538,1.361390191209103e-07,-5.662678045432713e-09,1.4333099444270874,1.0,0.10019583390410844,-4.012431302261417e-09,373.1145508871254,719.9987983729936,695.6045153440703,416.8297813713956
0.12000000000000001,2.747983635370936e-10,3.99495806099204,0.021984772812851043,9.351218435548498,4.650737173742565e-07,1.944839745156385e-08,0.0010621139030038067,0.0586336588627284,0.029820915030003513,0.0,3.954257419716782e-09,-0.10222936536865257,0.31241599126113606,4.146644740574525,1.4083499042792445e-07,-6.454247330602042e-09,1.4205174187531868,1.0,0.10318071141543969,-4.7352713712593395e-09,371.9220160499613,720.0961943927257,694.9655797688735,416.99798982239486
0.12400000000000001,3.02997356279309e-10,3.9942685288233983,0.023275665477831848,10.409340718027119,4.989238376508335e-07,2.3513207174085735e-08,0.0011355717360219287,0.06230466592740687,0.03168327476428597,0.0,4.1215570204976066e-09,-0.10874407986851538,0.3325827913036306,4.41481238517717,1.4530461137444016e-07,-7.258459103099332e-09,1.4094190132066142,1.0,0.1061711476977086,-5.553576267999987e-09,370.7911678050196,720.2286377927522,694.3610430975318,417.2266554791277
0.128,3.332344652953176e-10,3.993512765074305,0.02462838141520373,11.529829237758648,5.336194341793004e-07,2.821401429195424e-08,0.0012113874670026906,0.0660721567019182,0.033594145583865524,0.0,4.28221329765219e-09,-0.11530195724661005,0.35292288917664033,4.685243171728828,1.4950899299667896e-07,-8.064063903085692e-09,1.4006528309761759,1.0,0.10918659914437873,-6.465077495079657e-09,369.74327394945715,720.4113881179064,693.8020274890413,417.5420411685786
0.132,9.20183600895344e-08,3.9926863877400263,0.026040600274564767,12.713230062584472,7.711562190995546e-07,-7.733685656252332e-05,0.0012895300718042254,0.0699348377520765,0.035552876564369104,0.0,9.21231869939474e-06,-0.12189389922458775,0.37343739565057227,4.957980781615868,-2.853041234362697e-05,-0.00013196400136560203,1.3948526368511172,0.9053141785317333,0.11116217337025236,9.037346736902225e-05,390.32244151202457,709.0002757139978,681.6887857697507,437.0287957712783
0.136,7.843469325127671e-07,3.99178527672745,0.027509695961508165,13.960124200061719,2.4282636195083963e-06,-0.0006705285903160688,0.0013699688148069104,0.07389142773805618,0.03755882286955031,0.0,7.905265203476443e-05,-0.12846669200221322,0.39412102511787334,5.233139067799859,-0.0002668206787921672,-0.0011394820831241153,1.3927044714109975,0.7727717158880756,0.1082240532436885,0.0006961228354373518,417.76586391700175,691.494436578178,665.8902867242709,463.00403055143124
0.14,2.7684688942836695e-06,3.990805920693651,0.02903184474694141,15.270380713163267,7.4286266896892e-06,-0.0024023779016987866,0.0014526732465575847,0.07794065731538795,0.03961134570144605,0.0,0.00027934956629482985,-0.1349153532050835,0.4148640903087951,5.5095738289290495,-0.0010226399291621401,-0.004052261329423367,1.396714329486041,0.635169832994589,0.1027573298731354,0.0020506601150393254,443.6485392516394,671.678122302354,650.5634564821761,489.6286439903421
0.14400000000000002,6.800074832189448e-06,3.9897457818255124,0.030601543241252985,16.64270026610228,1.8245304671706316e-05,-0.005996716409469208,0.001537613201431729,0.08208126903671077,0.041709812250913796,0.0,0.0006592774157234667,-0.1411030918202923,0.43539246174951163,5.783986140700756,-0.002633192463720319,-0.009634074842100557,1.4104047688291705,0.4938376254363013,0.09596915185144383,0.004297625034919523,467.59184694725536,649.5534943495935,636.046381215554,517.1355304256581
0.14800000000000002,1.358950918793892e-05,3.9886031141220593,0.03221215982599707,18.075023580231285,3.768014030157936e-05,-0.01219716945205949,0.0016247603870757903,0.08631186926971242,0.04385359564854689,0.0,0.001231581940139055,-0.14690253880027354,0.45536393053523144,6.05215171484587,-0.005386957815914218,-0.018147519186788023,1.4362328633172265,0.34970802659872824,0.08909160973719392,0.007489992671439009,489.4737772932495,625.1538968680239,622.4898188487773,545.5930871950665
0.15200000000000002,2.332383911404396e-05,3.9873784717451803,0.03385660531622262,19.565071359005007,6.746502759017729e-05,-0.021342193281802934,0.001714085179421847,0.09063122585064437,0.04604207491596504,0.0,0.001946377747989355,-0.15206248864094243,0.4744914830147831,6.311398151573856,-0.009320820853888866,-0.02894068290340652,1.4753306473451306,0.20313688633984972,0.08768441707948005,0.01118517905318089,509.38595627171156,599.754916835506,608.5851553542697,574.9652690283419
0.15600000000000003,3.560487796059128e-05,3.9860751423373193,0.03552738481739535,21.110314826045336,0.00014151558565734878,-0.03324758284423273,0.0018055582314969502,0.09503811820649453,0.0482746349174772,0.0,0.002693145634498863,-0.1561664402391852,0.4924983854524558,6.560359089740368,-0.01404042655999535,-0.04041846658508227,1.5287396129181903,0.05453109476858575,0.09287973108849883,0.014786736798132085,528.3616521420118,574.4313290218549,593.3103633833298,604.3460022018774
0.16000000000000003,5.004061374160111e-05,3.9846961476143887,0.037217183527011546,22.70711106995338,0.0014230208353723489,-0.04676171995023925,0.0018991504711544768,0.09953133725983909,0.05055066631211418,0.0,0.0033776793391726095,-0.15893364147728645,0.5092067992234858,6.796546281569954,-0.01664083890021754,-0.050390651133827215,1.5963254078849478,-0.09467394668975526,0.09695609379307032,0.01715720304572042,549.3805600253935,550.0959411275151,576.1183402456588,630.8390152358525
0.16400000000000003,6.631345306308779e-05,3.9832434058758484,0.03891920125920245,24.350639653384633,0.006375114675139184,-0.05938474383058022,0.00199483309882281,0.10410968533442219,0.05286956550602828,0.0,0.00397529132355674,-0.16049399477507323,0.5246424147619935,7.015635061535518,-0.011383062175353367,-0.0566731716428683,1.6772691308127485,-0.24289008254577693,0.09752109927529755,0.016674440428015587,574.9023154559716,529.5385533490081,554.759656887313,651.9826648405884
0.16800000000000004,8.360511707999258e-05,3.981718719184023,0.04062665368703561,26.034884938218987,0.017651520144159282,-0.06843998985199025,0.002092577585271224,0.10877197606145828,0.0552307346052572,0.0,0.004418700373722271,-0.16110606158344823,0.538915408100259,7.212305835915638,0.007211191055035743,-0.05801264090114115,1.7717478241378353,-0.38842463052099796,0.10082628690592006,0.013029199534787744,603.695710408297,515.099407755829,527.4554854846183,668.4535879634844
0.172,0.00010074569268012772,3.9801194855723225,0.04233606541849388,27.75072729451454,0.03614575524691197,-0.07287181054421775,0.002192359035050777,0.11351676312576578,0.057633581368849565,0.0,0.004594996756214497,-0.16119700995267164,0.5525235940952724,7.378118228069281,0.03706556488339372,-0.05604514340478226,1.8732547843779956,-0.5272700208224634,0.1074721886826134,0.008004923202500597,631.9669330772899,504.67651301459244,496.91261110002085,682.41248513877
0.176,0.00011775940393369729,3.978440772181827,0.044045372542049335,29.48697724951992,0.061703869784028226,-0.07224515088824973,0.0022941494124693045,0.11834288575896319,0.06007751916234956,0.0,0.004519593389613297,-0.16129497215319274,0.5662303207245196,7.502902002919197,0.07229700220224264,-0.053184179273490416,1.9790288365041606,-0.656407667934984,0.10083813561406424,0.0022828904902481347,660.5540784155352,494.8272334713263,467.3817881652366,692.4098511547896
0.18,0.00013470084115821895,3.9766775449756593,0.04575246875360145,31.23171827109427,0.09437058663737158,-0.06603894289071503,0.0023979209459415512,0.123249194193809,0.0625619669116377,0.0,0.004331618367848624,-0.16179242766048635,0.5805971023619557,7.57854113323513,0.10878471462237511,-0.05056844962119987,2.0892145598294087,-0.774237645557383,0.09330585980346419,-0.004255593264858703,687.8290192379135,488.28763097085016,436.70282162924013,699.7922938190468
0.184,0.0001516499587029373,3.9748246991982596,0.04745523139083942,32.97319077993565,0.13423869422437795,-0.05376428714290734,0.0025036461258196676,0.1282345495735798,0.06508634905712558,0.0,0.004065377007203424,-0.1628030976912666,0.5957301368720315,7.6028470574524345,0.14667895382070642,-0.048474748564976064,2.203905138304882,-0.8801342797517597,0.08484348129601088,-0.011594736323660607,713.8521876497078,485.2700557825239,404.7936543460679,704.5840153431722
0.188,0.0001687146882833589,3.9728770925179444,0.0491515055667129,34.69930607600513,0.18138970673840046,-0.03498112711596886,0.0026112977022403074,0.13329782386214278,0.06765009550830155,0.0,0.0037173581178290517,-0.16441069800536995,0.6116889977918903,7.575110108870677,0.18619798550623357,-0.04715808231350735,2.323226568470414,-0.9729068157909703,0.07540002689801317,-0.019697981919533845,738.5801909148197,485.9772804009689,371.72014780172634,706.7362077691483
0.192,0.0001860334120001067,3.970829569065626,0.050839131965601775,36.3983249197093,0.2358383302659993,-0.0093000590030457,0.0027221757254954028,0.13844296655343358,0.0702526415986251,0.0,0.0032839968789297293,-0.16669891874388515,0.6285284580277611,7.49539120500639,0.22715772436788847,-0.04684503878776723,2.447249550501027,-1.0,0.08045301861299237,-0.02852468417994736,754.3606568354483,502.13249317364483,346.5963895359826,701.7894798746536
0.196,0.00020377700536007367,3.968676991945613,0.052515956926204845,38.059238426852616,0.2975838819196385,0.023531130338564875,0.0028362374866141024,0.14366881000148254,0.07289342804076722,0.0,0.002762039936111363,-0.16974986916554452,0.6462983226628389,7.365368999034952,0.26922997311529545,-0.047768797741050986,2.576024550805826,-1.0,0.06997132779030356,-0.03793105445346067,769.3022912003743,520.8555732328686,329.40480030720187,690.850499088485
0.2,0.00022214952129515842,3.966414233349433,0.05417989524415068,39.67195323640673,0.36668032843923526,0.06377409778222659,0.0029534406745186426,0.14897419766684444,0.07557190088219415,0.0,0.002148254609299907,-0.17364123166073933,0.665047743065738,7.188346228718349,0.31225014144524954,-0.05012925229099421,2.7094744843298075,-1.0,0.05838683230362953,-0.04793898036670312,784.868373239653,539.8983849739824,310.021242092431,678.8869199196401
0.20400000000000001,0.00024139225919825777,3.9640362096799464,0.055828937885220316,41.22804013449599,0.4430769084593059,0.11156634058885166,0.0030737433727728303,0.15435798402495562,0.07828751146109221,0.0,0.0014395065896383255,-0.17844266731643432,0.6848231737937119,6.969400462485728,0.355948459677792,-0.05407736733114108,2.847504516343404,-1.0,0.045734653791880256,-0.058414685771937556,800.8643402202823,559.0125274650012,288.4123841032997,666.0295747444528
0.20800000000000002,0.00026178602820475745,3.9615379288064143,0.05746112911501991,42.72059340179699,0.526647769511104,0.1667866527982541,0.0031971040563553315,0.15981903447519416,0.0810397163626309,0.0,0.0006337661354736732,-0.1842127273233816,0.7056607784686133,6.715106430123821,0.39965729990313054,-0.05977520680120525,2.9900638853710397,-1.0,0.03203951264748761,-0.06906213751706064,816.9303154127564,577.7252011091989,265.04431931054796,652.6424255738032
0.21200000000000002,0.0002836525605537168,3.958914474936556,0.059074611321271724,44.14391894455617,0.6171985009003894,0.2290794449849366,0.0033234815884575974,0.16535622525063834,0.08382797737556207,0.0,-0.0002683598825247875,-0.19099952298138323,0.7275866997276922,6.431725227984178,0.4423723422707102,-0.06753979418968017,3.1370092480789253,-1.0,0.01733104790854184,-0.07960308012187811,832.7513379008572,595.6481920402653,240.44303692802,639.090923590787
0.21600000000000003,0.0003073539696939484,3.956161074259736,0.06066757913718419,45.49332515719615,0.7144487820589456,0.29790753628334044,0.0034528399836516793,0.1709680478790726,0.08665176144915254,0.0,-0.0012633534817216966,-0.19884457687513607,0.7506116443955556,6.124379974945062,0.48313496050681126,-0.07763879099728263,3.2882873242777007,-1.0,0.001740406228985955,-0.089811278175535,848.0831046338675,612.5304866605098,215.0910649886124,625.7117448672863
0.22000000000000003,0.0003332916280290346,3.953273117637796,0.0622382847003571,46.76494209921354,0.8180781190226503,0.37254403032205147,0.003585138814678248,0.17665340475264643,0.08951054065044776,0.0,-0.0023447485710594304,-0.20778600336884212,0.7747296889974006,5.797264219184166,0.5210658795314608,-0.09006400950973306,3.443832578102559,-1.0,-0.014805384464838159,-0.0994435118424887,862.700240642775,628.0906172706258,189.8885580128583,612.8671629858161
0.22400000000000003,0.0003619043481623182,3.95024616979471,0.06378505677885311,47.955578620917805,0.9277178717794676,0.45212351045485527,0.0037203380335493965,0.18241120878757072,0.09240379212186403,0.0,-0.0035031045891983554,-0.21786093501730255,0.7999186935499079,5.45384502084926,0.555403431587418,-0.1048036194579774,3.6035389058211105,-1.0,-0.03219874683553425,-0.10830852433645566,876.4267295992142,642.1645331562405,165.8954581663276,600.8952945662002
0.22800000000000004,0.0003936658623312897,3.947075977833346,0.06530631854360577,49.06260891697184,1.043037339475791,0.5356050617496642,0.003858397968439111,0.18824038333696402,0.09533099803910691,0.0,-0.0047260181677409585,-0.22910722741553421,0.8261468350314262,5.096997617812105,0.5855163011736353,-0.12189304539308421,3.7672617724297908,-1.0,-0.05047230280137606,-0.11616611420117569,889.0577076899411,654.5052177879477,145.24302950783536,590.2130012403628
0.23200000000000004,0.0004290841585378956,3.9437584125013583,0.06680066176667465,50.083845789207075,1.1636734729921672,0.621788784710662,0.0039992868298739425,0.1941393605551542,0.09829164556941347,0.0,-0.005997749575977691,-0.24156480343088166,0.8533808137426229,4.729073010077987,0.610797756393094,-0.14133999329049507,3.9347031268734107,-1.0,-0.06951165754472302,-0.12278809142523003,900.3918902455388,664.903821835115,131.03069884550953,581.2598016504646
0.23600000000000004,0.0004686978993279358,3.940289480424309,0.06826685489778815,51.01749745808142,1.2892086253030162,0.7093804475278375,0.0041429655987363385,0.20010709044693592,0.10128522683011584,0.0,-0.00729889239592999,-0.25527641344502566,0.8815863621137447,4.352025135160445,0.6306548581132561,-0.1630611446672122,4.1055432304848205,-1.0,-0.08939728971330024,-0.12801517786152442,910.3202915286962,673.2168764089844,126.6391824214488,574.3498835563031
0.24000000000000005,0.0005130728088216881,3.936665323376976,0.06970386171071281,51.862122503328955,1.4192170442462886,0.7969682824457913,0.0042893956237014886,0.2061425331419499,0.10431123884752391,0.0,-0.008606374507820124,-0.2702878665751628,0.9107226889129612,3.96756832324252,0.6445707795194691,-0.1868336399444731,4.279418946520789,-1.0,-0.11000521837729957,-0.1316570259097406,918.6817296578818,679.2727749708936,134.22668120500566,569.8724077024241
0.24400000000000005,0.0005628021290472464,3.932882113907586,0.07111094191348416,52.61657643816622,1.553159494917619,0.8829806106857994,0.004438538618215261,0.21224465881062038,0.10736918351612457,0.0,-0.009892858518151334,-0.28664791332072725,0.9407526579023398,3.5772215525356676,0.6519366680565328,-0.2124250614212023,4.455756797314091,-1.0,-0.13121478840375492,-0.13346886221363935,925.2566329301471,682.8069388023553,153.35206894910013,568.2822473473605
0.24800000000000005,0.0006184998675374434,3.928936110216225,0.07248762111575612,53.279976895426614,1.690404932823463,0.9657508406794693,0.0045903566574952695,0.21841244758073938,0.11045856755809544,0.0,-0.01112611923090237,-0.3044080563187376,0.9716395706060542,3.1823142140279783,0.6520833962778103,-0.23955714744141718,4.634034897017022,-1.0,-0.15283944059523052,-0.1332751654469693,929.8849057790974,683.6362006328533,181.13826092693793,569.8999588483439
0.25200000000000006,0.0006807929932232121,3.9248237098391483,0.07383366527203526,53.851639216061756,1.8302513745190572,1.0435761106966877,0.004744812175554906,0.22464488945469382,0.11357890248313057,0.0,-0.012269311488891505,-0.32362264560078763,1.0033295291656963,2.7839654090488013,0.6445255655862463,-0.26781477169421886,4.813774823412471,-0.9807729352930116,-0.17469285508171623,-0.1309649043714612,930.6836504793102,684.0609618424993,222.19272798917802,572.0018058737974
0.256,0.0007503199464058169,3.92054135612367,0.07514917060302563,54.33103522587976,1.9718738985256992,1.1146511996724406,0.004901880365833218,0.23094035724943462,0.11672970454857584,0.0,-0.01328104682194427,-0.34434886191603764,1.0357606659140726,2.3830777772068457,0.6288403727295233,-0.2968049508383551,4.994308066311848,-0.9117875190466573,-0.196445530953872,-0.1263482368921711,924.5937112796207,687.6915684260618,280.578818832466,570.322662930035
0.26,0.0008277170422849796,3.916085678689258,0.07643447887968281,54.71795364413935,2.114384574685951,1.1771912409479033,0.005061524221808736,0.2372978680170719,0.11991049471987206,0.0,-0.014115625157238873,-0.3666458434613242,1.0688583025444873,1.9807076458224455,0.6047226540552829,-0.3261247060623731,5.1751275882964825,-0.8363105557710058,-0.21811180614026968,-0.11937434073656172,915.50045447158,689.0088258361706,336.89794805092004,571.4570509660444
0.264,0.0009136058688640934,3.911453582745771,0.07769014082135337,55.01299055229334,2.256869667190089,1.2295048641845574,0.005223707088314276,0.24371644837154316,0.1231207986313028,0.0,-0.014724100542404204,-0.39057006568914465,1.1025165993735435,1.5790115197875303,0.5722375743562429,-0.35538313092928897,5.355792875401203,-0.7552699644341401,-0.23932869611420107,-0.11007854616393212,903.3956832761604,687.9928417293406,391.65922914004216,575.5143117393538
0.268,0.0010085823254078656,3.9066422998172703,0.07891689742745649,55.217625807004744,2.3984469597063294,1.27002108982315,0.005388392658640284,0.25019513440891367,0.12636014654704567,0.0,-0.015056000380552126,-0.4161683416149836,1.136601619469825,1.1813404249169885,0.5318150710125011,-0.3842863777437055,5.535894706054052,-0.6768866613276361,-0.2599421600908284,-0.09853132159431004,889.0042384881037,683.7026908427638,443.65600575960997,583.5503999438474
0.272,0.0011132077507362034,3.90164940515875,0.08011567530169715,55.33405098847853,2.538167844067747,1.2973831986694817,0.005555544971660382,0.2567329716282913,0.1296280733225239,0.0,-0.01506056333902532,-0.4434737224108253,1.1709655917954924,0.7913139357091779,0.4840891836354631,-0.41245026697466003,5.715027346747387,-0.5950235202774093,-0.27970028820424286,-0.08491762392525455,871.7686784993072,677.1307323844732,494.434580238828,594.2575879068964
0.276,0.0012280052998792919,3.8964727451197163,0.08128764997807922,55.3653884087651,2.6750292329669496,1.310401000814936,0.005725105896063629,0.26332855835007946,0.1329241183660568,0.0,-0.014687770306994733,-0.47250232014763005,1.2054662733564119,0.4125172928606121,0.42971127938870035,-0.4394378056980129,5.89265068897698,-0.5108556702164136,-0.2986755312505387,-0.0693753561089989,851.7812538475447,668.2255710555937,543.9152268471239,607.4305812481102
0.28,0.0013534539689730991,3.891110433848377,0.08243423994668346,55.31537650049353,2.8079901476828275,1.3079948821953968,0.005897040424320147,0.26998096413912726,0.13624782560080612,0.0,-0.01388858798545936,-0.5032514666535741,1.239974079943177,0.04834025325803916,0.3692113834723333,-0.46485738917582164,6.068228874870392,-0.4252566837455172,-0.3161531733392242,-0.05198381376810254,828.9373983136938,656.9698790835179,592.0565800081464,623.0037306837214
0.28400000000000003,0.0014899828694410107,3.88556084532973,0.08355710203776831,55.188174572384725,2.935877974478418,1.289222846010596,0.006071313883540681,0.27668926768001917,0.1395987434270168,0.0,-0.012614490741472093,-0.5357006479277492,1.2743681376112304,-0.29864532949622147,0.3029470013832182,-0.4883970783770152,6.241227729328025,-0.33891688185816227,-0.33205844055806566,-0.03285834640770319,803.1809541459409,643.3095700183827,638.8809756005248,640.7282348457874
0.28800000000000003,0.0016379654672084502,3.8798225945549816,0.08465813912482008,54.988519041274124,3.057388034973715,1.2533008709339954,0.00624789193270913,0.2834525567008056,0.1429764246845496,0.0,-0.010817880754636,-0.5698120617940514,1.3085354005065317,-0.6262420767260322,0.2311917945121654,-0.5096164871538515,6.411089904114152,-0.2527407069927863,-0.34605367193768016,-0.012143670385238357,774.4446431456032,627.2075501937949,684.2971755545593,660.3803451156394
0.29200000000000004,0.0017977133868810975,3.87389453017396,0.08573949201717432,54.7217500327712,3.1710410341294946,1.19964514519188,0.006426740559936349,0.2902699278973231,0.14638042661570336,0.0,-0.008453143869299656,-0.6055282532507295,1.3423739129079368,-0.9320311234935357,0.15421913847670574,-0.527860533747274,6.577266718247421,-0.16770643470433633,-0.35773085643554714,0.009959729612708725,742.6846432412204,608.6771660827917,728.1419934088715,681.6880663469927
0.29600000000000004,0.001969469718301445,3.8677757314219803,0.0868035250042194,54.393907915128366,3.2752630827826135,1.1278496092077468,0.006607826079735053,0.29714048685809974,0.1498103108283251,0.0,-0.005477906242828972,-0.6427684666698291,1.3757949566386227,-1.213281921832627,0.07233604968226937,-0.542559489661181,6.739231299134087,-0.08495007742283428,-0.3667505330223087,0.033269422151330746,707.8155755859477,587.6425247315519,770.2922700674997,704.434041926764
0.30000000000000004,0.002153404841880608,3.861465475583051,0.08785281926497142,54.01144421514166,3.368374610215054,1.037645658490426,0.006791115130315672,0.3040633479898419,0.15326564325920558,0.0,-0.001853424206289261,-0.6814286310985083,1.4087268417018002,-1.467556015808242,-0.014200703000181716,-0.5532229332500684,6.8964630790233645,-0.005322175935765505,-0.3727754202281482,0.057642778465761026,669.6011257225939,563.9626598792495,810.7158908108765,728.4346630303537
0.30400000000000005,0.0023496095043477497,3.854963234623449,0.08889014587337953,53.58113073954057,3.448598178927728,0.9289280890221193,0.006976619379274527,0.31103624075081404,0.15674599413775817,0.0,0.002455296035158914,-0.721383703537309,1.4411169357179947,-1.6930983546711489,-0.10520662582330327,-0.5594960131013662,7.048489414457782,0.07040023085465313,-0.37491128839442495,0.0829012358791648,627.6632774817515,537.5975186436041,849.2895669569333,753.53541671637
0.30800000000000005,0.002558087322191591,3.8482686746869565,0.08991843313494656,53.10998323439702,3.5140895360465287,0.8017781490796835,0.007164305566078117,0.31805831373732596,0.16025093794997916,0.0,0.007478756412592022,-0.7624909555194482,1.472928724348431,-1.8886959500082283,-0.2004598519352406,-0.5609695864954203,7.194897950181448,0.14150262031299227,-0.3738099187492222,0.10883260113764077,581.722194102176,508.2673751503094,886.0231282872171,779.3804622258906
0.31200000000000006,0.002778747004536544,3.841381656151776,0.09094072957396976,52.605185364532886,3.562978167158899,0.6564916833336434,0.0073541407507695805,0.3251287239920437,0.1637800534026873,0.0,0.013241595405966594,-0.8045920904638612,1.5041407087999925,-2.0534880338399395,-0.2996134823205329,-0.5572590306626746,7.3353464863421785,0.20733766244683027,-0.3686534222505964,0.13518414222580244,531.137267926914,475.9297522372499,920.7434137420662,805.7620133316844
0.31600000000000006,0.003011394672992667,3.834302233929416,0.09196016288288641,52.07401242845716,3.593409231463761,0.4936011222850112,0.007546092311307614,0.33224663693297957,0.16733292338804046,0.0,0.01976113550487013,-0.8475157864158716,1.5347464192049027,-2.186967223355263,-0.40217461578301295,-0.5480082427513796,7.469572352333804,0.26733060997636665,-0.35915266723472017,0.16166860731653204,475.0221569005483,440.4537074375039,953.3129103265826,832.3985217562255
0.32,0.003255722598753865,3.8270307130262764,0.09297985156916704,51.52388121484543,3.603526652970412,0.3140296240034132,0.007740163479724806,0.33941027991992906,0.17090913494832735,0.0,0.027044993712333387,-0.8910800106929238,1.564747308443577,-2.288770803400196,-0.5073787843760709,-0.5326621813895058,7.597489715657863,0.3208371513501428,-0.34453456442921715,0.1878089305119865,412.14777441841704,402.11745346289814,983.3765353275859,858.8994456243363
0.324,0.003511306540707608,3.8195675915217273,0.0940029001736786,50.96219560010909,3.5917744831693,0.11886074126951841,0.007936321834164548,0.34661884630119266,0.1745082792410327,0.0,0.035089122753924985,-0.9350933347911907,1.5941601875918954,-2.3587847545510767,-0.6142554828317843,-0.5110786909030209,7.719022788301199,0.3673784224086875,-0.32568282048119246,0.2,373.9882332625478,392.7309987411242,998.8188531566668,871.0767592230675
0.328,0.0037776102440874666,3.8119134129973364,0.09503246739968225,50.39598364091353,3.556747299298693,-0.09068852647582035,0.008134535266693808,0.3538715374876488,0.17812995150417293,0.0,0.043878687956978094,-0.9793602633969771,1.6230350543183534,-2.397669328991009,-0.721898200087431,-0.4834064546055939,7.833958005348209,0.40689505190638997,-0.3022125720056568,0.2,363.8326326051409,410.4304151080894,1001.8810012505423,871.4188174558287
0.332,0.004053990991827075,3.8040685508530774,0.09607191376735952,49.83189457492639,3.497387390719383,-0.3134049163263602,0.008334771980691939,0.3611675628847525,0.18177375102190133,0.0,0.05339178464894919,-1.0236873662562131,1.651490212467826,-2.4070269648074047,-0.8296615297329251,-0.4503193910004358,7.94178045401061,0.4393519638575858,-0.27438192170923337,0.2,353.7489525549577,426.60923865127637,1003.8505819226007,872.7695910139889
0.336,0.004339701075851138,3.796033010744475,0.09712495530575169,49.27635594927102,3.4131103262444826,-0.5480301242709295,0.008537000488259611,0.3685061398250616,0.1854392810903802,0.0,0.06360038088219264,-1.0678847461091725,1.6797118074050423,-2.388313037390104,-0.9366260101108004,-0.41289098788323547,8.041656912254188,0.46455186078922067,-0.24257382432970814,0.2,343.85350706011195,441.2938118434584,1004.7378156185752,875.0922068237155
0.34,0.004633877041078101,3.7878065210476253,0.09819556990754677,48.735256003032696,3.303630694014107,-0.7932979730026237,0.008741243104378264,0.37588515361252156,0.18912614898391802,0.0,0.07447164975472184,-1.1117676173633269,1.7079301241560039,-2.3432106321836903,-1.0418192674597104,-0.3721514827045827,8.13293292218581,0.48267900991626567,-0.2062331796523948,0.2,333.9436657488424,454.74801352962925,1004.5042355302888,878.4044366881047
0.34400000000000003,0.004935524159834244,3.7793887359309086,0.09928779442186976,48.21386734740156,3.168947465193531,-1.0479067327015166,0.008947468307011106,0.3833038533604703,0.19283396592137,0.0,0.08596837429235984,-1.1551612363363595,1.7363526938568554,-2.2740525725326366,-1.1443978002469164,-0.32888851912812733,8.215357522754857,0.49403956801986415,-0.16657392928417847,0.2,324.24809862292824,466.9028282150906,1003.2759573596118,882.5425880538045
0.34800000000000003,0.005243508401611868,3.770779363056195,0.10040557635382512,47.71678436951033,3.009312048332467,-1.31053759864121,0.00915564488101267,0.390761495764191,0.19656234703279937,0.0,0.09804950616886406,-1.1979066958228355,1.765130826205776,-2.1836311584222416,-1.24358186895777,-0.28364270343319553,8.28897889206207,0.4990512045665386,-0.12306915787509864,0.2,314.5301890576073,478.02918218430597,1001.0406202923409,887.5065077292977
0.35200000000000004,0.005556553159280562,3.761978178090341,0.10155272563094402,47.24803262565213,2.825356648744168,-1.579699829008411,0.009365741915569869,0.39825734503668786,0.20031091132639842,0.0,0.1106682040213171,-1.2398616921647168,1.794380068787604,-2.0747113465181295,-1.3382603070294152,-0.2368545810237285,8.353945987363108,0.4980470181010108,-0.07599163949320661,0.2,304.7778924813547,488.21250653057274,997.845956715447,893.2264258482242
0.35600000000000004,0.005873240414590084,3.75298503341457,0.10273287026258912,46.81107825409335,2.6181511324647713,-1.853669656039266,0.00957772880166279,0.40579067284496173,0.20407928165566652,0.0,0.12376775167931439,-1.2808996974882791,1.8241999875250727,-1.9498544249406198,-1.4267568438630065,-0.1888914674533752,8.410502181891788,0.4913852031551465,-0.02575347752352064,0.2,295.01560712022143,497.508528587999,993.7530858290855,899.618104951316
0.36000000000000004,0.006192018159207577,3.7437998924149483,0.10394938753787687,46.40876669224915,2.3890607491376836,-2.130633383299657,0.009791635390679487,0.4133592431119407,0.2078670846868438,0.0,0.13728004036868618,-1.3209096907737887,1.854675814891954,-1.8115908254052653,-1.5073744920643117,-0.14005325290566123,8.459036323565083,0.479531350711007,0.027998456123496357,0.2,285.01484064223126,506.1167952516844,988.7664042660494,906.6629216559245
0.36400000000000005,0.006511207439134533,3.7344227890561905,0.10520540987405953,46.04334751374504,2.139924428904318,-2.4084956222412153,0.010007430945547669,0.42096236045959073,0.21167395086659824,0.0,0.15112412020553026,-1.359796864138608,1.8858818933090506,-1.6624980386343502,-1.578309166594774,-0.09059186999632854,8.49993342444991,0.4629625072157501,0.0833279218949044,0.2,275.2272377918618,513.8381827003432,983.0895705077832,914.1244951705812
0.36800000000000005,0.006829017186340363,3.7248538307785033,0.10650379312364218,45.7164843970562,1.8729073183757015,-2.6850260318050014,0.010225085030037143,0.42859933661071925,0.21549951438996442,0.0,0.16520535881643997,-1.3974829306755936,1.9178850155061178,-1.5050888764267605,-1.6376917653490248,-0.040722479126791736,8.533650665413987,0.4421832544941643,0.14036175286990382,0.2,265.4966830053318,520.8294516857917,976.7507183319162,921.9646558068048
0.37200000000000005,0.007143561289549589,3.715093185026786,0.10784710515732071,45.4292886905802,1.5904103764028659,-2.9579247556754518,0.01044456750624541,0.436269490328543,0.21934341316853218,0.0,0.17941635824579183,-1.433905438336928,1.950743535380105,-1.3417320848333054,-1.6840360432941164,0.009379530698441975,8.560677256940856,0.4176978827817912,0.19861318247964893,0.2,255.85174453016197,527.1360888953669,969.8322946758891,930.0897147519959
0.37600000000000006,0.007452873952089529,3.705141045022979,0.10923763852870882,45.18228328910392,1.295231251309751,-3.224649531554976,0.010665848532102704,0.4439721473567279,0.22320528879888304,0.0,0.1936369640645359,-1.469017834829819,1.984509251815611,-1.1747445732982333,-1.715835964325242,0.059562250952045336,8.581485929358951,0.39008985870734747,0.25739745692737553,0.2,246.36596983169258,532.7790009632471,962.4425268050967,938.3831964843813
0.38000000000000006,0.007754933482809699,3.6949976218521834,0.11067740444111868,44.97549682955619,0.9903406646926998,-3.482605547315988,0.010889264270699153,0.4517049046240634,0.22708478653127295,0.0,0.20773426890203206,-1.50278877780922,2.0192285428971006,-1.0063072036597525,-1.7316442740983586,0.10970411769065899,8.5965704775073,0.3598725282719699,0.3204141041755742,0.2,235.55290543264564,538.4670533567629,954.2903953861502,947.1381979262261
0.38400000000000006,0.008047681668696184,3.684663122131566,0.11216814224541218,44.80837358504814,0.6790743019291585,-3.7289349243535366,0.011114781062515297,0.45946712254841804,0.23098155523855904,0.0,0.22156039973518848,-1.5352025023224738,2.0549409096154965,-0.8385574388492062,-1.72996245519576,0.15969554845190784,8.606414433140177,0.32769823565740214,0.3786308231946103,0.2,226.4625298497804,542.8834376979863,946.2459282398336,955.4764955408374
0.388,0.008329051315048228,3.6741377377629187,0.11371132552586626,44.679901837228684,0.3649483538239266,-3.960673206288391,0.011342365576307993,0.4672581681620622,0.23489524738536907,0.0,0.23495249097786472,-1.5662583789575844,2.091678366624919,-0.6735061127091004,-1.7093400357394128,0.20944158888525527,8.611497687435504,0.29410976864167954,0.4353649073227705,0.2,217.8195424207794,546.6805895622764,938.0645645546005,963.664297709665
0.392,0.008596994398184808,3.6634216314642516,0.11530817666194378,44.58869603004702,0.05151792351750538,-4.174847147515425,0.01157198480637103,0.47507741505508266,0.23882551899751156,0.0,0.2477344602927792,-1.5959691610511395,2.129466296279099,-0.5128203516216205,-1.6688910364898633,0.2588648634177618,8.612279095580202,0.259585869483423,0.4900481025857541,0.2,209.7480449674034,549.8695133122405,929.8469302572485,971.6194708926834
0.396,0.008849506806006189,3.6525149288924124,0.11695967397595489,44.53286567628257,-0.2574475485011531,-4.368281841926506,0.01180360606981688,0.4829242433192385,0.24277202963162442,0.0,0.2597183230060577,-1.6243603763531014,2.1683226459164855,-0.3581161065423907,-1.6078233986047887,0.30789975071590403,8.609211060148933,0.22478489374244462,0.5419185657099674,0.2,202.39320460988446,552.4565753849259,921.732001705759,979.2294827457514
0.4,0.009084658530531088,3.641417710262556,0.11866656787778046,44.5101018913971,-0.5580925562878263,-4.537691489403748,0.012037197003879464,0.49079803949225864,0.2467344423450612,0.0,0.2707028573263841,-1.6514711710349022,2.2082567926879264,-0.21109278265886822,-1.52520328769105,0.35649370066922326,8.602721044067007,0.1902999967963432,0.5902624699217619,0.2,195.92077362134629,554.4427213641345,913.8525934306732,986.3944972366812
0.404,0.009300624146296167,3.6301300014920472,0.12042940166641601,44.51777006641424,-0.8465710581685687,-4.679756420330383,0.012272782811882833,0.49869593865818274,0.2507124236660123,0.0,0.2804727403912838,-1.6773546852308319,2.249269229694426,-0.0732121409704992,-1.420462916397314,0.40458795536489944,8.593201605290904,0.15664633980549564,0.6351067627738542,0.2,190.20547879442557,555.9287470968635,906.2676008071317,993.0875679556707
0.40800000000000003,0.009495714288692286,3.618651764083938,0.12224853879364114,44.55309029895495,-1.1192402884870805,-4.791273862905882,0.01251033107425061,0.506617367256726,0.25470564356386005,0.0,0.2888048572591012,-1.7020739915801653,2.291353729799312,0.05454451044047435,-1.2937642349676033,0.4521488263999416,8.580996619061796,0.1241525018787504,0.6747033184839213,0.2,186.00326308732016,556.708021936951,899.1890869738478,999.1441374115848
0.41200000000000003,0.009668403643410508,3.6069828995614706,0.12412417216398242,44.613090326815716,-1.3725811138541102,-4.869071751013693,0.012749809689792977,0.5145617577632674,0.2587137754197653,0.0,0.2954720613559091,-1.7256995020589962,2.334497195173147,0.17155378548168718,-1.1457561057150263,0.49915799174482717,8.566436866676845,0.09321389935585156,0.709155930766947,0.2,183.2098948981431,556.8694470323527,892.6626684906543,1004.5555200179675
0.41600000000000004,0.009817359171268457,3.5951232483176057,0.12605634387988177,44.69466494649386,-1.6032460780106943,-4.910045719520124,0.012991186873041677,0.5225285486368528,0.26273649599748455,0.0,0.3002440814401444,-1.748308318288765,2.3786771692988102,0.2772023159446938,-0.9770431896059474,0.5456021081273008,8.549818540530637,0.06417179269129886,0.7379748364972717,0.2,181.9844282837789,556.3983475173885,886.7861690914335,1009.2654405332188
0.42000000000000004,0.009941467283916228,3.5830725904384666,0.1280449648469858,44.79463601787637,-1.8081031849737945,-4.911196990899351,0.013234431151605639,0.5305171842686062,0.26677348541441526,0.0,0.30288778010545686,-1.7699840341164983,2.4238615400819974,0.37101370888555585,-0.7884058933861116,0.5914707644636521,8.531402898706569,0.03730863160279292,0.7607166082495811,0.2,182.45545894814126,555.2750145197446,881.6478614855376,1013.225725332996
0.42400000000000004,0.010039859601204985,3.5708306464561037,0.13008983626330095,44.9098358821319,-1.9842865758840695,-4.869683190867907,0.013479511363547051,0.5385271149305467,0.2708244271128679,0.0,0.3031696085718416,-1.790815238016118,2.4700084878059245,0.45273478614161944,-0.5809151856889773,0.6367626542165462,8.511411816728787,0.012816662371969156,0.777000034111978,0.15145452341552695,350.50750811921716,628.5433766028423,825.2006225913751,971.7678605068928
0.42800000000000005,0.010111937497316018,3.5583970873368034,0.13219066637694873,45.03723181081531,-2.12911876954499,-4.783017843392726,0.013726396654777755,0.5465577967248084,0.27488900783156306,0.0,0.30085985412271654,-1.8108924798746062,2.5170658858447283,0.5224330517640321,-0.35597212024562686,0.6811512343125069,8.490036704967771,-0.009255697262498142,0.7863580853296475,0.09734565399567188,472.57408347765966,700.8248896073736,758.9531202596885,922.0732478450101
0.43200000000000005,0.010157408740068513,3.5457718219572203,0.13434689082524826,45.17397004526516,-2.239510866272815,-4.649287941739098,0.013975092757281872,0.5546057709558496,0.2789669175773519,0.0,0.29573985094569116,-1.8302985245942698,2.564937645518488,0.5804498559349036,-0.11474379264109431,0.7229893963854443,8.467836609275,-0.028918565409113403,0.7878914278114433,0.039141971989531926,576.360062146787,770.5659090510359,682.1423947523037,864.1948747473424
0.43600000000000005,0.010176331799419234,3.5329552417845003,0.13655747003036592,45.317554882596205,-2.3121938678682117,-4.466812461551398,0.014225568988264433,0.5626705403873568,0.2830578495971585,0.0,0.2876029876495358,-1.8491034287058554,2.613451668587151,0.6274987046024031,0.14216318767105565,0.7600268509498955,8.445790503020344,-0.046401430770515256,0.7795729957859835,-0.02296737043901606,670.4634419554898,837.9795213173178,591.240592571667,796.3909253409829
0.44000000000000006,0.01016921875704624,3.5199489315842607,0.13882016354417767,45.46589414185048,-2.343224082105786,-4.2341426650030405,0.01447779496903938,0.5707516131452246,0.28716150035014193,0.0,0.2762522832007778,-1.867365656169164,2.6622725624933157,0.6646859667904075,0.41515147105242256,0.7899792318469618,8.426365287419404,-0.06200961672092303,0.7592755273395102,-0.08878345724550141,758.5808632307425,903.1934735990177,479.06275126216804,715.9315753080472
0.44400000000000006,0.010137034887437812,3.50675549207596,0.14113166972624394,45.61709124259336,-2.328701998062989,-3.9498579680558334,0.014731740622473899,0.5788485026709176,0.29127756948007694,0.0,0.26149636675084964,-1.8851449610014215,2.7109617078838757,0.692934004914263,0.7046000356715052,0.8110441449047363,8.411782720936547,-0.07583178324405133,0.7263759605982083,-0.1583363944146168,842.7364185300925,966.6516926574134,324.3876169688597,617.8261715588469
0.44800000000000006,0.01008111310352768,3.4933776755522086,0.14348845456974382,45.76929160780699,-2.2649156162784014,-3.613223493779089,0.014987376170452548,0.5869607276751989,0.29540575978795147,0.0,0.24315711668081758,-1.902510448871856,2.759150569772414,0.7123775487103347,1.009595680938228,0.8221143838517557,8.402616333304348,-0.08778928157108537,0.6814036001322221,-0.2,892.1341862906509,1000.2466129226718,185.72084747299934,547.3531528519329
0.452,0.01000323822946118,3.4798192153966028,0.1458858912134195,45.92028948022249,-2.1478583737445383,-3.2240867526058747,0.015244672131361069,0.5950878120922252,0.2995457772047791,0.0,0.22108578247437388,-1.9195550984494356,2.806494954155306,0.7218885806009246,1.3283552733417714,0.8215091490988465,8.401193494767478,-0.09734590718089153,0.6224206263132639,-0.2,898.7062496544161,994.3040526370263,207.2873552160357,539.4779316497966
0.456,0.009905592893999102,3.4660844692524426,0.14831859447499524,46.0672182747212,-1.9740486032922797,-2.78221513591576,0.015503599317589717,0.6032292850340046,0.30369733076462546,0.0,0.19516521911752827,-1.936413336780183,2.852571812100657,0.7189387773828375,1.6593541178720073,0.8083713804825148,8.409197535396231,-0.10357831557211208,0.549958040143119,-0.2,906.3488070360658,987.5795980807258,233.69911750352088,529.0154621089487
0.46,0.009790467158587566,3.4521752273629396,0.15078372290896522,46.20821877887086,-1.7423173173940336,-2.2884397667717327,0.015764128833055942,0.6113846807452143,0.30786013257784617,0.0,0.16531393168404981,-1.9532413586070803,2.897361262550948,0.7028513991821228,1.997751392020098,0.7846074020995304,8.421634443944535,-0.10746398382330205,0.4694590153417693,-0.2,914.5345893339156,980.3752000527526,261.11574524349294,516.7384538273158
0.464,0.009660330812869784,3.438090877719286,0.15328086493148127,46.3426340294904,-1.4533317696483445,-1.7449619994481964,0.01602622263757321,0.6195498651064277,0.3120338978045354,0.0,0.13151597264633014,-1.9701722233122367,2.941361627065195,0.6762401226855358,2.3347946390451235,0.753331228095037,8.433660284561087,-0.11027554124977368,0.3818701915561462,-0.2,923.2028518534561,972.5784927955496,288.34426713238554,502.75344657395055
0.468,0.009517974395079301,3.423829505806754,0.1558109576714741,46.47062935447328,-1.1092543136064568,-1.15513186505795,0.01628985252429594,0.6277244267072077,0.3162183446281834,0.0,0.09385015598190324,-1.9872912788236197,2.9851227731644165,0.6430932468955779,2.660854972275769,0.7164813676006804,8.442547914786896,-0.11292368170353062,0.2873248681947346,-0.2,932.3692093094784,964.0642710123406,315.0215364571601,487.01612580117825
0.47200000000000003,0.009366582539836231,3.409388621412193,0.15837557734815033,46.592846987924354,-0.7134659765055849,-0.523282141185217,0.016554990569561747,0.6359079587364619,0.320413194229541,0.0,0.05248736166822837,-2.0046529281151946,3.0288822095439176,0.6061315853273002,2.968088589256573,0.6754019178153758,8.44696742624297,-0.1159721275775769,0.1860866894071861,-0.2,942.0259253197556,954.7658933109672,341.01087877789666,469.46070088010447
0.47600000000000003,0.00920975205856463,3.394765624846449,0.16097648234357537,46.710047799343315,-0.27006363337724726,0.1457185915829694,0.016821609130498485,0.6441000589418955,0.32461817076069005,0.0,0.00767581387433422,-2.022296586662951,3.072654823061936,0.5668288425565785,3.25062963381868,0.6311227554663628,8.446495914523318,-0.11959929716779365,0.07859734740835883,-0.2,952.1277612139884,944.677671465261,366.29597436372546,449.97938832306505
0.48000000000000004,0.009051478238272995,3.37995806521662,0.1636153661350334,46.82295063610134,0.2163067471963416,0.8465919074938831,0.017089680842649908,0.652300329589787,0.3288330013193179,0.0,-0.0402755705955387,-2.0402587654661444,3.1163228490136468,0.5257225120024465,3.50451747129733,0.5844357121183563,8.44120613035054,-0.12380464753207958,-0.03449643960220167,-0.2,962.6038746413196,933.8348685266869,390.8737745547833,428.4419302861404
0.48400000000000004,0.008896119187396967,3.3649637744729435,0.16629373188437865,46.93212889457045,0.7406063462184445,1.5737681028694,0.017359178617619802,0.6605083774250836,0.33305741592319477,0.0,-0.09101029158122484,-2.058579948416581,3.15970235087213,0.4828746326721965,3.726990294510685,0.5359732822810337,8.43142745071573,-0.12846448676274874,-0.15242969280896795,-0.2,973.3684673187507,922.2991165451324,414.74840831797934,404.6685130565138
0.48800000000000004,0.008748346052351594,3.349780920493821,0.16901284502674066,47.03794314891506,1.2976305650872946,2.3215928026298602,0.01763007564073445,0.6687238136318143,0.33729114748485184,0.0,-0.14413430652853904,-2.0773070189731295,3.2025884126276187,0.43814951511907585,3.9162904447547504,0.4862402800954765,8.417591576176486,-0.13336690543120044,-0.27448471887667747,-0.2,984.3371197581348,910.1390104510302,437.9497801640088,378.3696444538054
0.49200000000000005,0.00861309223324555,3.33440805801453,0.1717736898166356,47.14052970313625,1.881774287481299,3.0840508359805696,0.017902425082492696,0.6769408280840866,0.3415339317864596,0.0,-0.1992188711045976,-2.096493368051013,3.244779016147864,0.39138646640559605,4.070809967565521,0.4356504140241711,8.400226011196608,-0.1382723244009382,-0.39867883824508454,-0.2,995.3184769626412,897.5511207114329,460.27019968482705,349.4270199440103
0.49600000000000005,0.00849549318821159,3.3188441438432883,0.17457695707230744,47.23976322461957,2.486974679318908,3.8546678903841354,0.018176199709290915,0.6851591060304336,0.3457855074549037,0.0,-0.2557948216875684,-2.1161976587239817,3.2860887719565732,0.3424982662270557,4.188228053931757,0.3845521705020279,8.37989213280714,-0.1428822895510784,-0.5255150811063778,-0.2,1006.3377961060834,884.5065357493273,481.9924439647072,316.9256533118377
0.5,0.008400821467671881,3.3030885367002707,0.1774230449080636,47.33522193602145,3.106630787114858,4.626403416245956,0.018451372563022064,0.6933783364509204,0.3500456159370582,0.0,-0.31333879039207513,-2.136482010703017,3.3263624299017645,0.291472353458679,4.2655449434624115,0.3332480122958349,8.357159222740266,-0.1468397213677482,-0.6525908375147604,-0.2,1017.1682832760766,871.2672519836415,502.860158584657,280.28666736293775
0.504,0.00833441771867699,3.2871409136278302,0.18031213965595208,47.42617800211983,3.7340745274952423,5.39209204918648,0.018727916958740213,0.7015982120235621,0.35431400147525305,0.0,-0.37128002698695983,-2.1574104010666613,3.365493394665317,0.23835030124706735,4.300512672097477,0.28196452049292575,8.33244169929028,-0.14975574870125793,-0.7787876440306252,-0.2,1027.695435260262,857.9827060689729,522.8670174700297,237.89352181489568
0.508,0.00830161767884261,3.271001331602627,0.18324415070137523,47.51160542329762,4.362102690919693,6.143936561980093,0.01900580648234327,0.7098184290910123,0.35859041108293643,0.0,-0.42900245369757756,-2.1790468213402923,3.4034224618136646,0.18329657778697683,4.290996453193916,0.23088546666350812,8.306293022185425,-0.1512292807896051,-0.9023292930731301,-0.2,1037.755517845172,844.8824180547158,541.9046692325159,186.52924363585413
0.512,0.008307684844444241,3.2546701276238883,0.18621880475813637,47.59019359375263,4.983391987183722,6.873937715099031,0.019285014988273768,0.718038687627519,0.36287459452052867,0.0,-0.48584901232890515,-2.201452587475443,3.4401420050348657,0.12661685437970857,4.234954143750413,0.18017423723022596,8.27908418571871,-0.15085395376037034,-1.0,-0.2,1045.4220615629476,834.4244148031246,556.5615863739348,130.77310696879024
0.516,0.008357739611932858,3.2381478757322024,0.18923568129965612,47.660408658485935,5.59073070456665,7.574056323434634,0.019565516597237563,0.726258691206146,0.36716630427146707,0.0,-0.5411321983649322,-2.2246836112416024,3.4757056147790664,0.06874844377777435,4.131516479975817,0.12989768884767183,8.251120138281795,-0.148274675262617,-1.0,-0.2,1044.8181722556649,834.2006843032574,556.2261024974978,125.854407071884
0.52,0.008456672035873674,3.221435453585463,0.19229412983042027,47.72060942679904,6.176695804003574,8.235994731696852,0.0198472958484226,0.7344749381904423,0.37146529551844043,0.0,-0.5941451387147922,-2.248787108367046,3.5102126317687246,0.010408076148972083,3.98026821627672,0.08016560158208277,8.222878460280427,-0.1432553717488276,-1.0,-0.2,1044.0086883675378,834.2240819611884,556.2611925449426,118.94729963582228
0.524,0.008609144827047048,3.204533683516765,0.19539364417407712,47.768912093661655,6.734905899808854,8.852601972278185,0.020130327266069184,0.7426871778746486,0.3757713261198114,0.0,-0.6441890583165224,-2.273798046587877,3.543836111238395,-0.04795796227172844,3.7833559878498297,0.031188110693602666,8.19408447916645,-0.1353935147930419,-1.0,-0.2,1042.9560264416327,834.5313349242587,556.7218734502886,109.3233360022803
