Time_s,X,Y,Z,Roll_deg,Pitch_deg,Yaw_deg,Ref_X,Ref_Y,Ref_Z,Ref_Yaw,vx,vy,vz,p,q,r,T_pert,tau_x,tau_y,tau_z,RPM_0,RPM_1,RPM_2,RPM_3
0.0040000000000000036,-3.459831812988452e-21,1.3845579627174353e-21,0.01003899776487431,-5.652902205509872e-18,-2.061396875136395e-17,1.233015104013424e-19,-9.459473143944068e-26,4.9703701911391544e-26,7.200000000000012e-05,0.0,-1.1987511989491296e-19,2.4921196140253246e-20,0.0009999428386350817,0.0,0.0,0.0,-10.19,2.2734670455317303e-17,6.438771370856482e-17,-1.4403566179766144e-19,0.0,0.0,0.0,0.0
0.008000000000000007,-3.789001476615313e-21,1.5658424337073586e-21,0.010042997536228851,-5.845875328636698e-18,-2.2529224215816874e-17,1.5969053224878205e-19,-2.8264565213071696e-25,1.4851287197796912e-25,0.00021513340800000038,0.0,-1.216284466907534e-19,3.514650864305478e-20,0.0009999428386350817,0.0,0.0,0.0,-0.035358528292860236,-1.2235424334071983e-17,-2.9895836630632056e-17,-4.757989657430103e-20,534.6547536657641,534.6547536657642,534.6547536657641,534.6547536657642
0.011999999999999997,-4.017626762155164e-21,1.7244243464610426e-21,0.010046997308222526,-6.974113371159942e-18,-2.3257797554591754e-17,1.85852537017319e-19,-5.630245179696606e-25,2.958346874517474e-25,0.00042854147030131173,0.0,-8.817902507213123e-20,3.0054300003441236e-20,0.0009999429025485396,0.0,0.0,0.0,0.11166108760121585,1.6370150490513574e-18,1.586072849610784e-18,-3.7138522267362725e-20,538.6605971018456,538.6605971018457,538.6605971018456,538.6605971018456
0.016,-4.041593575961846e-21,1.4182353549020372e-21,0.010050997089017636,-5.5478736764009366e-18,-2.272486954601446e-17,2.1498384191872376e-19,-9.346132999753317e-25,4.910816930024841e-25,0.0007113732083620773,0.0,-3.7942766348566115e-20,3.756348295646952e-21,0.000999943846605525,0.0,0.0,0.0,0.2591946972927391,-6.4312518747126505e-18,-1.1131914859611945e-18,-4.169440541645434e-20,542.6507197799598,542.6507197799598,542.6507197799598,542.6507197799598
0.020000000000000004,-4.161958798551732e-21,1.1074593134468125e-21,0.010054996887599279,-4.237884818053707e-18,-2.32374048341061e-17,3.3015906785904787e-19,-1.3963041019575763e-24,7.336717574570554e-25,0.001062785356130613,0.0,-2.4392070676181656e-20,-5.604292062779092e-20,0.0009999465693157766,0.0,0.0,0.0,0.4072311012873976,-1.4168572726177455e-18,3.4265342685871284e-18,-1.4341854512814954e-19,546.6251663756286,546.6251663756287,546.6251663756286,546.6251663756286
0.024000000000000007,-4.2673063396607175e-21,1.1182825950139507e-21,0.010058996708188644,-4.018851510429543e-18,-2.4458978382686043e-17,3.6267750718245245e-19,-1.946999078807804e-24,1.023028030866295e-24,0.0014819422978531054,0.0,-1.9458593481593313e-20,-4.879995326210527e-20,0.0009999511367708713,0.0,0.0,0.0,0.5557592276718687,3.5626033885749306e-18,3.0898978598988728e-18,-5.161486271247015e-20,550.583982321145,550.5839823211451,550.583982321145,550.583982321145
0.027999999999999997,-4.290481506213935e-21,1.2180595918044488e-21,0.01006299655197754,-4.604409160835132e-18,-2.4546904846569838e-17,4.403293085254488e-19,-2.6323315835259462e-24,1.348903213025903e-24,0.0019680160063522034,0.0,-2.713704688617453e-20,-6.886273374551798e-21,0.0009999566248149183,0.0,0.0,0.0,0.7047681164370598,2.0459497457313566e-18,1.0734849534321184e-18,-1.056983979111917e-19,554.5272133778963,554.5272133778964,554.5272133778963,554.5272133778964
0.032,-4.349267529578017e-21,1.0830350328596153e-21,0.010066996418427466,-3.9097811265189955e-18,-2.5227780331954873e-17,3.4400144478769275e-19,-3.450661293807422e-24,1.7108473455243196e-24,0.0025201859817730854,0.0,-1.3722311371405334e-20,-3.0430451892190824e-21,0.0009999623420482023,0.0,0.0,0.0,0.8542469193180923,-3.102858823872932e-18,3.0943611762698977e-18,9.431798865218152e-20,558.4549056333003,558.4549056333004,558.4549056333003,558.4549056333003
0.036000000000000004,-4.426473711070931e-21,1.0332675351504705e-21,0.010070996306307919,-3.4342424949515404e-18,-2.593921751682706e-17,3.3794030508911995e-19,-4.4003627833159004e-24,2.108414570968708e-24,0.003137639190793573,0.0,1.443137594424573e-23,-1.295447539641321e-20,0.0009999679105447343,0.0,0.0,0.0,1.0041848993013796,6.410800770615267e-19,3.024930194144678e-18,-7.196302655613674e-21,562.3671054893111,562.3671054893113,562.3671054893111,562.3671054893113
0.04000000000000001,-4.444101222708434e-21,1.0456907327408452e-21,0.01007499621388197,-3.6864045780010394e-18,-2.6128121416642788e-17,4.007669284730815e-19,-5.479825401447034e-24,2.541163099823601e-24,0.0038195700062949463,0.0,-1.0959941016383938e-20,-6.3193845044642065e-21,0.0009999731444309753,0.0,0.0,0.0,1.1545714313491033,1.2618792449051909e-18,1.5896979341297272e-18,-8.7442805930856e-20,566.2638596829321,566.2638596829321,566.2638596829321,566.2638596829321
0.044,-4.5244473194889004e-21,1.0567404566693e-21,0.01007899613915605,-3.751098601535054e-18,-2.6437124224743665e-17,2.9827997862320397e-19,-6.687453154003094e-24,3.0086551775010315e-24,0.004565180147490074,0.0,-1.188575475071021e-20,2.2727648507133344e-21,0.0009999779375645737,0.0,0.0,0.0,1.3053960012975638,3.739526257027061e-19,3.1376810606656187e-18,1.0306174647658579e-19,570.145215259148,570.145215259148,570.145215259148,570.145215259148
0.048,-4.521331562925581e-21,1.0702435971222983e-21,0.010082996080183943,-3.736304501843366e-18,-2.6546770461157756e-17,4.1811716455822857e-19,-8.021664584771898e-24,3.5104570517003365e-24,0.005373678620505554,0.0,-1.037930379180192e-20,-9.275055197606177e-22,0.000999982243910305,0.0,0.0,0.0,1.4566482047813418,3.319410579650735e-19,1.2949300787583189e-18,-1.524603801124705e-19,574.0112195457046,574.0112195457048,574.0112195457046,574.0112195457046
0.052000000000000005,-4.4483778409114876e-21,1.0485351175857631e-21,0.01008699603528688,-3.616412343786844e-18,-2.6180927027945832e-17,3.536372564090598e-19,-9.493131671719518e-24,4.044846161309313e-24,0.006244281659414509,0.0,8.056679793952331e-21,-2.2960407067390092e-21,0.0009999860844116595,0.0,0.0,0.0,1.6083177464435798,-2.2569469115835075e-19,8.55660179714899e-19,5.79010412408231e-20,577.8619201362222,577.8619201362224,577.8619201362222,577.8619201362222
0.05600000000000001,-4.430398186265611e-21,1.0711580440756129e-21,0.010090996002873111,-3.748838143608425e-18,-2.6183592681520097e-17,4.276369773747265e-19,-1.1100154374156679e-23,4.611412221495099e-24,0.007176212667716818,0.0,1.2809938301381436e-20,2.1003172176524116e-22,0.0009999895050686464,0.0,0.0,0.0,1.760394439798938,9.607574350072279e-19,2.67509831036504e-18,-1.0124199934316171e-19,581.6973648904551,581.6973648904552,581.6973648904551,581.6973648904552
0.06000000000000001,-4.4431948402569966e-21,1.0837139472147562e-21,0.010094995981555567,-3.775035784636374e-18,-2.629365184763946e-17,6.377408873489345e-19,-1.2841048171880217e-23,5.2097487124726066e-24,0.008168702160263462,0.0,1.4012024828750691e-21,2.511231289781386e-21,0.000999992549422131,0.0,0.0,0.0,1.912868205698927,2.517346990223001e-19,2.5827934788461586e-18,-2.6330173560385907e-19,585.5176018997051,585.5176018997053,585.5176018997051,585.5176018997051
0.06400000000000002,-4.450846611639521e-21,1.0707160952587588e-21,0.010098995970115498,-3.675999675778859e-18,-2.626417154184934e-17,8.145886358350221e-19,-1.4714143939569977e-23,5.8394528489586594e-24,0.009220987705621776,0.0,-2.385859478926899e-21,1.3017180299942786e-21,0.000999995248624104,0.0,0.0,0.0,2.065729071712631,-7.854656234719821e-20,2.053408135546981e-18,-2.3312534555715186e-19,589.3226794763502,589.3226794763502,589.3226794763502,589.3226794763502
0.06800000000000002,-4.4331493668737226e-21,1.0431448578328692e-21,0.010103020878937188,-5.4499829701696764e-18,-2.8051935982419217e-17,1.1733780382990092e-18,-1.671778782213873e-23,6.5001255498582414e-24,0.010332313868878389,0.0,3.1887507325118646e-22,-4.00289397144878e-21,0.001002488804898241,0.0,0.0,0.0,2.218916612968207,2.21111719603129e-18,3.952752950401179e-18,-4.529807744664022e-19,593.1113996968088,593.1113996968089,593.1113996968088,593.1113996968088
0.072,-4.469419669370898e-21,1.0191697850007387e-21,0.010109042014367034,-6.397254992267023e-18,-2.9027406592546417e-17,3.397684576768341e-18,-1.885034111102814e-23,7.191371408181153e-24,0.011501932154876634,0.0,-1.4619841701051706e-21,-6.043325999916575e-21,0.0012046039678619697,0.0,0.0,0.0,2.368470031164447,1.5701658622397321e-18,4.049551736819856e-18,-2.647014747935372e-18,596.7870355464507,596.787035546451,596.7870355464507,596.7870355464509
0.076,-4.8908694311167385e-21,1.2911292352592622e-21,0.010121952664172767,1.9619365069419112e-17,-8.191554176303357e-19,4.765246630636418e-18,-2.1110180121443987e-23,7.912798661187425e-24,0.012729100951885333,0.0,-4.260686847638961e-20,2.1859323235127853e-20,0.002095669642035794,0.0,0.0,0.0,2.5083866092411493,-2.643789946861267e-17,-2.6036775802405035e-17,-1.7377761003836633e-18,600.2054426488659,600.2054426488659,600.2054426488659,600.2054426488659
0.08,-6.232450421169366e-21,1.5698278270066468e-21,0.010146457142166743,4.970655209939842e-17,1.1422623432166765e-16,5.4342514528181956e-18,-2.3508182199862384e-23,8.671989358153798e-24,0.01401308547569566,0.0,-1.8553241157040412e-19,5.996631866128978e-20,0.004097517162943848,0.0,0.0,0.0,2.6388843002410893,-3.610406779664166e-17,-1.228071391483653e-16,-9.782399666953688e-19,603.3762749494665,603.3762749494666,603.3762749494665,603.3762749494666
0.084,-8.40395068939756e-21,1.880695736283696e-21,0.010186840370785327,9.530642494321518e-17,3.3421500110353565e-16,6.751225161504327e-18,-2.6042603061392476e-23,9.468463006887661e-24,0.015353157714143138,0.0,-4.036077012997659e-19,8.24519418266596e-20,0.0072508602205659245,0.0,0.0,0.0,2.760654800638302,-5.600407437426834e-17,-2.535650232679872e-16,-1.7630209625051954e-18,606.3200982638725,606.3200982638726,606.3200982638725,606.3200982638725
0.08800000000000001,-1.0333154359137815e-20,1.9046889005308115e-21,0.010247010899438703,1.379452915874316e-16,6.133321100615568e-16,7.542081532056882e-18,-2.871171444148591e-23,1.030174353891645e-23,0.016748596372051536,0.0,-5.650029837132058e-19,6.646086608500525e-20,0.011453231504120198,0.0,0.0,0.0,2.8743159541046768,-5.941685706657125e-17,-3.4965683368572803e-16,-1.2029832195927249e-18,609.0550378669267,609.0550378669267,609.0550378669267,609.0550378669266
0.09200000000000001,-1.1429393904907815e-20,1.715029244406315e-21,0.01033053910781585,1.9830975356605022e-16,9.766765118780238e-16,8.155747128844125e-18,-3.1698921932032345e-23,1.119368954842294e-23,0.01819868681659564,0.0,-6.023893775006133e-19,3.768088803590877e-20,0.0166127818570767,0.0,0.0,0.0,2.9804201529910475,-8.251179810825731e-17,-4.745788933835759e-16,-1.02899802082696e-18,611.5971030466893,611.5971030466893,611.5971030466893,611.5971030466893
0.09600000000000002,-1.009363887554413e-20,1.0205432604414786e-21,0.010440676939796117,2.6639775684830215e-16,1.3773709037590715e-15,7.975133786743533e-18,-3.5000300840236684e-23,1.214356493962106e-23,0.01970272102307982,0.0,-4.599154679626043e-19,-7.843990886232954e-21,0.022645535937989774,0.0,0.0,0.0,3.079490604882798,-9.937023308140403e-17,-5.63025890586182e-16,-1.2692308371793137e-19,613.9611506271377,613.9611506271376,613.9611506271377,613.9611506271376
0.10000000000000002,-5.196695544664615e-21,-3.553583543689837e-22,0.010580352006762144,3.4701252460014813e-16,1.8342257095648574e-15,5.2375723972701804e-18,-3.861196225944634e-23,1.3150640364416425e-23,0.021259997521129354,0.0,-1.2952864873663433e-19,-8.324757598883684e-20,0.02947076000626957,0.0,0.0,0.0,3.1720727216426714,-1.2132790126676559e-16,-6.721636181967454e-16,2.866856361077474e-18,616.1621731235399,616.1621731235399,616.1621731235399,616.1621731235398
0.104,4.389462865437315e-21,-2.7512129611436985e-21,0.01075225676709368,4.3279356856167457e-16,2.385676561907178e-15,3.774569819848885e-18,-4.2355646308411557e-23,1.413259602333533e-23,0.022869821341291525,0.0,3.546037208074539e-19,-1.9713430073463314e-19,0.0370162655985308,0.0,0.0,0.0,3.2585413491603337,-1.3764759504734143e-16,-8.313239591765676e-16,1.4900175513012423e-18,618.2107779783797,618.2107779783796,618.2107779783797,618.2107779783795
0.108,2.087708850965912e-20,-6.502489736886147e-21,0.010958886734815146,5.200493195207419e-16,2.9947803918779233e-15,2.5243896177873158e-18,-4.6229633942949556e-23,1.5089698003164586e-23,0.024531503962043472,0.0,1.0207727992755932e-18,-3.532541289300021e-19,0.04522366513388162,0.0,0.0,0.0,3.3392013707053616,-1.5033288588354533e-16,-9.678497089337634e-16,1.3012194423434008e-18,620.1156649663294,620.1156649663293,620.1156649663294,620.1156649663292
0.112,-2.8981854504148547e-11,-2.8981927131219005e-11,0.011202580645225614,-2.8230208939069374e-06,2.8230051792988054e-06,1.1739619059412648e-06,-5.0232222056478597e-23,1.6022210092381985e-23,0.026244363257203765,0.0,-3.3196963335139617e-09,-3.3197052588035352e-09,0.054046376375614755,0.0,0.0,0.0,3.4142825171103217,2.9588082597143583e-06,-2.9587907511831183e-06,-1.3713731445523547e-06,621.8855718498409,621.8855718546926,621.8823609040585,621.8807211162558
0.116,-1.83476911499992e-10,-1.8348158438694607e-10,0.011485472619885626,-1.8558578692556515e-05,1.8558053800987778e-05,3.2339995937319834e-06,-5.43617233500787e-23,1.693039379923966e-23,0.028007723443744872,0.0,-2.4628385513504735e-08,-2.4628985338323366e-08,0.06343925359795104,0.0,0.0,0.0,3.484116684889869,1.708277351312683e-05,-1.7082230667091314e-05,-2.4547383844083833e-06,623.5269990689663,623.5269992189941,623.5245241377027,623.5150817677611
0.12000000000000001,-4.0483368693382757e-10,-4.0485472273155866e-10,0.011809560213498525,-4.569379628999778e-05,4.569143382578749e-05,5.734333837074349e-06,-5.861646620354244e-23,1.781450836971248e-23,0.029820915030003513,0.0,-6.656457872362981e-08,-6.656769420646474e-08,0.07335958157761886,0.0,0.0,0.0,3.548904276930595,3.206024080433949e-05,-3.205819970198449e-05,-3.0538919376681997e-06,625.0453601171829,625.0453606799169,625.0452683366661,625.0275905696798
0.12400000000000001,-5.841744409925326e-10,-5.842254507293857e-10,0.012176687067224842,-8.197262950511513e-05,8.19664131581225e-05,8.556015510538708e-06,-6.299479454740873e-23,1.8674810805312525e-23,0.03168327476428597,0.0,-1.1668848373514587e-07,-1.1669740424575795e-07,0.08376886915344126,0.0,0.0,0.0,3.60888534062724,4.583453170971763e-05,-4.583004035586302e-05,-3.532348652707888e-06,626.4476833273326,626.4476845628312,626.4499847626009,626.4247689111364
0.128,-5.787471719909407e-10,-5.788353658753617e-10,0.012588544987147371,-0.0001253021414431766,0.00012528952674286796,1.1600381481413996e-05,-6.749506773597237e-23,1.9511555880770588e-23,0.033594145583865524,0.0,-1.628747701298042e-07,-1.6289326904926235e-07,0.0946296751418974,0.0,0.0,0.0,3.664300697004562,5.830117346177356e-05,-5.829338017312163e-05,-3.908943777262477e-06,627.7403834074366,627.7403855468292,627.7450058106431,627.712998008436
0.132,-2.1897625622832564e-10,-2.1909203494645384e-10,0.013046672570867595,-0.00017375414228102556,0.00017373221345025976,1.478081757652187e-05,-1.9778363167499884e-14,-2.0545097522345896e-14,0.035552876564369104,0.0,-1.9930945424881464e-07,-1.9934129919557785e-07,0.10590383047209942,0.0,0.0,0.0,3.7153988798792628,6.946295797086264e-05,-6.945111529113272e-05,-4.19371652193963e-06,628.9299292395843,628.929932484456,628.9367735400228,628.8987106128502
0.136,6.857028214124492e-10,6.85598056878552e-10,0.013552520965339782,-0.00022548811380266204,0.00022545375310599702,1.8023145905641247e-05,-5.909703698479159e-14,-6.138801181287371e-14,0.037558822869550326,0.0,-2.2071498035873466e-07,-2.2076360059001042e-07,0.11755941752098416,0.0,0.0,0.0,3.762299935502805,7.9250686502895e-05,-7.923420496124109e-05,-4.397647274595786e-06,630.0197072711794,630.0197117792789,630.0286252191463,629.9852748988253
0.14,2.3396744378328132e-09,2.339661380685243e-09,0.01410742419133428,-0.0002788018423608892,0.00027875188540063057,2.1265658119199257e-05,-1.1772012231850477e-13,-1.2228369870617282e-13,0.03961134570144605,0.0,-2.2229159365858034e-07,-2.2235974882381959e-07,0.1295692389497958,0.0,0.0,0.0,3.8051870094447513,8.763967214536979e-05,-8.76180980945197e-05,-4.532260768533529e-06,631.0144951134132,631.014501005134,631.0253000048945,630.9774373521496
0.14400000000000002,4.9545899215925435e-09,4.954804738198921e-09,0.014712594238987187,-0.0003321475144735781,0.0003320788895800599,2.445585560610552e-05,-1.954138557993713e-13,-2.0298933268628278e-13,0.041709812250913796,0.0,-1.9975085380534688e-07,-1.9984032800940193e-07,0.14190489043386587,0.0,0.0,0.0,3.844257018953853,9.463356011003133e-05,-9.460658238673123e-05,-4.605781504063786e-06,631.9193098818482,631.9193172387246,631.9317938522323,631.8801866187172
0.14800000000000002,8.74418748508274e-09,8.744835280615777e-09,0.01536917188353802,-0.00038407803690192167,0.00038398791933187486,2.7550083857042304e-05,-2.9194659267521964e-13,-3.0326428898533816e-13,0.04385359564854689,0.0,-1.4923177781201839e-07,-1.4934304775749566e-07,0.15454082842883507,0.0,0.0,0.0,3.879607723971648,0.00010019350643590118,-0.00010016098508656751,-4.6263813764066915e-06,632.736808589836,632.7368174470113,632.7507311397292,632.696163528962
0.15200000000000002,1.3918263134528867e-08,1.3919630453561738e-08,0.016078207807232892,-0.0004332784553385257,0.00043316439486091853,3.0512801609112122e-05,-4.0708878972678247e-13,-4.2287012583708483e-13,0.04604207491596504,0.0,-6.723065776465508e-08,-6.73625480860895e-08,0.16745553291633294,0.0,0.0,0.0,3.9113775514900944,0.00010430909994176426,-0.00010427105781075794,-4.6017386457797055e-06,633.4705356843194,633.4705460330767,633.4856327699929,633.4288906631607
0.15600000000000003,2.0677389098794074e-08,2.0679855033044735e-08,0.016840666228277408,-0.00047856903067533557,0.00047842906235633575,3.3315467028750697e-05,1.0050570438677323e-14,-2.8315248913550276e-14,0.0482746349174772,0.0,4.937424799224811e-08,4.9224887268948035e-08,0.18062768654344094,0.0,0.0,0.0,3.9397005185167298,0.00010697909805447735,-0.00010693551285765354,-4.538561132672852e-06,634.1238819339352,634.1238937783794,634.1398711368166,634.0817378229416
0.16000000000000003,2.9208056910254187e-08,2.9212102284702097e-08,0.017657426197384547,-0.00051890787472949,0.0005187406079080781,3.593545256490594e-05,9.530690921175897e-13,8.74216209244393e-13,0.05055066631211418,0.0,2.0329191234918252e-07,2.031304919267474e-07,0.19403558512154934,0.0,0.0,0.0,3.964710849622151,0.00010823246273066175,-0.00010818385290878939,-4.442574460991548e-06,634.7001961767069,634.7002093746175,634.7167875771537,634.6580278322317
0.16400000000000003,3.967826120987067e-08,3.9684475416118226e-08,0.01852928009650653,-0.0005533947660742895,0.0005531994488165721,3.835582668896611e-05,2.4156222767050126e-12,2.2785960385294385e-12,0.05286956550602828,0.0,3.9681299508784137e-07,3.966474322288246e-07,0.20765779132682485,0.0,0.0,0.0,3.98654861340113,0.0001080943118562661,-0.00010804113672380553,-4.319490572134673e-06,635.2029206697568,635.2029350957552,635.2198156431596,635.1611786362037
0.16799999999999998,5.223404722852673e-08,5.224313279510457e-08,0.01945696123933417,-0.0005812562542380504,0.0005810328435660141,4.056394925298777e-05,4.391423056331381e-12,4.17875150081419e-12,0.05523073460525718,0.0,6.318154633138128e-07,6.31656434534479e-07,0.2214753371342289,0.0,0.0,0.0,4.005300707408116,0.00010659455315176935,-0.00010653741598478301,-4.173613278762909e-06,635.6342352475957,635.6342507379449,635.6511316576951,635.5933487626108
0.172,6.699593900805253e-08,6.700871298073084e-08,0.020441127509705028,-0.0006018534665914723,0.0006016026537915682,4.255176035179385e-05,6.874241331028193e-12,6.5686648829060376e-12,0.05763358136884956,0.0,9.097521854980823e-07,9.09613326712e-07,0.235470868958297,0.0,0.0,0.0,4.021089199567832,0.00010377572917640352,-0.00010371534263933775,-4.009759165596052e-06,635.9970986210848,635.9971149830241,636.013692553606,635.9574711183125
0.176,8.405631764101076e-08,8.407371022829817e-08,0.021482383942833378,-0.0006146827722073623,0.0006144060113863555,4.431480035103228e-05,1.1882454977753476e-11,1.13978326787513e-11,0.06007751916234955,0.0,1.2316125704221363e-06,1.2315106367194776e-06,0.24962838938396786,0.0,0.0,0.0,4.033992814220921,9.967483031585929e-05,-9.961121467354633e-05,-3.831787571983191e-06,636.2934424721823,636.2934597010308,636.3094293174674,636.2554562957348
0.18,1.0347705558279739e-07,1.0350010544598726e-07,0.022581274060638135,-0.0006193737092730165,0.0006190732115807586,4.5851521586830454e-05,1.9385578956351606e-11,1.8636809985344285e-11,0.0625619669116377,0.0,1.5978801650393844e-06,1.5978351168833983e-06,0.26393295669331507,0.0,0.0,0.0,4.044109625813885,9.440264772727478e-05,-9.433746936769718e-05,-3.642901320993349e-06,636.5256175073164,636.5256351529525,636.5407136306776,636.4896154720876
0.184,1.2528778888354317e-07,1.253176352921803e-07,0.02373828181965859,-0.0006156869301993616,0.0006153656444516782,4.7162961154468854e-05,2.935340423037688e-11,2.8256418485372983e-11,0.06508634905712558,0.0,2.008504923816824e-06,2.0085399430851104e-06,0.2783697751518001,0.0,0.0,0.0,4.05153579620899,8.801577411432438e-05,-8.795001162934353e-05,-3.446040467955625e-06,636.6959065027254,636.6959243017392,636.7098351357661,636.6622081932055
0.188,1.4948474515591202e-07,1.495226169549281e-07,0.024953834367041065,-0.0006035110924666735,0.0006031726610903281,4.825234557563622e-05,4.1755995542574306e-11,4.022774429861016e-11,0.06765009550830155,0.0,2.4628731568333802e-06,2.463014556135908e-06,0.2929241173256797,0.0,0.0,0.0,4.056363872107652,8.060189852609926e-05,-8.053657336520592e-05,-3.243789467970666e-06,636.8064878758274,636.8065055534066,636.8189883983033,636.7753822336507
0.192,1.7603016473186628e-07,1.7607736628527262e-07,0.026228303898844934,-0.0005828527610692699,0.0005825014540507675,4.91240147745013e-05,5.6563689207198585e-11,5.4522135849568043e-11,0.0702526415986251,0.0,2.959789443934905e-06,2.960066468823748e-06,0.3075818648610082,0.0,0.0,0.0,4.058684518558627,7.22509744657512e-05,-7.218712361508223e-05,-3.037565940186937e-06,636.8594764407841,636.8594937179639,636.8703081999622,636.8312246620513
0.196,2.0485226079182213e-07,2.0491015521424558e-07,0.027562008945451615,-0.0005538221114588784,0.0005534627456935307,4.978471267371417e-05,7.6893483465119e-11,7.415047811212048e-11,0.07289342804076722,0.0,3.4975010127853345e-06,3.497945520961019e-06,0.322329348609631,0.0,0.0,0.0,4.058587621927993,6.301413841868694e-05,-6.295154415826099e-05,-2.830341146836789e-06,636.8569544726544,636.8569714098849,636.8658817008829,636.8317965149444
0.2,2.3584516536798014e-07,2.359151553725243e-07,0.028955221083283432,-0.0005166694391025567,0.0005163072819526848,5.024254424106827e-05,1.0267838123662271e-10,9.90480570574069e-11,0.07557190088219416,0.0,4.073600292810578e-06,4.074246326142507e-06,0.337153755584394,0.0,0.0,0.0,4.056151235643714,5.3095651203087526e-05,-5.303648531019001e-05,-2.6239672024600185e-06,636.8007165701987,636.8007325811694,636.8075529361715,636.7788320206502
0.20400000000000001,2.688701110782699e-07,2.689536179600449e-07,0.030408164676054283,-0.0004717468505301242,0.0004713875261485091,5.0505676907654656e-05,1.3385199302322694e-10,1.2915074553239244e-10,0.07828751146109222,0.0,4.684979882779111e-06,4.685863165326773e-06,0.3520430782325315,0.0,0.0,0.0,4.051455512401121,4.2576582789881356e-05,-4.252180534162555e-05,-2.418835727382866e-06,636.6925896908384,636.6926045167629,636.6971690874964,636.6741363236264
0.20800000000000002,3.0375694171131517e-07,3.0385538270917876e-07,0.03192101910271683,-0.0004194860160804353,0.0004191353991520906,5.0583939291386654e-05,1.7034853200672616e-10,1.6439499852593564e-10,0.08103971636263091,0.0,5.327918923076132e-06,5.32907629537997e-06,0.36698575594975735,0.0,0.0,0.0,4.044577665111893,3.155677093210819e-05,-3.150728204265548e-05,-2.217209038952616e-06,636.5343243504881,636.5343377483551,636.5365005584374,636.5194273880268
0.21200000000000002,3.403053413176125e-07,3.404201055826559e-07,0.033493919250907236,-0.0003604370235384165,0.000360101103343052,5.0487143197104944e-05,2.1210280918535423e-10,2.0471784847070603e-10,0.08382797737556208,0.0,5.998045919968648e-06,5.999514626978264e-06,0.38197051059457326,0.0,0.0,0.0,4.035595415570149,2.0184588972354444e-05,-2.0141186105000682e-05,-2.0194581851408914e-06,636.3276696457223,636.3276813997686,636.3273348833164,636.3164140531051
0.21600000000000003,3.782875097007145e-07,3.784199338610214e-07,0.03512696008152289,-0.0002952130616341564,0.0002948978196443425,5.022618176067914e-05,2.649346860030204e-10,2.5574150838347665e-10,0.08665176144915256,0.0,6.690360621475722e-06,6.692177486722017e-06,0.39698664204489337,0.0,0.0,0.0,4.024578715783102,8.503404494232498e-06,-8.464450245918964e-06,-1.8272370144737064e-06,636.0741885441018,636.0741990976097,636.0712413540937,636.0666443749724
0.22000000000000003,4.174501211492124e-07,4.176014645378354e-07,0.03682019345264674,-0.00022453123888705901,0.00022424250144709924,4.981163843710577e-05,3.2870932931649074e-10,3.173357316928746e-10,0.08951054065044778,0.0,7.399173802445776e-06,7.401374283645799e-06,0.4120237031193047,0.0,0.0,0.0,4.011605311721584,-3.202917307384905e-06,3.2346871977205385e-06,-1.640619617031028e-06,635.775613831503,635.7756224426627,635.7700288009394,635.7717737125408
0.22399999999999998,4.575177702731128e-07,4.5768919117746134e-07,0.03857363586459678,-0.00014915216137348063,0.00014889549849423235,4.925485947367901e-05,4.0329313004065515e-10,3.893714542461002e-10,0.092403792121864,0.0,8.11822923776628e-06,8.120846518898216e-06,0.4270717865658796,0.0,0.0,0.0,3.996738679463248,-1.4885709669888099e-05,1.4909863918677653e-05,-1.4609209235176647e-06,635.4333442065415,635.4333507570246,635.4251047586148,635.4331851873504
0.22799999999999998,4.981952166268416e-07,4.983877489306825e-07,0.04038725575053998,-6.995209450139812e-05,6.973266885995894e-05,4.856821344688329e-05,4.885536932697614e-10,4.717207847662175e-10,0.09533099803910688,0.0,8.840574505917428e-06,8.84363851240402e-06,0.44212052006929436,0.0,0.0,0.0,3.980069290376637,-2.635781431155248e-05,2.6374094979705323e-05,-1.2897911595934102e-06,635.0493945196054,635.0493989374913,635.0385295749275,635.0528388723944
0.23199999999999998,5.39171472443511e-07,5.393860039589327e-07,0.04226098348893555,1.2138302097307707e-05,-1.231587401572279e-05,4.7762323859725395e-05,5.916969474309147e-10,5.713532238599794e-10,0.09829164556941344,0.0,9.558545351744927e-06,9.56208165093182e-06,0.4571594122173678,0.0,0.0,0.0,3.9616689014793733,-3.7554806641820464e-05,3.7565947682872454e-05,-1.1256906306088096e-06,634.6253398426641,634.6253428678924,634.6118998197782,634.6322981460337
0.236,5.801241976325151e-07,5.803614510600315e-07,0.04419472491019331,9.620033868151986e-05,-9.633207761266608e-05,4.684755445831169e-05,7.125045870757806e-10,6.880577874566946e-10,0.10128522683011582,0.0,1.0264024946982086e-05,1.0268053673058367e-05,0.47217972647804746,0.0,0.0,0.0,3.9415831441836464,-4.8235646658162396e-05,4.823908859718952e-05,-9.687438098773982e-07,634.1621527770119,634.1621537123157,634.1462528745928,634.1724687867163
0.24,6.207232473354779e-07,6.209837639254029e-07,0.046188358853976756,0.0001813159179942925,-0.0001813985486354384,4.583475717037473e-05,8.507602905035273e-10,8.216254086980383e-10,0.10431123884752388,0.0,1.0948826898083156e-05,1.0953361959147752e-05,0.4871747455875835,0.0,0.0,0.0,3.9198634626473927,-5.8390772425600114e-05,5.838672666220115e-05,-8.199389382549586e-07,633.6609356798771,633.6609345796222,633.6426906762192,633.6744487126116
0.244,6.60633925032448e-07,6.609180506841471e-07,0.0482417241808849,0.0002665246535872106,-0.0002665557000234132,4.4734071921683204e-05,1.006249703743437e-09,9.718489224579102e-10,0.10736918351612454,0.0,1.1604551947398003e-05,1.1609600255304834e-05,0.5021365271552631,0.0,0.0,0.0,3.896588593614112,-6.788287408831823e-05,6.787172122911356e-05,-6.788830562952064e-07,633.123416108683,633.1234130730617,633.102979198425,633.1399294409742
0.248,6.995213820750088e-07,6.998292568482595e-07,0.05035463591973605,0.0003508858638171271,-0.0003508637182284366,4.3555794213324114e-05,1.1787604246588867e-09,1.1385230499795927e-09,0.11045856755809541,0.0,1.2222616561076465e-05,1.2228177274247333e-05,0.5170571114247854,0.0,0.0,0.0,3.871805848795686,-7.662752745949456e-05,7.660980631343255e-05,-5.461681428158376e-07,632.5505960301181,632.5505912023508,632.5281417480178,632.5698882593016
0.252,7.370540657267223e-07,7.37385616542512e-07,0.05252687032211131,0.0004334423563741888,-0.0004333663655909269,4.230945965939227e-05,1.3680819871718172e-09,1.3214443836293532e-09,0.11357890248313054,0.0,1.2794269578222028e-05,1.2800333257992075e-05,0.5319284825320593,0.0,0.0,0.0,3.8455937028051164,-8.450620086624595e-05,8.448263461888225e-05,-4.21323879078755e-07,631.9441945413382,631.944188115031,631.9199313106948,631.966013161057
0.256,7.729079694740507e-07,7.732629070541896e-07,0.05475818340653243,0.0005132763121704727,-0.0005131468118532529,4.100462905716098e-05,1.5740058456068083e-09,1.5204113717656433e-09,0.11672970454857585,0.0,1.3310807440565379e-05,1.3317355383822444e-05,0.5467433174593369,0.0,0.0,0.0,3.8179943013548865,-9.145159382411102e-05,9.142305018177893e-05,-3.047664947544887e-07,631.305091636247,631.3050838447684,631.2792453965221,631.3291642493466
0.26,8.067700586375638e-07,8.071478781677282e-07,0.05704828965032063,0.0005894727046945388,-0.0005892910686161242,3.965050722546143e-05,1.7963253591538918e-09,1.735224303723052e-09,0.11991049471987207,0.0,1.3763574663692803e-05,1.3770578323137389e-05,0.5614937776867528,0.0,0.0,0.0,3.789093750485095,-9.736175125791981e-05,9.732926053560709e-05,-1.9646866403961931e-07,630.6351843441847,630.6351754658616,630.6080094994201,630.6612102653824
0.264,8.383421525000371e-07,8.387421387394612e-07,0.059396880739259375,0.0006611632373204424,-0.0006609318816282912,3.8255326903862336e-05,2.0465567035532554e-09,1.9770151690193497e-09,0.12312079863130282,0.0,1.414411169746929e-05,1.4151532311312585e-05,0.5761721534466462,0.0,0.0,0.0,3.758941497407787,-0.00010230929441922386,0.00010227856947639638,-9.566938294578713e-08,629.935520432488,629.9355120273516,629.9072543931786,629.9632216150136
0.268,8.673444246912899e-07,8.677656614397037e-07,0.06180363409326604,0.0007275459751611106,-0.0007272683278433195,3.682732097271441e-05,2.3243559285062734e-09,2.245451527983319e-09,0.12636014654704567,0.0,1.444434547957778e-05,1.4452133972075797e-05,0.590772775587122,0.0,0.0,0.0,3.727570482027368,-0.00010600529526466081,0.00010597329973210567,-2.704012284649802e-09,629.2067678202717,629.2067590574145,629.1777268265265,629.2357830013055
0.272,8.935185285034364e-07,8.939599125035572e-07,0.06426819092132979,0.0007878622960940513,-0.0007875427226556397,3.537397594839435e-05,2.6293822186742034e-09,2.540203970982025e-09,0.1296280733225239,0.0,1.4656730806331054e-05,1.4664828124930169e-05,0.6052897344401115,0.0,0.0,0.0,3.695058705453399,-0.00010851927126294156,0.00010848729383361279,8.296354218742508e-08,628.4506388138104,628.450630045374,628.4211226761237,628.4806273832635
0.276,9.166306522368392e-07,9.170909107134584e-07,0.06679017094051969,0.0008414261818244752,-0.0008410699072895879,3.390303341136857e-05,2.9612978683280206e-09,2.8609460939191035e-09,0.1329241183660568,0.0,1.4774321677032333e-05,1.4782659465001756e-05,0.619716170845638,0.0,0.0,0.0,3.6614555187809454,-0.00010983115916564506,0.00010980051524428494,1.6072967382908174e-07,627.6681850463697,627.6681766331156,627.63849839776,627.6987979824243
0.28,9.364743482009029e-07,9.369520596974752e-07,0.06936915060142615,0.0008876153381943344,-0.0008872283807991073,3.242109075881265e-05,3.319768256190507e-09,3.2073544739188678e-09,0.13624782560080612,0.0,1.4790819598704093e-05,1.4799320983373705e-05,0.6340441500303947,0.0,0.0,0.0,3.6268552176454927,-0.0001099147414095756,0.00010988678136293727,2.316143039856043e-07,626.8615060143497,626.861498328072,626.8319648881424,626.8923887411255
0.28400000000000003,9.528726233371227e-07,9.533662415798416e-07,0.0720047010931792,0.0009258992597405183,-0.0009254883410030619,3.093441523160005e-05,3.7093885342151805e-09,3.5838717647234787e-09,0.1395987434270168,0.0,1.4700766444525275e-05,1.4709346856044633e-05,0.648267108870691,0.0,0.0,0.0,3.5912764123068657,-0.00010884183119427951,0.00010881981505371034,2.9573296502016385e-07,626.0309423221673,626.0309362618527,626.0018445745569,626.0617595379755
0.288,9.656800900250278e-07,9.661879707220805e-07,0.07469637352340318,0.0009558376176173603,-0.0009554100512779404,2.9448803334089168e-05,4.129770877390079e-09,3.990123104780804e-09,0.14297642468454957,0.0,1.449967913877303e-05,1.4508247344176693e-05,0.6623811368625991,0.0,0.0,0.0,3.5547680248674625,-0.00010652220971033854,0.00010650567501167627,3.5337852895885645e-07,625.1775431032372,625.1775385455691,625.1492136009877,625.207933074713
0.292,9.747844724024977e-07,9.753049024991925e-07,0.07744370494816154,0.0009770821961352185,-0.000976645747289526,2.7969378834341602e-05,4.5805310071690586e-09,4.425737060451579e-09,0.14638042661570333,0.0,1.41841640200727e-05,1.4192623493830335e-05,0.6763822839384754,0.0,0.0,0.0,3.517367445807837,-0.00010303883187596892,0.00010302903851311583,4.0509876079869415e-07,624.302089426656,624.3020867234022,624.2748331909041,624.331713828428
0.296,9.801079076346245e-07,9.806391362853204e-07,0.08024621682642136,0.000989383340471682,-0.0009889460801680917,2.650133834213409e-05,5.0612881627481914e-09,4.890345598246034e-09,0.14981031082832508,0.0,1.375196255934949e-05,1.3760213105915022e-05,0.690266592425558,0.0,0.0,0.0,3.4791157157950154,-9.843666422437006e-05,9.843478147196234e-05,4.5059773953146905e-07,623.4054514566026,623.4054509361606,623.3795616438808,623.4339819524026
0.3,9.816083522300773e-07,9.821486233258404e-07,0.08310338778507761,0.000992601926881349,-0.000992172060644261,2.5049035722322192e-05,5.57332247809559e-09,5.385187132414894e-09,0.15326564325920555,0.0,1.320209256806979e-05,1.3210032250799528e-05,0.7040277859704858,0.0,0.0,0.0,3.440109711575345,-9.279703015446737e-05,9.280472965936933e-05,4.906457402146249e-07,622.4898120932996,622.4898142247753,622.4655630976064,622.5169436324608
0.304,9.792790093633639e-07,9.798265937963975e-07,0.08601469747860438,0.0009866900525681852,-0.000986275782752159,2.3616494636254684e-05,6.116240194058681e-09,5.9098810527064355e-09,0.15674599413775814,0.0,1.2534874798383322e-05,1.2542401884084147e-05,0.717660082220204,0.0,0.0,0.0,3.4003587260696735,-8.615257632015218e-05,8.617017961651637e-05,5.254486103468132e-07,621.5553058652727,621.5553107457692,621.5329650002691,621.5807411950915
0.308,9.73148727491231e-07,9.737019557396778e-07,0.08897960938158292,0.0009717010904690974,-0.0009713104467683626,2.220733370998193e-05,6.689651164792303e-09,6.464050241506056e-09,0.16025093794997913,0.0,1.1751929126948776e-05,1.17589440992804e-05,0.7311607310353542,0.0,0.0,0.0,3.359907006348748,-7.859624839641721e-05,7.862451053940441e-05,5.553128911064628e-07,620.602889557929,620.6028974056053,620.5827006409522,620.6263567205463
0.312,9.632814222118028e-07,9.638387160080778e-07,0.09199757734951912,0.000947782083791218,-0.0009474227644668867,2.0824671390591966e-05,7.2931688284442634e-09,7.047321045500861e-09,0.16378005340268728,0.0,1.085618047131335e-05,1.086258813560726e-05,0.7445268877352768,0.0,0.0,0.0,3.318786063547737,-7.021197604834743e-05,7.025147760603849e-05,5.806726459414849e-07,619.6332235790844,619.6332345648243,619.6154096930579,619.6544737394528
0.316,9.497748626070059e-07,9.503347648418805e-07,0.09506806119395375,0.0009151542906281418,-0.0009148335324757988,1.9471298821822623e-05,7.92641017806365e-09,7.659323247559566e-09,0.16733292338804043,0.0,9.851773925723411e-06,9.857485452250568e-06,0.7577573879951498,0.0,0.0,0.0,3.2769961685402187,-6.107477761175009e-05,6.11259370423459e-05,6.017803134971181e-07,618.6462328693555,618.6462471199543,618.630998189278,618.6650374331699
0.32,9.327607398708856e-07,9.333219435246443e-07,0.09819048655435676,0.0008741570988858683,-0.000873881484599693,1.8149902202108295e-05,8.587843607697971e-09,8.298578014129548e-09,0.17090913494832735,0.0,8.744119744445723e-06,8.749054766959238e-06,0.7708492261189673,0.0,0.0,0.0,3.2346189054377747,-5.128869854496146e-05,5.1351230868915595e-05,6.186418283287602e-07,617.6437659168332,617.6437833636536,617.6312868360757,617.659923786894
0.324,9.124034130144045e-07,9.129647877117196e-07,0.10136423634363986,0.0008252568769715555,-0.0008250321294851325,1.6862628985005477e-05,9.277107000783585e-09,8.964735301265075e-09,0.1745082792410327,0.0,7.540215452212394e-06,7.544304620810462e-06,0.7837947683000858,0.0,0.0,0.0,3.1917543712214655,-4.1029314568011663e-05,4.1103559446333005e-05,6.317739933512487e-07,616.628120025872,616.6281407746706,616.6185265028832,616.6414796453599
0.328,8.888964434122963e-07,8.894570573912756e-07,0.10458870170471055,0.0007689781381494399,-0.0007688090130578673,1.5611350490220705e-05,9.993841584276924e-09,9.657448297057021e-09,0.17812995150417293,0.0,6.248540452190886e-06,6.251727847328524e-06,0.7965880960118465,0.0,0.0,0.0,3.148400669435259,-3.0389777093940862e-05,3.0475425845302288e-05,6.414088129499916e-07,615.5991846665261,615.5992086423079,615.592582097916,615.6096201315423
0.332,8.624607588327201e-07,8.630198974362237e-07,0.10786326866899036,0.000705914648548983,-0.0007058048123248467,1.4397603945475436e-05,1.0737691901448088e-08,1.0376373395333664e-08,0.18177375102190133,0.0,4.878712652958152e-06,4.880957700888215e-06,0.8092284976717306,0.0,0.0,0.0,3.104582779111809,-1.9476092466176217e-05,1.957261227579948e-05,6.478572040788075e-07,614.5574869896036,614.5575140543349,614.5539526966625,614.5649021523964
0.336,8.333417205991093e-07,8.338989002170837e-07,0.11118733466858217,0.0006366984276022688,-0.0006366503748529148,1.3222673292665143e-05,1.1508305784881527e-08,1.1121170169561648e-08,0.1854392810903802,0.0,3.441169551043031e-06,3.442448500318235e-06,0.8217166572486978,0.0,0.0,0.0,3.0602923910905075,-8.377047421682586e-06,8.48370281785996e-06,6.513493008930998e-07,613.5027636297092,613.5027935879347,613.5023512642647,613.5070872324034
0.34,8.018073717216939e-07,8.023623497483479e-07,0.11456027778145007,0.0005620381257970912,-0.0005620530638916561,1.2087624466848726e-05,1.2305334329682287e-08,1.1891501346945686e-08,0.18912614898391802,0.0,1.9471879042991317e-06,1.9474952686521156e-06,0.8340518409900675,0.0,0.0,0.0,3.0155833101810967,2.782476729917866e-06,-2.6666653891769214e-06,6.52084337205004e-07,612.4362316521733,612.4362642388438,612.438960792168,612.4374275327104
0.34400000000000003,7.681458297407281e-07,7.686986097417841e-07,0.11798144616407845,0.00048272809626286723,-0.00048280583111862097,1.0993268990825385e-05,1.3123988369104373e-08,1.2682782267062576e-08,0.19283396592137,0.0,4.091011146807472e-07,4.0845121015441647e-07,0.8462294277922972,0.0,0.0,0.0,2.9705314643081717,1.3899787881245221e-05,-1.3778313131721327e-05,6.503129517635917e-07,611.3596452584037,611.3596794988185,611.3655075526218,611.3577058765756
0.34800000000000003,7.326614494526319e-07,7.33212280468879e-07,0.12145018224501697,0.00039960414479480144,-0.0003997430331229472,9.940195172908086e-06,1.396397892566691e-08,1.3494733046886402e-08,0.19656234703279937,0.0,-1.1597533476955531e-06,-1.1613250889140059e-06,0.8582444814771938,0.0,0.0,0.0,2.9251646931880093,2.4755721649663288e-05,-2.4627926187881218e-05,6.462597297163241e-07,610.2736173620488,610.2736534482038,610.2825433482187,610.2685987191691
0.35200000000000004,6.956722843464218e-07,6.962216548801027e-07,0.12496579070646889,0.00031358383223150873,-0.00031378073287660917,8.928790704159407e-06,1.4825019721504176e-08,1.4327076417872608e-08,0.20031091132639842,0.0,-2.74501788284068e-06,-2.74745399802598e-06,0.8700917701790359,0.0,0.0,0.0,2.8795760596655904,3.523553278888e-05,-3.510308897354292e-05,6.401319838993231e-07,609.180331300751,609.1803687666004,609.1922194092939,609.1723220068718
0.356,6.575052668211936e-07,6.580538928569511e-07,0.12852759128091207,0.00022557789220291214,-0.00022582817896385675,7.959255239136341e-06,1.5706827156276213e-08,1.5179537704565876e-08,0.20407928165566647,0.0,-4.331716256246172e-06,-4.334936960747281e-06,0.881767836677078,0.0,0.0,0.0,2.8337527365468107,4.524669372340017e-05,-4.51114339555868e-05,6.321305417733419e-07,608.0794391945113,608.0794775262123,608.0941618066242,608.0685550061104
0.36,6.184931683241683e-07,6.190419760307552e-07,0.1321348974730073,0.0001365120488889757,-0.00013680962186557824,7.031617617468707e-06,1.6609120285248174e-08,1.6051844803371423e-08,0.20786708468684376,0.0,-5.904591597026181e-06,-5.9084949094254065e-06,0.8932727665562575,0.0,0.0,0.0,2.7877246587951867,5.468797431966233e-05,-5.455189050717923e-05,6.224438207177508e-07,606.9716205476352,606.9716591832524,606.9890212668932,606.9580070229844
0.364,5.789710443493582e-07,5.795211473105874e-07,0.13578701704063806,4.731657686343249e-05,-4.765390059997671e-05,6.1457510732118975e-06,1.752494633571825e-08,1.6937270885709687e-08,0.21167395086659818,0.0,-7.448374029152897e-06,-7.452836271175873e-06,0.904605727952071,0.0,0.0,0.0,2.7415210408461843,6.353552656006395e-05,-6.340327636939784e-05,6.112494833801384e-07,605.8575425632758,605.8575801795312,605.8774579604142,605.8413525464368
0.368,5.392728615351296e-07,5.398255325337282e-07,0.13948323949853722,-4.1068825463749194e-05,4.0700648143712556e-05,5.3013336796482735e-06,1.8454109942890643e-08,1.783562664843931e-08,0.21549951438996437,0.0,-8.94775908194474e-06,-8.952635747121251e-06,0.9157640172622257,0.0,0.0,0.0,2.695196698664765,7.153692436037381e-05,-7.140835320605814e-05,5.98777797650413e-07,604.7384950413981,604.7385316788869,604.7606895841627,604.7199561834631
0.372,4.997278744432382e-07,5.002845121319755e-07,0.14322284463664506,-0.00012771379562885038,0.0001273249045193678,4.498002602285786e-06,1.939641760619507e-08,1.8746724594588142e-08,0.21934341316853212,0.0,-1.0387474113065794e-05,-1.0392601372540173e-05,0.9267445558462087,0.0,0.0,0.0,2.64878979794108,7.867134302595795e-05,-7.854871606269794e-05,5.85086875928197e-07,603.6153751475988,603.615410156256,603.6396062477428,603.5947217717634
0.376,4.606568488825855e-07,4.6121894046584283e-07,0.14700513131830834,-0.0002117406500786979,0.00021134231371145815,3.7352516832397635e-06,2.0351677673882067e-08,1.9670379018429086e-08,0.223205288798883,0.0,-1.1752666966256904e-05,-1.175786364933852e-05,0.9375469479038685,0.0,0.0,0.0,2.6022804238116213,8.489300145980007e-05,-8.477861470021503e-05,5.703561733856271e-07,602.4876765082855,602.4877092255787,602.5136877371187,602.4651578194736
0.38,4.2236914227127395e-07,4.229382220766799e-07,0.15082939354873373,-0.0002923061765936372,0.00029191065609307753,3.012469840794116e-06,2.1319700327736607e-08,2.060640599067058e-08,0.2270847865312729,0.0,-1.3029243060845593e-05,-1.3034312931903713e-05,0.9481730601534923,0.0,0.0,0.0,2.555696678131758,9.014460132550272e-05,-9.004075396366548e-05,5.547262090914379e-07,601.356056464161,601.3560862228336,601.3835739716361,601.3319399018103
0.384,3.85159655843001e-07,3.8573726045179284e-07,0.1546949210908783,-0.0003686108603666719,0.0003682312509761602,2.328952166182078e-06,2.2300297567909138e-08,2.1554623343760817e-08,0.23098155523855898,0.0,-1.4203954237950893e-05,-1.4208688531559404e-05,0.9586224271135425,0.0,0.0,0.0,2.509065622482144,9.437732971574217e-05,-9.428628573840376e-05,5.383288904914337e-07,600.221151891907,600.2211780309511,600.2498866682296,600.195720832761
0.388,3.493059900037266e-07,3.4989361056403663e-07,0.1586010000079079,-0.00043990733769545966,0.00043955739011806896,1.6839099727437735e-06,2.32932831978632e-08,2.25148506573049e-08,0.23489524738536907,0.0,-1.5264446170207888e-05,-1.5268626522781602e-05,0.9688940204447045,0.0,0.0,0.0,2.462413407099774,9.755432001053803e-05,-9.747827070188173e-05,5.212882880788597e-07,599.0835821951918,599.0836040706738,599.1132333536902,599.0571326387467
0.392,3.1506585770241767e-07,3.1566489028757744e-07,0.16254691982510688,-0.0005055109387755969,0.0005052048757083716,1.0765410627360717e-06,2.428677411371947e-08,2.347559312842272e-08,0.23882551899751156,0.0,-1.6199430059672043e-05,-1.6202831755687733e-05,0.9789876111824414,0.0,0.0,0.0,2.415751818834836,9.978633279574318e-05,-9.973183064871383e-05,5.036498848523699e-07,597.9436209615876,597.943636668946,597.9739179564732,597.9164175569074
0.396,2.826748367663126e-07,2.8328653174269157e-07,0.16653199103690536,-0.0005648128185400454,0.0005645651694878105,5.059671723001608e-07,2.528072848637415e-08,2.4436809988494422e-08,0.24277202963162442,0.0,-1.699889482733996e-05,-1.7001290043765662e-05,0.9889054641138222,0.0,0.0,0.0,2.3690570567648663,0.00010081717525355201,-0.0001007820296767263,4.855328487928353e-07,596.8006698919274,596.8006800401774,596.8312670599037,596.7730556373839
0.4,2.5234422641896306e-07,2.5296963581068133e-07,0.17055551167050995,-0.0006172694560041427,0.000617094780035037,-2.8835343143132342e-08,2.6275104971988242e-08,2.5398460941045605e-08,0.2467344423450612,0.0,-1.765420983824826e-05,-1.7655371319002926e-05,0.9986489409429125,0.0,0.0,0.0,2.322372563999462,0.00010076187612596574,-0.0001007478628512449,4.6714050313397246e-07,595.6557784907588,595.6557825448552,595.6863620305302,595.62806459918
0.404,2.2425906593558923e-07,2.2489899047210993e-07,0.17461674933093363,-0.0006624065714348147,0.0006623191296200503,-5.289346417447918e-07,2.7269862707652754e-08,2.6360506157532218e-08,0.2507124236660123,0.0,-1.8158123602133914e-05,-1.815782947721349e-05,1.0082145113447862,0.0,0.0,0.0,2.275778673408625,9.961990504219449e-05,-9.962847997165303e-05,4.4856438359396534e-07,594.5109111939522,594.5109087084137,594.5411655189587,594.4834112941837
0.40800000000000003,1.9857680353336473e-07,1.9923174222528973e-07,0.17871496970112982,-0.0006998327406150906,0.0006998462649982633,-9.954232857549483e-07,2.8264961307088595e-08,2.7322906273159247e-08,0.25470564356386005,0.0,-1.850481732241934e-05,-1.8502856345195604e-05,1.0175978870166082,0.0,0.0,0.0,2.229298898261308,9.741658688160128e-05,-9.744894423111027e-05,4.2987443728902635e-07,593.366647432163,593.3666380349387,593.3962626697693,593.3396699307935
0.41200000000000003,1.7542624751663676e-07,1.7609634973610947e-07,0.18284944564104078,-0.000729241597286951,0.0007293690844302434,-1.429359850765448e-06,2.926036085638093e-08,2.828562238273284e-08,0.2587137754197653,0.0,-1.8690060125331738e-05,-1.868623621918492e-05,1.0267983845779882,0.0,0.0,0.0,2.1829383980532997,9.418695832240874e-05,-9.424404222133881e-05,4.110734800834444e-07,592.2231180537977,592.2231014434755,592.2517927331121,592.1969630345341
0.41600000000000004,1.549068931926139e-07,1.5559191402131705e-07,0.18701946772269784,-0.0007504113579031281,0.0007506648967854497,-1.8319141749618628e-06,3.02560219097477e-08,2.92486160365457e-08,0.2627364959974846,0.0,-1.8711287707575917e-05,-1.8705423508855194e-05,1.0358185153044563,0.0,0.0,0.0,2.1366807734672415,8.997416226074628e-05,-9.005668212129693e-05,3.923326802370569e-07,591.0799213312172,591.079897273076,591.1073653591802,591.054878617388
0.42,1.3708783422798948e-07,1.3778709223921884e-07,0.19122430690867273,-0.0007632150607763896,0.0007636055511398097,-2.204221003336106e-06,3.125190548534209e-08,3.02118492362954e-08,0.26677348541441526,0.0,-1.856767678828161e-05,-1.8559617530518494e-05,1.044658781608624,0.0,0.0,0.0,2.0905848558590776,8.483304271954148e-05,-8.494134071735597e-05,3.736568897770764e-07,589.9385173424663,589.9384857077846,589.9644549104472,589.9148625986448
0.424,1.220083097807461e-07,1.2272065054728467e-07,0.1954632574269679,-0.0007676037478791959,0.0007681407646098215,-2.5474280624007214e-06,3.224059408092374e-08,3.116814934137417e-08,0.2708244271128679,0.0,-1.8260114990288597e-05,-1.8249732165675203e-05,1.0533198114302462,0.0,0.0,0.0,2.0446231366539633,7.890604476660747e-05,-7.90430487163025e-05,3.551057577797105e-07,588.7982336470861,588.79819354967,588.8224292550998,588.7762018382782
0.428,1.0967737126154152e-07,1.1040113509825792e-07,0.19973561203146203,-0.0007636172571443486,0.000764308844038644,-2.8627198745646195e-06,3.3222138443463354e-08,3.211756512211428e-08,0.27488900783156306,0.0,-1.779117400660626e-05,-1.777836879600304e-05,1.0618033269675222,0.0,0.0,0.0,1.9988176246439948,7.209880273542947e-05,-7.22615926861144e-05,3.3676736546726725e-07,587.6596234012752,587.6595756646689,587.6818127686374,587.6394805296857
0.432,1.0007426905994386e-07,1.0080726411419917e-07,0.2040406607699181,-0.0007513835227373525,0.0007522359724503632,-3.151293999980721e-06,3.419658896816038e-08,3.306014501143968e-08,0.2789669175773519,0.0,-1.716509563806105e-05,-1.7149802132514546e-05,1.070109895787446,0.0,0.0,0.0,1.953192925229448,6.45692839314983e-05,-6.475722896916885e-05,3.1870363443637784e-07,586.5233100156875,586.5232547958161,586.5432739194674,586.5052767399546
0.436,9.314902892473634e-08,9.388851053035315e-08,0.20837768539948923,-0.000731123250174822,0.0007321408860642426,-3.4144220290140307e-06,3.516399570085004e-08,3.399593710717133e-08,0.2830578495971585,0.0,-1.6387849723891927e-05,-1.637003862003467e-05,1.0782382426895762,0.0,0.0,0.0,1.9077851127383725,5.641090309753009e-05,-5.662296075625153e-05,3.01048354108317e-07,585.3902076884029,585.3901452634367,585.4077535415323,585.3744789884869
0.44,8.882310141298289e-08,8.956575847980403e-08,0.2127459435892171,-0.0007031648808434903,0.0007043498303009574,-3.6533603651973033e-06,3.6124408340394044e-08,3.492498917431691e-08,0.28716150035014193,0.0,-1.5467259105652203e-05,-1.5446941510726432e-05,1.0861850067426022,0.0,0.0,0.0,1.8626626355167732,4.7741894356996206e-05,-4.797657062386338e-05,2.8383422298118876e-07,584.2620480416009,584.2619788248348,584.2770171038111,584.2487853928533
0.444,8.69913827915162e-08,8.773333250865559e-08,0.21714469645852635,-0.0006679160972209911,0.0006692681836791971,-3.8693339294524555e-06,3.707787624105512e-08,3.584734864734503e-08,0.29127756948007694,0.0,-1.4412966309109281e-05,-1.4390196819187907e-05,1.093947395422765,0.0,0.0,0.0,1.8178388680788542,3.867086491008022e-05,-3.892631535905015e-05,2.670743676001662e-07,583.1391950579974,583.1391195688972,583.1514598588896,583.1285288640589
0.448,8.752393847957668e-08,8.826072910554685e-08,0.22157321060849822,-0.0006258568751741257,0.0006273735449259158,-4.063549901830585e-06,3.802444841485544e-08,3.676306263244408e-08,0.29540575978795147,0.0,-1.3236213119539769e-05,-1.3211091685717496e-05,1.1015253984193019,0.0,0.0,0.0,1.7733230001035127,2.930176578192672e-05,-2.957582315597983e-05,2.507967597740489e-07,582.0219102342933,582.0218290911228,582.0313734989394,582.0139409894467
0.452,9.026805922214876e-08,9.099468107250158e-08,0.2260307643062041,-0.0005775255420348136,0.0005792018370244863,-4.237132990309326e-06,3.896157897192654e-08,3.7669807436709886e-08,0.29954577720477915,0.0,-1.1949536534736743e-05,-1.1922209078381619e-05,1.1089210139885244,0.0,0.0,0.0,1.7291115425311607,1.9760049016125682e-05,-2.0052873586106893e-05,2.349531108108289e-07,580.9101382955471,580.910051429837,580.9167393302073,580.9049289367008
0.456,9.505072404491079e-08,9.576162860785702e-08,0.23051666357663855,-0.0005234913780065192,0.0005253199797041163,-4.3911990124659806e-06,3.988934747496912e-08,3.8567658047499485e-08,0.3036973307646255,0.0,-1.0566411312176735e-05,-1.0537069261836234e-05,1.1161384562004162,0.0,0.0,0.0,1.6851680223141008,1.0068389730566842e-05,-1.0374866887892673e-05,2.1957777899887834e-07,579.8029902871187,579.802899197795,579.8066749829364,579.8005989666458
0.46,1.0168014836357995e-07,1.0236927511951264e-07,0.23503021595304616,-0.00046437980079435965,0.000466351011036251,-4.526861099050203e-06,4.080783286896541e-08,3.9456688872512605e-08,0.3078601325778462,0.0,-9.101074812910529e-06,-9.069954112163355e-06,1.123181550431012,0.0,0.0,0.0,1.6415084018854413,3.519479100590165e-07,-6.691333922749444e-07,2.0471208221075148e-07,578.7008963364378,578.7008018849147,578.701647743166,578.7013436858178
0.464,1.0994794665423081e-07,1.1060875800800653e-07,0.23957072294352857,-0.0004008754803966145,0.0004029772250300459,-4.645265752639965e-06,4.1717113485749786e-08,4.033697374406887e-08,0.31203389780453544,0.0,-7.568578679660303e-06,-7.535958803130157e-06,1.1300509470756377,0.0,0.0,0.0,1.5981639305411317,-9.274058689230667e-06,8.949381684665507e-06,1.904394279125143e-07,577.6046762909244,577.6045794250841,577.6025120799011,577.6079489510105
0.468,1.1963144649674697e-07,1.202569710029201e-07,0.24413747108500272,-0.00033372748925172623,0.00033594536304496246,-4.747462986792562e-06,4.261726704854658e-08,4.120858592335438e-08,0.31621834462818343,0.0,-5.985028959473887e-06,-5.951231899179959e-06,1.13674452203525,0.0,0.0,0.0,1.555184251200975,-1.8680610048728483e-05,1.8351893425933605e-05,1.766929759593694e-07,576.5156228357274,576.5155245794272,576.5105992334665,576.5216685649037
0.47200000000000003,1.3049726510760165e-07,1.3108014744429632e-07,0.24872977407049118,-0.0002636850928384523,0.00026600250222091513,-4.83446444768864e-06,4.350837067647539e-08,4.207159810463793e-08,0.32041319422954107,0.0,-4.367193632485932e-06,-4.33258169291496e-06,1.1432628918646055,0.0,0.0,0.0,1.5125340310820752,-2.7792390012859825e-05,2.7463194632556726e-05,1.6346989263260354e-07,575.4328788092066,575.4327802246515,575.4250750038082,575.4416224484021
0.47600000000000003,1.423034701130698e-07,1.428360286094224e-07,0.2533469491021425,-0.00019152148094886537,0.00019391978483714,-4.907264832887099e-06,4.439211394521224e-08,4.29277046752769e-08,0.3246181707606901,0.0,-2.7320934054092526e-06,-2.6970659201792678e-06,1.1496089715067401,0.0,0.0,0.0,1.4702251081929067,-3.653846829839203e-05,3.621236653091616e-05,1.5079085984444765e-07,574.3567812382865,574.3566833972104,574.346298312228,574.3681258971778
0.48000000000000004,1.548022565227337e-07,1.5527654722101413e-07,0.2579883154311263,-0.00011802738873176213,0.00012048606849633356,-4.966825211994285e-06,4.5268553364309764e-08,4.3776957682762466e-08,0.328833001319318,0.0,-1.096784564233815e-06,-1.0617738968236062e-06,1.1557845024943645,0.0,0.0,0.0,1.4282722161226094,-4.478999596732373e-05,4.44708398840178e-05,1.3865644888928992e-07,573.2877433034355,573.2876473677263,573.2747217460728,573.3015528028742
0.48400000000000004,1.6774260709719052e-07,1.6815049396609367e-07,0.2626531889724963,-4.400928170707224e-05,4.650614642618119e-05,-5.014117781302892e-06,4.6137745028144537e-08,4.461940879674421e-08,0.3330574159231948,0.0,5.215791227694563e-07,5.56111977251146e-07,1.1617894317147006,0.0,0.0,0.0,1.3867009960982475,-5.247103411352505e-05,5.2162597247475224e-05,1.2711819778017297e-07,572.2264597208197,572.2263668352678,572.21106395767,572.24257428206
0.48800000000000004,1.8087286376385438e-07,1.8120609485247612e-07,0.26734086757799225,2.9701948948827563e-05,-2.719051161623471e-05,-5.050064238161182e-06,4.699974461887982e-08,4.545510931170408e-08,0.3372911474848519,0.0,2.1057426552198345e-06,2.139313222285304e-06,1.167621729656246,0.0,0.0,0.0,1.345567128139917,-5.9474995699561396e-05,5.918101148594258e-05,1.161561808181869e-07,571.1743991872962,571.1743104910797,571.1568267994274,571.1926257695146
0.49200000000000005,1.939439060680745e-07,1.941941926566446e-07,0.2720506562395602,0.00010229115453633555,-9.97899134931195e-05,-5.075529165932093e-06,4.7854607409407536e-08,4.628411014961179e-08,0.34153393178645963,0.0,3.6385487145508677e-06,3.670654843977474e-06,1.1732798453084723,0.0,0.0,0.0,1.304875760176932,-6.573081843311136e-05,6.545491959177746e-05,1.0574073558807412e-07,570.131744853601,570.1316614615857,570.1122160147044,570.1518676367746
0.49600000000000005,2.0671187381351542e-07,2.068709727093908e-07,0.27678186874594035,0.0001729694154189793,-0.00017050401098917897,-5.09133370035649e-06,4.870238826626972e-08,4.7106461862561804e-08,0.3457855074549038,0.0,5.103330615414888e-06,5.133458740625156e-06,1.178764744442344,0.0,0.0,0.0,1.264628493066652,-7.118285736134831e-05,7.092854044050331e-05,9.585587922319913e-08,569.0985895978852,569.0985125895809,569.0773425934353,569.1203745389344
0.5000000000000001,2.1894073855933866e-07,2.1900053665302185e-07,0.28153382733890747,0.00024098179778084275,-0.00023857843896467427,-5.098256784566678e-06,4.9543141652559514e-08,4.792221463539195e-08,0.3500456159370582,0.0,6.484308498079193e-06,6.51194018808472e-06,1.1840786086744708,0.0,0.0,0.0,1.2248273871042001,-7.578522564347342e-05,7.555580524682432e-05,8.648536813806942e-08,568.0750383338803,568.0749687391863,568.0523267101277,568.0982360005463
0.5040000000000001,2.3040474941911393e-07,2.3035734886502498e-07,0.28630587002594193,0.0003056200482144244,-0.0003033052246581361,-5.096977016369272e-06,5.037692163080187e-08,4.873141828828385e-08,0.35431400147525305,0.0,7.766777626542221e-06,7.791396311174084e-06,1.189224294882482,0.0,0.0,0.0,1.1854594337153508,-7.950790881435306e-05,7.930649872944983e-05,7.754334899411713e-08,567.0608077955221,567.0607465884807,567.0368953809743,567.0851578886379
0.5080000000000001,2.4089071878358694e-07,2.407285199015153e-07,0.2910973821835947,0.00036625105032036734,-0.0003640513561327938,-5.088154931195764e-06,5.120753180495184e-08,4.953788375151937e-08,0.35859041108293643,0.0,8.93746833629088e-06,8.95856510240052e-06,1.1942085353956449,0.0,0.0,0.0,1.14644702353669,-8.240038200518435e-05,8.222984004912758e-05,6.903601482350917e-08,566.0539433106378,566.0538913920078,566.0290802846671,566.079199167021
0.5120000000000001,2.501998262984907e-07,2.4991561553564794e-07,0.29590772762704076,0.00042227347240736553,-0.00042021516950087556,-5.072497444518094e-06,5.203498031069225e-08,5.034161485061772e-08,0.36287459452052867,0.0,9.984608228062469e-06,1.0001687953120343e-05,1.1990350755151478,0.0,0.0,0.0,1.1078509734046942,-8.434080376803546e-05,8.420389576347077e-05,6.104414200489885e-08,565.0560579368567,565.0560161839126,565.030533348764,565.0819345434543
0.5160000000000001,2.5817774306371177e-07,2.5776477978538676e-07,0.30073624562478074,0.0004758790622633655,-0.00047398758231701973,-5.900268014540757e-06,5.2859275299897814e-08,5.114261546362898e-08,0.36716630427146707,0.0,1.0910291586983992e-05,1.0922881089263071e-05,1.2037014569422593,0.0,0.0,0.0,1.0697388867064632,-8.822810503121613e-05,8.812694914042655e-05,1.0460126637185238e-06,564.067343877765,564.067312974098,564.0437788792334,564.0976559704513
0.5200000000000001,2.646928382499849e-07,2.6414493731294675e-07,0.3055822893976829,0.0005303603681966353,-0.0005286598000075995,-6.989307914014983e-06,5.368042494014733e-08,5.194088952036412e-08,0.37146529551844043,0.0,1.175757019296419e-05,1.1765228707690451e-05,1.2082047405605434,0.0,0.0,0.0,1.032101055128646,-9.571574136994512e-05,9.565184780261203e-05,1.38561939475124e-06,563.0902565729755,563.090237019277,563.0654615696493,563.1240263739975
0.524,2.695630712322528e-07,2.6887467593122433e-07,0.3104452586821097,0.0005840783359704692,-0.0005825912701143429,-8.269714274972463e-06,5.449843741424121e-08,5.273644100163239e-08,0.3757713261198113,0.0,1.2562972426245476e-05,1.2565299916025938e-05,1.2125502201065108,0.0,0.0,0.0,0.9948612779830199,-0.00010210624155589427,0.00010208082874392188,1.6543731110172087e-06,562.1219404352062,562.1219326445871,562.0960175030746,562.1586130348281
0.528,2.7261088997077864e-07,2.7177714432512235e-07,0.31532452542128164,0.0006355684518664425,-0.0006343155982137166,-9.683162144206882e-06,5.531332091972429e-08,5.352927393848612e-08,0.3800841565862255,0.0,1.3319741841348102e-05,1.3316385522740048e-05,1.2167411144343594,0.0,0.0,0.0,0.9580927215921387,-0.00010689608487282676,0.00010690990038345702,1.862941570967918e-06,561.1643300729312,561.1643343154783,561.1375713441568,561.2032274149124
