Time_s,X,Y,Z,Roll_deg,Pitch_deg,Yaw_deg,Ref_X,Ref_Y,Ref_Z,Ref_Yaw,vx,vy,vz,p,q,r,T_pert,tau_x,tau_y,tau_z,RPM_0,RPM_1,RPM_2,RPM_3
0.0040000000000000036,-4.903789747516863e-22,2.651163644740157e-22,0.010006999594037988,-8.680907141263378e-19,-3.744612224569047e-18,2.8365274483488005e-20,2.3335006070140573e-27,-2.8521624219271104e-28,7.200000000000012e-05,0.0,-7.64036616901526e-20,5.827214431454023e-20,2.0013999188075973,0.0,0.0,0.0,-10.19,4.103086395785042e-18,1.0087089586616003e-17,-3.3135125993209526e-20,0.0,0.0,0.0,0.0
0.008000000000000007,-7.456470377694886e-22,4.1756449329376946e-22,0.010010999365392528,-1.7001074274649245e-18,-4.808931803579917e-18,5.3847477210265266e-20,6.97241580773615e-27,-8.522158638871018e-28,0.00021513340800000038,0.0,-7.0772698143663e-20,4.9301039923361854e-20,1.1123332628213918,0.0,0.0,0.0,-0.034338475932384316,-5.714406514613682e-20,-8.234363475514595e-19,-3.0933992000096876e-20,534.6826504237879,534.682650423788,534.6826504237879,534.682650423788
0.01200000000000001,-9.659550525393966e-22,7.104370257154441e-22,0.01001499913738627,-3.0669978407451935e-18,-5.7564357229608545e-18,9.245903687160478e-20,1.3888913626094556e-26,-1.697597052542771e-27,0.00042854147030131276,0.0,-6.849736774920566e-20,4.7246173383568095e-20,0.0009999429025551315,0.0,0.0,0.0,0.11268126795424338,3.484034224116658e-18,1.2581588417743133e-18,-4.732129755068465e-20,538.6882898857357,538.6882898857358,538.6882898857357,538.6882898857358
0.016000000000000014,-9.612674588763842e-22,7.643403093383609e-22,0.010018998918182361,-2.8557664894099075e-18,-6.169434483414775e-18,9.814425646524082e-20,2.305541407675618e-26,-2.8179887956333915e-27,0.0007113732083620786,0.0,-2.724792700102264e-20,4.8486593923055067e-20,0.0009999438467103022,0.0,0.0,0.0,0.26021500563658706,-2.5628224464972252e-18,-1.5368017974076246e-18,-1.0450095463231716e-20,542.6782123972301,542.6782123972303,542.6782123972301,542.6782123972301
0.020000000000000018,-9.014448225532435e-22,6.082820365709852e-22,0.010022998716766816,-2.454720478947078e-18,-5.944753581077237e-18,1.1095579637775978e-19,3.4444587134117157e-26,-4.210050632402993e-27,0.0010627853561306145,0.0,3.9945811488769915e-21,1.3229732301818232e-20,0.0009999465697017526,0.0,0.0,0.0,0.4082515376201834,-2.65595588892306e-18,-4.5594290167720205e-19,-1.9015069652632257e-20,546.6524625309181,546.6524625309182,546.6524625309181,546.6524625309181
0.02400000000000002,-1.1650287356360686e-21,2.7695590933543546e-22,0.010026998537361222,-3.842585412451906e-19,-7.08195184044198e-18,1.9894575111343228e-19,4.802935071666704e-26,-5.8704724075013034e-27,0.0014819422978531074,0.0,-9.132243508946076e-21,-4.256022933924855e-20,0.0009999511376240083,0.0,0.0,0.0,0.556779791992724,-4.403370969932674e-18,5.487705878046964e-18,-1.0736917534900939e-19,550.6110856198836,550.6110856198837,550.6110856198836,550.6110856198836
0.027999999999999997,-1.3531017475331295e-21,2.9952387627265005e-22,0.010030998381181792,-7.782275425943804e-19,-7.351650940603934e-18,3.9215917347582006e-19,3.1147312400120236e-26,1.4427664269618857e-26,0.001968016006352204,0.0,-5.390006919215858e-20,-4.3773282152913326e-20,0.0009999566286535144,0.0,0.0,0.0,0.7057888086963886,4.3483551043124776e-18,1.8111335773623993e-19,-2.3391386423118066e-19,554.5541273284902,554.5541273284903,554.5541273284902,554.5541273284903
0.032,-1.4182388904885486e-21,7.043959741556778e-23,0.010034998247786846,6.934598435650097e-19,-7.774744180192892e-18,2.24216779463587e-19,-1.583531843935513e-26,5.642012596461092e-26,0.002520185981773086,0.0,-2.769834667393902e-20,-3.83685713565975e-20,0.0009999623610095973,0.0,0.0,0.0,0.8552677393185368,-4.565412425403127e-18,-2.2808550662768906e-19,1.800118960572632e-19,558.4816336479182,558.4816336479183,558.4816336479182,558.4816336479183
0.036000000000000004,-1.6655391003618218e-21,7.358040532975154e-23,0.010038998135860684,8.721669779616807e-19,-9.4399982217972e-18,6.102526566394253e-20,-9.25556433167736e-26,1.1984506904863927e-25,0.003137639190793574,0.0,-3.4629925509073256e-20,-1.3331351647297746e-20,0.000999967948223969,0.0,0.0,0.0,1.0052058472119225,2.269485529753229e-18,4.711467640731184e-18,1.8134271855934562e-19,562.3936509005572,562.3936509005573,562.3936509005572,562.3936509005572
0.04000000000000001,-1.5774146958380949e-21,7.568573653210816e-23,0.010042998043547333,6.482721131648852e-19,-8.83630846597054e-18,6.817793847191021e-22,-1.9865404797198424e-25,2.0444302044708444e-25,0.0038195700062949476,0.0,-1.8054750232494304e-20,-7.740988846568224e-21,0.000999973185348245,0.0,0.0,0.0,1.1555925074101216,2.0114442682082564e-19,-3.693650987135349e-18,6.78968674062736e-20,566.2902257390247,566.2902257390248,566.2902257390247,566.2902257390247
0.04400000000000001,-1.6299024059486396e-21,3.1006485335438496e-23,0.010046997968831697,9.058645664912566e-19,-9.359967308915709e-18,-2.6535776193534644e-19,-3.3377417590508594e-25,3.0995685853392307e-25,0.004565180147490079,0.0,-1.1551593981004514e-20,-5.759027603354779e-22,0.00099997795929372,0.0,0.0,0.0,1.3064172055553205,-8.801840447225025e-19,2.8556186280415095e-18,3.1066023651208726e-19,570.1714051199951,570.1714051199953,570.1714051199951,570.1714051199951
0.048000000000000015,-1.6520774462376446e-21,-2.122070660799008e-23,0.010050997909615033,1.3237400125671777e-18,-9.414823124362975e-18,-4.071703147783424e-19,-4.975629021121385e-25,4.361317941707233e-25,0.005373678620505558,0.0,-3.801109488685438e-21,-1.3956821308138577e-20,0.0009999822227805058,0.0,0.0,0.0,1.4576695375486581,-6.679136072469401e-19,4.763918493510106e-19,1.7648643511476146e-19,574.0372362975858,574.0372362975859,574.0372362975858,574.0372362975858
0.16800000000000004,1.5221520173406108e-19,-1.0849469572882914e-19,0.014254334477503424,6.445863565979239e-16,9.274453848732466e-16,-1.354528236633547e-16,-2.024473500660398e-24,1.5772220243967023e-24,0.010968785132919854,0.0,3.666143109969462e-18,-2.6422463769626674e-18,0.09278170452309573,0.0,0.0,0.0,-0.10513104490900434,-4.6923754366625596e-17,-6.741221664955377e-17,5.599913316648357e-18,532.743122590396,532.7431225903961,532.743122590396,532.743122590396
0.17200000000000004,1.7696542330835185e-19,-1.261014650162742e-19,0.01466008147430921,6.969014661101511e-16,1.0062299702920387e-15,-1.3940881089192869e-16,-2.3844220299062916e-24,1.7986315598181578e-24,0.012145983303508134,0.0,4.1113282227852e-18,-2.9589318060463787e-18,0.0977252874607433,0.0,0.0,0.0,1.4605286150756605,-3.1373916609980847e-16,-4.486193603575143e-16,1.0230588350291554e-17,574.1100602679022,574.1100602679022,574.1100602679021,574.1100602679022
0.17600000000000005,2.0478185255514117e-19,-1.4585093772270104e-19,0.015085655070095615,7.436698760289425e-16,1.0794644641590048e-15,-1.4129358492945648e-16,-2.812458542810154e-24,1.994949808807213e-24,0.013380617840650429,0.0,4.602714047302028e-18,-3.3061847658952725e-18,0.1026767279626745,0.0,0.0,0.0,1.5614408726550275,-1.4602856389214826e-16,-2.1649775704623747e-16,7.983261959376005e-18,576.6745201916225,576.6745201916225,576.6745201916225,576.6745201916225
0.18,2.359175280850951e-19,-1.6791546997439465e-19,0.015531077224043155,7.823053440479563e-16,1.1445641615984648e-15,-1.435850001968534e-16,3.623113337060851e-25,-2.0121886210817213e-25,0.014671955061104735,0.0,5.159437753436954e-18,-3.703199323290752e-18,0.10763460222710797,0.0,0.0,0.0,1.6620217192098883,-1.443581351643378e-16,-2.1870382714178604e-16,8.545542258167691e-18,579.2192600260839,579.2192600260839,579.2192600260839,579.2192600260839
0.184,2.7067095959887425e-19,-1.9251301485725072e-19,0.015996365915830833,8.03583007187531e-16,1.1923075422129163e-15,-1.4934166357561303e-16,2.2168378000594788e-23,-1.5013780636123956e-23,0.016019268044531406,0.0,5.79031813926203e-18,-4.158813920934286e-18,0.11259774436802576,0.0,0.0,0.0,1.76226901532581,-1.3200906601671354e-16,-2.1029519021530387e-16,1.269761701999853e-17,581.7444847828164,581.7444847828164,581.7444847828164,581.7444847828164
0.188,3.0911478710670015e-19,-2.197704188251293e-19,0.016481535866660263,8.026903076441284e-16,1.2311813762557498e-15,-1.5491163442018217e-16,6.238138087797143e-23,-4.2290805543779035e-23,0.017421836578507356,0.0,6.487363598267807e-18,-4.685146210233416e-18,0.11756519972090826,0.0,0.0,0.0,1.8621793861353317,-1.1214541095746355e-16,-2.084894169404272e-16,1.2726343756421449e-17,584.2503630394178,584.2503630394178,584.2503630394178,584.2503630394178
0.192,3.514190134759001e-19,-2.4962817869510466e-19,0.016986599129691405,7.862758397112241e-16,1.2560056684431988e-15,-1.6194048117088757e-16,1.207789890632066e-22,-8.188173805457306e-23,0.01887894710395877,0.0,7.244257134565644e-18,-5.2676857368541034e-18,0.12253618659360081,0.0,0.0,0.0,1.961748462500218,-9.651097781076765e-17,-2.0131757582247602e-16,1.4670077305729047e-17,586.7370337900659,586.7370337900659,586.7370337900659,586.7370337900659
0.196,3.974083133320264e-19,-2.8191926894936186e-19,0.01751156557352499,7.665293993114465e-16,1.2922820296963866e-15,-1.7073199703007788e-16,1.9714088497871126e-22,-1.3363738600369797e-22,0.02038989266100902,0.0,8.003654661213976e-18,-5.8597128921571556e-18,0.127510064937773,0.0,0.0,0.0,2.0609710783933557,-9.278371777396099e-17,-2.1916901137093053e-16,1.7029086199540174e-17,589.2046120185487,589.2046120185487,589.2046120185487,589.2046120185487
0.2,4.472249779972771e-19,-3.164771211043704e-19,0.018056443278094404,7.537973129674735e-16,1.3355648303692968e-15,-1.7902827627251642e-16,2.9124874814346925e-22,-1.9740990960256764e-22,0.021953972835238873,0.0,8.759437441698958e-18,-6.427528561207034e-18,0.13248631069069858,0.0,0.0,0.0,2.159841432398042,-1.0080890949816673e-16,-2.3626185441021177e-16,1.6823498793379267e-17,591.6531932314214,591.6531932314214,591.6531932314214,591.6531932314214
0.20400000000000001,5.009923244702533e-19,-3.5325367833295086e-19,0.018621238858827965,7.480647267771928e-16,1.385843177753838e-15,-1.8603811950237146e-16,4.0288623906741565e-22,-2.7305281053253557e-22,0.023570493704355898,0.0,9.50794122556003e-18,-6.961127784166183e-18,0.1374644947623262,0.0,0.0,0.0,2.258353219814705,-1.1057347680894517e-16,-2.5381951650847308e-16,1.567390856106498e-17,594.0828571447165,594.0828571447165,594.0828571447165,594.0828571447165
0.20800000000000002,5.588101044512e-19,-3.9217736116982325e-19,0.019205957732073065,7.53784068890072e-16,1.447555493332772e-15,-1.9254797523526215e-16,5.318389832677669e-22,-3.604209211211951e-22,0.025238767785270164,0.0,1.0259891823419954e-17,-7.458573021378675e-18,0.14244426582749464,0.0,0.0,0.0,2.3564997406933954,-1.2574051853064177e-16,-2.769751770737318e-16,1.5390678732974644e-17,596.4936706816709,596.4936706816709,596.4936706816709,596.4936706816709
0.30800000000000005,8.653469970322066e-07,8.656181888308181e-07,0.04303217263762365,-0.003913689557136303,0.003911156575487816,0.0002433590010884285,1.6041734027269412e-21,-1.0867955213346447e-21,0.03485694107456046,0.0,6.924749965993698e-06,6.922662561633984e-06,0.3299347685040125,0.0,0.0,0.0,-0.26108838153964753,0.00028694261594385386,-0.0002867597039097904,-1.006106235821468e-05,528.4625626261741,528.462622271692,528.5213280996916,528.3342380254795
0.312,9.99825711418825e-07,1.0001549216376913e-06,0.044411265752466095,-0.004114091606835591,0.004111285435773442,0.0002543368749444873,1.2646935924065547e-13,1.2210728906464635e-13,0.03682823726664551,0.0,8.273277342821267e-06,8.271202307996462e-06,0.3384122114183422,0.0,0.0,0.0,0.9407647697017082,0.0020922529067457806,-0.0020910728228730815,-2.2901944614930977e-05,560.7528175060487,560.7531801588656,561.3208489741876,560.0350947120426
0.316,1.1477533858000354e-06,1.1481496638334958e-06,0.04582431001393133,-0.004314714514935805,0.004311616859985162,0.000265270570063532,1.7293769571808842e-11,1.6716959802083485e-11,0.03884655208788397,0.0,9.725209954784098e-06,9.723176169804949e-06,0.34689587475927663,0.0,0.0,0.0,0.98613362878526,0.000811885926561715,-0.000811178790032538,-2.3318879754547934e-05,561.9353709596298,561.9355878132137,562.1084682393761,561.610664858736
0.32,1.3097883266769972e-06,1.3102616799250893e-06,0.04727132280512584,-0.004515509670808987,0.004512101429429995,0.0002761583099519921,9.801102758401168e-11,9.475172685897168e-11,0.040911248655392404,0.0,1.1280810588401533e-05,1.1278848854758614e-05,0.3553846312709094,0.0,0.0,0.0,1.0305936365996407,0.0008497672180283051,-0.0008489773841108845,-2.3732688863567794e-05,563.0917504736319,563.0919921901369,563.2747388464297,562.7547930286156
0.324,1.4865885009129053e-06,1.4871499574416036e-06,0.048752318358705145,-0.004716436864232702,0.0047126980763761515,0.0002869986881171319,2.415127380809651e-10,2.3348632023358876e-10,0.04302169605913914,0.0,1.2940269726387189e-05,1.2938412639262861e-05,0.36387755793250637,0.0,0.0,0.0,1.0741425016989399,0.0008890516110048042,-0.0008881918026054211,-2.4143728004650333e-05,564.2221449672099,564.2224075711509,564.4154299712253,563.8725463569864
0.328,1.6788114207155693e-06,1.6794730947075256e-06,0.05026730832775725,-0.0049174627437836415,0.004913372541858843,0.0002977906008113477,4.4704032157127426e-10,4.3218734756476044e-10,0.04517726931298279,0.0,1.4703717475312997e-05,1.4701999296202863e-05,0.3723738989705673,0.0,0.0,0.0,1.1167769629080555,0.0009292613524893925,-0.0009283270903639321,-2.4552289770393147e-05,565.3266238149201,565.3269086011458,565.5304634045037,564.9641448571888
0.332,1.887114049148499e-06,1.887889209313473e-06,0.05181630225326697,-0.005118559554359915,0.005114096112737741,0.0003085331919522667,7.138420685860131e-10,6.901280584080242e-10,0.04737734930608505,0.0,1.6571233561019623e-05,1.656969009132823e-05,0.38087303556457464,0.0,0.0,0.0,1.158492980247449,0.0009704127166628804,-0.0009693992771950813,-2.495861476599248e-05,566.4052346767272,566.4055430098787,566.6198908867999,566.0296301782325
0.336,2.1121527220767536e-06,2.1130558631921272e-06,0.05339930794688663,-0.005319704103349854,0.005314844587502084,0.00031922580801796896,1.0411730842999962e-09,1.0065882906956446e-09,0.049621322754695066,0.0,1.854285570084219e-05,1.8541524157186558e-05,0.389374461036735,0.0,0.0,0.0,1.1992858911553377,0.001012521344983466,-0.0010114237498809533,-2.536290101729731e-05,567.4580051953498,567.4583385128303,567.6837441303928,567.069024253483
0.34,2.3545830832427347e-06,2.3556300009954394e-06,0.05501633180435114,-0.005520876914078188,0.005515597429436461,0.0003298679611132842,1.4282952335722665e-09,1.380854417601927e-09,0.051908582154302586,0.0,2.0618586612810984e-05,2.0617505504655095e-05,0.3978777605340746,0.0,0.0,0.0,1.2391505382855832,0.001055602371625686,-0.0010544153774374604,-2.576531167790997e-05,568.4849464982569,568.4853063132623,568.7220383367932,568.0823327347001
0.34400000000000003,2.615060029805581e-06,2.61626789910745e-06,0.05666737906210004,-0.0057220615326339696,0.005716337073236602,0.0003404592987286757,1.874477086402751e-09,1.8122192948108788e-09,0.05423852573215726,0.0,2.2798399880770286e-05,2.279760889091725e-05,0.40638259439021224,0.0,0.0,0.0,1.2780813740254908,0.0010996705264667702,-0.0010983886139089088,-2.6165981342133495e-05,569.4860560491079,569.4864439537206,569.7347750611744,569.0695477876222
0.34800000000000003,2.894237666194102e-06,2.89562512314316e-06,0.05835245400739479,-0.005923243960311727,0.00591704835729465,0.0003509995789802294,2.3789938638020494e-09,2.2999822081832887e-09,0.05661055740015133,0.0,2.5082244859615116e-05,2.5081784728002698e-05,0.4148886845008849,0.0,0.0,0.0,1.3160725459486506,0.0011447402196269572,-0.0011433575827050988,-2.656502121542267e-05,570.4613199682072,570.4617376365637,570.7219445437804,570.0306503664473
0.35200000000000004,3.1937606096448995e-06,3.193308096828888e-06,0.06007119775146068,-0.006222845959833281,0.006017472408087725,0.000319532666759961,2.941127384071349e-09,2.8434488218203134e-09,0.059024086708063056,0.0,2.7674141395462172e-05,2.7269399449747543e-05,0.4233595632773051,-0.00020091885257713968,-2.844156069303329e-05,-2.2271590800021292e-05,1.3538534611558628,0.0012935530243625604,-0.0010838281379983291,2.2048699963893416e-05,571.3197381075531,571.3829933438653,571.7802661587201,571.0633113112448
0.35600000000000004,3.5174767264250876e-06,3.506440683562016e-06,0.061820497093949066,-0.006954780892869922,0.005650931488794578,0.00025683517686282605,3.560166009489481e-09,3.4419311265206866e-09,0.06147852879715836,0.0,3.20071770964623e-05,2.8021643656233366e-05,0.43148343685066265,-0.0014783595628004753,-0.0006681571848039171,-0.0001317719446742933,1.397018037641979,0.0018103221613946993,-0.0006167519550239447,5.980077826362663e-05,572.2150178802269,572.5743550646288,572.950760895243,572.2203076018852
0.36000000000000004,3.863746637893209e-06,3.83745831099284e-06,0.06359712215801966,-0.008041666468720652,0.004864958067000124,0.00017795587676690364,4.235404593404144e-09,4.094747388628679e-09,0.06397330435414782,0.0,3.9320618742737117e-05,2.62981785781339e-05,0.438936929517307,-0.0033753191970237904,-0.002039920424212531,-0.0002696221985362153,1.4458949678920698,0.0023266208860493677,-0.00011269286405837353,8.126032161844657e-05,573.2751125939585,573.9402300268911,574.2327895715154,573.5002914004024
0.36400000000000005,4.229486837008135e-06,4.190256636069907e-06,0.06539913730241341,-0.009392786713820031,0.0037247954940952364,8.731912271632046e-05,4.966144427724358e-09,4.8012220992699634e-09,0.06650783956549665,0.0,4.9695364624675584e-05,2.2250283639460757e-05,0.4456881423477391,-0.004981880544672207,-0.0037812915239436224,-0.00035495864701842126,1.497953289333216,0.002781401917091829,0.00036216802361141193,9.82215012705709e-05,574.4350063373082,575.377277637442,575.5808070475786,574.8560459847776
0.36800000000000005,4.61059808466685e-06,4.56964913634726e-06,0.0672254470764506,-0.010923245207633877,0.0022898927516385383,-1.1481488451272262e-05,5.751693190811222e-09,5.560685923972557e-09,0.06908156607208495,0.0,6.230246934585808e-05,1.6877085169623088e-05,0.4519898099505794,-0.006045193207476386,-0.005264155628738987,-0.00040332930695428335,1.5515423616842152,0.0031704003253402186,0.0008066364349575566,0.0001114739180949556,575.6517325196518,576.8410592168632,576.9533106524847,576.24686432037
0.37200000000000005,5.002071061487863e-06,4.9810389490028545e-06,0.06907533065712318,-0.012554600884157021,0.0006180328317564706,-0.00011552471546077022,6.702662772523097e-09,6.4785641907814895e-09,0.07169392092421559,0.0,7.649726891456314e-05,1.0971872142037368e-05,0.45802958284993356,-0.006745647569031786,-0.006488003685460561,-0.00043647783388328366,1.6059297129101318,0.0034912592100327672,0.0012197723970808964,0.00012165599500266808,576.9058475728062,578.3113517867803,578.332404622099,577.6551736170723
0.376,5.39817840620814e-06,5.4301414278020135e-06,0.07094833230958811,-0.014216834060302332,-0.0012369073105768181,-0.00022231465493213656,7.817033888131526e-09,7.552922882773863e-09,0.07434434653696735,0.0,9.167715983453872e-05,5.2423899587201866e-06,0.46390251251869447,-0.0071141916558664225,-0.007465362594646005,-0.00045721465146583403,1.660593323111522,0.0037482677149696174,0.001598434727393267,0.00012914500435019503,578.1831390043827,579.7745161521726,579.7065739682848,579.0671544891147
0.38,5.792608984413353e-06,5.922797052884944e-06,0.07284426015502,-0.015845988080661434,-0.0032225386045659117,-0.0003297566693745744,9.092805601869618e-09,8.781845557934596e-09,0.0770322906458908,0.0,0.00010728194068513987,3.065471054425174e-07,0.46967825229874044,-0.0071823334969513455,-0.008207706147545287,-0.0004675405119577744,1.7150053031475632,0.003940757134067319,0.0019411495601640752,0.00013430739008047295,579.4698736188418,581.2164317737228,581.0632653330994,580.4699399563949
0.384,6.178631924200638e-06,6.4647555090025765e-06,0.0747631147136653,-0.017385134149386743,-0.005289400498919845,-0.00043612325951466807,1.052799517877811e-08,1.0163433207249349e-08,0.07975720626304392,0.0,0.00012279494233058543,-3.304191940307121e-06,0.47541560584149367,-0.006979789450526197,-0.008725655149647312,-0.0004690613966916375,1.7687744545377668,0.00407022954964921,0.0022465236787343767,0.00013748606065450164,580.7555833241859,582.6269167047672,582.3937454748212,581.8538754468992
0.388,6.5492458353138455e-06,7.061491372862751e-06,0.07670504352779647,-0.018784336183589056,-0.0073913638663624,-0.000540005382578173,1.212063793767419e-08,1.1695804113872896e-08,0.08251855163336572,0.0,0.0001377437870982958,-5.1410568795848675e-06,0.4811609208591799,-0.006536415662773724,-0.009031615380457787,-0.0004633296417426533,1.8215956163503528,0.004138775531024574,0.002513844779371976,0.0001389820118628138,582.0319317762319,583.9982903252411,583.691433999439,583.2115017811076
0.392,6.897325487452368e-06,7.718034502543529e-06,0.07867029213188916,-0.020000659554397938,-0.009486294413365142,-0.0006402509943652411,1.3868787105234682e-08,1.3377093713364894e-08,0.08531579019138485,0.0,0.00015170735945749486,-4.838449315140863e-06,0.4869477082562958,-0.005882780572486439,-0.009141008489252714,-0.0004516241505671519,1.8732585238456227,0.00414895391522332,0.0027432823196721716,0.00013903742540036983,583.29292693986,585.325598301345,584.952023423043,584.5377689430111
0.396,7.215733307527436e-06,8.438845812423074e-06,0.08065921765588599,-0.020997360890416504,-0.011534766817322658,-0.0007359322088404019,1.5770513671185585e-08,1.520545445498534e-08,0.08814839051826087,0.0,0.0001643132740350131,-2.108194985955229e-06,0.4928034964378125,-0.0050480880683190675,-0.009068718655573437,-0.0004350421616516649,1.9235222555187232,0.004103207824182531,0.00293403946479901,0.00013786659293079729,584.5320637382673,586.6030422517356,586.1705535806268,585.8267342999751
0.4,7.49743518465081e-06,9.227697284008595e-06,0.08267228048450091,-0.02174370006181038,-0.013499786059886299,-0.0008263180248644918,1.7823906244589837e-08,1.7179055664041996e-08,0.09101582629915572,0.0,0.0001752313573793133,3.266792836266306e-06,0.49875467180341515,-0.004059546769902536,-0.008826971323091345,-0.00041451196534406836,1.9721593339493246,0.004004096064924904,0.0030850103176185547,0.00013566108650479617,585.7432896162177,587.8252038399893,587.3424587598432,587.0727381398764
0.404,7.735637930872818e-06,1.0087546501042748e-05,0.08470998380308617,-0.02221492778331559,-0.015348036631072398,-0.0009108578693359954,2.0027070911225356e-08,1.9296083405282097e-08,0.09391757628093307,0.0,0.00018417267650809715,1.143761573738113e-05,0.5048216135898421,-0.002943409073503469,-0.008428555794838428,-0.0003908783545432612,2.019061755678906,0.003854377772100035,0.003196339023437475,0.00013260128765373648,586.9233795379108,588.9898907201357,588.4659968629496,588.2732661163492
0.40800000000000003,7.923883195719264e-06,1.1020456760619993e-05,0.08677289640810971,-0.0223922492224399,-0.01704905679283025,-0.0009891365614941529,2.2499002816139574e-08,2.1756802532128554e-08,0.09685312423018297,0.0,0.0001908899533832749,2.249187183719294e-05,0.5110193848038265,-0.0017257506419788217,-0.00788734349880609,-0.0003648580040194606,2.064073930664692,0.0036552212491424126,0.0032692328059005646,0.00012882233961211215,588.0680941257662,590.093725307658,589.537789151732,589.4249515097393
0.41200000000000003,8.056170702816933e-06,1.2027511074179098e-05,0.08886159597248207,-0.022262093672862738,-0.018576103350620227,-0.0010608640502965969,2.5236387762924564e-08,2.4557000162065526e-08,0.09982195889156958,0.0,0.00019517836614019518,3.645859624132153e-05,0.5173579055334809,-0.0004313470609044414,-0.0072178126034111445,-0.0003370670455751599,2.107153392378831,0.003414105237066134,0.0033015181300965245,0.00012445292790878474,589.1756101613954,591.1365723613021,590.5586733112711,590.5258193702953
0.41600000000000004,8.127042515731424e-06,1.3108759853917055e-05,0.09097668387405745,-0.02181628257684377,-0.019905745706536984,-0.0011258603123002566,2.8235941769219796e-08,2.7692501745941247e-08,0.10282357394649946,0.0,0.0001968739495356488,5.3312745684460564e-05,0.5238430110503174,0.0009162477973553923,-0.0064349511870071315,-0.0003080350902425485,2.14822736709422,0.0031325770544049832,0.003295184175369872,0.00011960921438893262,590.2436380760677,592.1172922956703,591.5272290995289,591.574598426641
0.42000000000000004,8.13166828830666e-06,1.4263179732630452e-05,0.09311877752058385,-0.021051851540414036,-0.021017898184338815,-0.0011840363456250048,3.149441082236692e-08,3.115917075825143e-08,0.10585746797210811,0.0,0.00019585280792167254,7.297839166560397e-05,0.5304791556423292,0.002293959931202107,-0.005553556336328765,-0.0002782419947722914,2.1872379717539046,0.002814621998258473,0.003251054206129868,0.0001143896643611371,591.2701074632342,593.0353130224076,592.4428963041636,592.5698290162467
0.42400000000000004,8.065920570585706e-06,1.5488648502852704e-05,0.09528850736303998,-0.019971073746802192,-0.021895922464584994,-0.0012354001892447956,3.50085706369178e-08,3.495290838977042e-08,0.10892314440056246,0.0,0.0001920290100013986,9.533048928708094e-05,0.5372704147437944,0.003678874567126444,-0.00458835312743045,-0.00024812766803956865,2.2241329427708423,0.002464742772233582,0.0031703212255867674,0.00010890350604263356,592.2529468717487,593.8902967565292,593.3052806459798,593.5101806159929
0.42800000000000005,7.926438662387161e-06,1.6781936992878785e-05,0.09748651834966272,-0.018581631209366137,-0.02252671828910966,-0.0012799976186115844,3.877522641398226e-08,3.906965324251298e-08,0.11202011147867694,0.0,0.00018535450797446226,0.00012019533473008178,0.5442202285145907,0.005047866935486855,-0.0035544266729827627,-0.00021802516767322654,2.258856718090422,0.0020881596911088867,0.003054568141715834,0.00010319467613257102,593.1899476670975,594.6820673874801,594.1138417742969,594.3940871246529
0.43200000000000005,7.710695430285414e-06,1.8138726494680405e-05,0.09971342754721366,-0.01689456539143444,-0.02290047993918307,-0.0013179255824345866,4.279121260240217e-08,4.350538102700973e-08,0.11514788222784081,0.0,0.00017581770198782636,0.0001473583074348772,0.5513280864492133,0.006380946731326821,-0.002466796266400207,-0.0001882069676670764,2.2914393494505703,0.0016883471954171115,0.0029052264806747993,9.73243603899816e-05,594.081260748201,595.4122311461355,594.8699277626021,595.2223364827871
0.43600000000000005,7.417035056016607e-06,1.9553630526935718e-05,0.10196984494373147,-0.014925346269044251,-0.023010955362275112,-0.0013493534099736307,4.7053392661738485e-08,4.8256104261879366e-08,0.11830597440425451,0.0,0.00016344233152108725,0.0001765698249244101,0.5585906201088183,0.007660254286836555,-0.0013404278163093174,-0.0001589243757333792,2.321869624969594,0.0012703116383825524,0.0027245185654934077,9.138062615295141e-05,594.9256336758781,596.0816492576123,595.5740011092576,595.9946182163294
0.44000000000000006,7.044704174542503e-06,2.1020230333633143e-05,0.10425638246628718,-0.012694511618315816,-0.022855769825317146,-0.00137448076596554,5.1558658827058066e-08,5.331787197568097e-08,0.12149391045947269,0.0,0.00014828847879671842,0.00020754339304071757,0.5660060094175325,0.008866178286708683,-0.0001911750414124422,-0.0001304405885297056,2.3501183232335308,0.0008402789669701403,0.00251531469899728,8.540540946473881e-05,595.7211688118109,596.6910593557709,596.2260786474229,596.7100132517118
0.44400000000000006,6.593875099332709e-06,2.2531142518367494e-05,0.10657363066698755,-0.010226000664372854,-0.02243593990644703,-0.0013935285841912978,5.6303931875507164e-08,5.868676941102966e-08,0.12471121750125172,0.0,0.00013045229769154945,0.0002399558036721523,0.5735722213672363,0.009979808374045765,0.0009650482560755898,-0.00010293366447863744,2.376203543015428,0.0004032758531343052,0.0022802325407829762,7.943131495290873e-05,596.4673510344355,597.2421411847564,596.8271719401642,597.3688714010611
0.44800000000000006,6.065652584371361e-06,2.4078095574372756e-05,0.10892215501143267,-0.007546680281174487,-0.021755730467435376,-0.0014067398438367695,6.128616089465848e-08,6.435891773095918e-08,0.12795742725469936,0.0,0.0001100633651965209,0.00027345557534609767,0.5812844400464557,0.010986002047243674,0.002113353205680014,-7.650942308827516e-05,2.4001516624567505,-3.583248430661431e-05,0.0020221124256427805,7.349274295660099e-05,597.1638467941762,597.7367595022073,597.3784252513461,597.9717853833531
0.45200000000000007,5.462067117123909e-06,2.5652021584214814e-05,0.11130249090759284,-0.004685589019949353,-0.02082230326108988,-0.0014143527378180814,6.650232305261891e-08,7.033047372751507e-08,0.13123207602372444,0.0,8.72812035404052e-05,0.00030767186038150007,0.5891359684856846,0.011873045045615711,0.003240106709225045,-5.1234228748256764e-05,2.422000013214572,-0.00047262049933147676,0.00174374504356177,6.75936723945197e-05,597.8106967172198,598.1770003052943,597.8811311449149,598.5196070282939
0.45600000000000007,4.786056172688525e-06,2.7243160231637898e-05,0.11371513718847238,-0.001672958504804024,-0.019645219634664316,-0.001416648494082597,7.194942336988504e-08,7.659762953256192e-08,0.1345347046527844,0.0,6.229074802420841e-05,0.0003422229745700679,0.5971188661384825,0.012632603189728081,0.004333260388277343,-2.720191996658328e-05,2.4418001765121415,-0.0009034317772831178,0.0014476735337266857,6.17937651162513e-05,598.4083384288051,598.5650449777638,598.3369239905652,599.0136775148555
0.4600000000000001,4.041443712948332e-06,2.884114080166745e-05,0.11616057756298467,0.0014577381043719489,-0.018237708630039567,-0.001413922267015524,7.762449449293379e-08,8.315661233078887e-08,0.1378648584889281,0.0,3.530403488024825e-05,0.00037671434411984964,0.6052262742694292,0.013255432929701766,0.005379911789992679,-4.502475393145863e-06,2.4595614285029708,-0.0013222984440995397,0.0011381129903149773,5.6120466321642716e-05,598.9556389396992,598.9026445776805,598.7464315910655,599.4541459258915
0.4640000000000001,3.232895054196578e-06,3.0435114533407033e-05,0.11863926438314963,0.004671975246218153,-0.01661537021851214,-0.001406450530838244,8.341412883850893e-08,9.068735385923865e-08,0.1412220873441325,0.0,6.560384416885387e-06,0.00041073859002636664,0.6134520193511903,0.013732506517674872,0.0063671158803014355,1.6816215915837635e-05,2.47532653555558,-0.0017328876697684666,0.0008170256391062449,5.0563724013730435e-05,599.4540397102231,599.1906981818659,599.10996770226,599.8429661605619
0.4680000000000001,2.3658630370934796e-06,3.2013884873328914e-05,0.12115161318395698,0.00793525506080694,-0.014795479126490105,-0.0013945435014046555,8.931674322110372e-08,9.917792190645357e-08,0.14460594545793004,0.0,-2.3679724434868628e-05,0.0004438850522481529,0.6217884214215655,0.014059458417241693,0.007284753247597533,3.674336014790529e-05,2.4891504079617923,-0.0021165382048096318,0.0004896416757689736,4.517397537703143e-05,599.9014927075302,599.433973954316,599.4309629311356,600.1797250103078
0.4720000000000001,1.4465428818647398e-06,3.356600668596682e-05,0.12369801910097156,0.011211101257185144,-0.012798497171400261,-0.0013785191690265917,9.533076938615616e-08,1.0861649289375875e-07,0.14801599146032554,0.0,-5.513582486432395e-05,0.00047574317305710526,0.6302280016011786,0.014232473429122325,0.008122604841107002,5.523888990766118e-05,2.5010558723220155,-0.002475426382193753,0.00015930648597296663,3.9972731027129993e-05,600.2984673308607,599.6332182302633,599.7092816064368,600.4658910037372
0.4760000000000001,4.817935590226327e-07,3.5079935573448886e-05,0.1262788454441195,0.014463190152844106,-0.010646528056587577,-0.001358673636127793,1.0145465388733479e-07,1.1899135099731755e-07,0.15145178833499973,0.0,-8.750693147049602e-05,0.000505902126460616,0.6387639286961105,0.01424790789163497,0.008870410518094124,7.229630101651465e-05,2.5110896571636325,-0.0028059059430700036,-0.00017058217010420163,3.49471927131184e-05,600.6452102474732,599.7906454988362,599.9461382160806,600.7026187977153
0.48,-5.209441794518213e-07,3.654416875692749e-05,0.12889442033815623,0.017656389892667917,-0.008362523103983293,-0.0013353291390829534,1.076868579647639e-07,1.3029088727684287e-07,0.15491290338279765,0.0,-0.0001204786213437036,0.000533960052473646,0.6473884090118767,0.01410662233724724,0.009521215162630122,8.794163559240271e-05,2.5193063852778605,-0.0031055071256140972,-0.0004973343186806959,3.013978117051156e-05,600.9423331911588,599.908296522072,600.1429457071469,600.891392132878
0.484,-1.5537155327132573e-06,3.7947355585214764e-05,0.13154504695319266,0.020755392996905105,-0.00597158439732264,-0.0013087930239332325,1.1402585742418203e-07,1.425035988109177e-07,0.15839890818550031,0.0,-0.00015372591461078198,0.0005595295756457378,0.6560937114899421,0.01381100488351974,0.010068734090127063,0.00010220173798242737,2.5257410991395215,-0.0033704584471409534,-0.0008167730324567339,2.554608992384789e-05,601.1896295744117,599.9881968859644,600.3005321427306,601.0331601531594
0.488,-2.608154505660772e-06,3.927844609956646e-05,0.13423099550329542,0.023726661076250915,-0.0034991717485013943,-0.0012793884184942646,1.204701425170246e-07,1.556180878388719e-07,0.16190937856987586,0.0,-0.0001869161076020819,0.0005822410800604436,0.6648724468817921,0.013364468399048247,0.010507451291852167,0.00011506072072477085,2.5304459362955627,-0.003598686702475163,-0.0011261948948269017,2.119695238178094e-05,601.3876973315505,600.0322711691534,600.4201546318075,601.1293615585416
0.492,-3.6755621752867652e-06,4.052680082121276e-05,0.1369525101344693,0.0265373942376464,-0.000972297394794131,-0.001247421962269748,1.270182178214272e-07,1.6962306090917392e-07,0.1654438945720104,0.0,-0.00021970808681512593,0.0006017431795394205,0.673717363553358,0.01277167932404595,0.010832584209993789,0.00012658370043619452,2.5334601657625524,-0.0037873380804806303,-0.0014216685180375038,1.7086175998199804e-05,601.5365771642153,600.0424679571672,600.5026280275995,601.1811183778126
0.496,-4.747018740576425e-06,4.168232840707701e-05,0.13970980387364704,0.029157150250674783,0.0015822427213118791,-0.0012132108080176029,1.3366860212414013e-07,1.8450732803428506e-07,0.16900204040191472,0.0,-0.00025175982534901385,0.0006177105794702737,0.6826211806605154,0.012039366051248803,0.011041202289344808,0.00013677344870407512,2.5348341983735034,-0.0039350560463032105,-0.0017007511566661756,1.3238454670346069e-05,601.6369491619092,600.0205254381088,600.5490767891657,601.1898614145728
0.5,-5.813468061220821e-06,4.2735588483257936e-05,0.14250306300080975,0.03155708469356622,0.004136747362908225,-0.0011770538540667892,1.4041982830334878e-07,2.0025980185193111e-07,0.17258340440840572,0.0,-0.0002827277836279086,0.0006298447886136891,0.6915767485733466,0.011175436003316035,0.011131165858517237,0.00014570495672324243,2.5346106229687226,-0.004040020697272694,-0.0019599191182199834,9.645330941964838e-06,601.689120234538,599.9682583446919,600.560288904954,601.1568598050886
0.504,-6.865833007422713e-06,4.367791134320024e-05,0.14533244475694226,0.033711181675025084,0.00666428226374099,-0.001139254898834193,1.4727044321239273e-07,2.168694967927442e-07,0.17618757904426013,0.0,-0.000312274428339128,0.000637880766427071,0.7005769826226496,0.01018949961302765,0.011102136548651999,0.0001533959934956253,2.532837591608287,-0.004101647122026307,-0.002197094690228161,6.324666775389387e-06,601.6938646876052,599.8871876878111,600.5372517925476,601.0835191963289
0.508,-7.895100471975891e-06,4.450148886037693e-05,0.14819807903329332,0.03559574520653739,0.00913747954303485,-0.0011001099825738289,1.5421900756437724e-07,2.3432552825422845e-07,0.1798141608316387,0.0,-0.0003400674291553388,0.000641587970156181,0.7096148859365426,0.00909219325069802,0.010954284592984974,0.0001599061612646288,2.529560812085962,-0.0041191563070004725,-0.002409091406693628,3.2797597168841155e-06,601.6517216007708,599.7789807694091,600.4807341157752,600.9712871213317
0.512,-8.892433203858469e-06,4.519946964222018e-05,0.15110006873135537,0.03719012613993947,0.011529909831747998,-0.0010598878100888803,1.6126409581767035e-07,2.5261711178100323e-07,0.18346275032777878,0.0,-0.00036578426053551495,0.0006407746833693909,0.7186835878073359,0.007895288366191158,0.010688941715138674,0.00016529118269097801,2.5248261914429007,-0.004092622140644378,-0.002593893526041562,4.907400369966386e-07,601.5635490442669,599.6450516499551,600.3915143374365,600.8215284811624
0.516,-9.849271878538127e-06,4.576603828121607e-05,0.1540384910900453,0.0384769817026421,0.01381671031664101,-0.0010188569799047613,1.679600798715442e-07,2.723332565887647e-07,0.1871329520909534,0.0,-0.0003891184646658991,0.0006352909171041027,0.7277764586627185,0.006612009585460418,0.010310273854739042,0.00016962744567464687,2.518677861112936,-0.0040296951456001645,-0.0027554602443609602,-2.03155773628395e-06,601.4320465006311,599.4847743601459,600.2701395409216,600.6358355921075
0.52,-1.0757416592571617e-05,4.6196482885497115e-05,0.15701339528808805,0.039442327815404556,0.015973637745616182,-0.0009772725836777912,1.7431090792096586e-07,2.934561581609281e-07,0.19082437464669463,0.0,-0.00040978369176999636,0.0006250325787556794,0.7368868052807429,0.005256760158503849,0.009823222202442507,0.0001729681860998204,2.511165693721036,-0.003917813813066826,-0.0028816705543024965,-4.291938697063842e-06,601.2548686063209,599.3029005898522,600.1178613281563,600.4153191670881
0.524,-1.16091237772321e-05,4.648724595145341e-05,0.16002480599522048,0.04007555805427977,0.01797806227248671,-0.0009353610808973781,1.80320493208179e-07,3.1596817499186387e-07,0.19453663045427969,0.0,-0.00042751387793582205,0.0006099424641085236,0.7460080527935409,0.0038441748484855745,0.009232781538049782,0.00017537482765046195,2.5023333058717316,-0.0037649023631597086,-0.0029762434645631292,-6.313413505811283e-06,601.0347402369409,599.0988357953212,599.9350802336386,600.1615721799823
0.528,-1.239719320119654e-05,4.663596070184982e-05,0.1630727271271959,0.04036930354349574,0.019809532351185433,-0.0008933332179286026,1.8599271430125977e-07,3.3985182726586085e-07,0.19826933587347736,0.0,-0.00044206818937619067,0.0005900095554852984,0.7551342939536919,0.002388774557429632,0.00854626385102247,0.00017693915358063688,2.4922175308994157,-0.003572483397690932,-0.003038814158105028,-8.105061257427277e-06,600.7726905353381,598.8733039081941,599.7223814273716,599.875707561598
0.532,-1.3115040347521447e-05,4.6641487688392304e-05,0.16615713742061483,0.04031994660450574,0.02144941596691836,-0.0008513911226641095,1.913314153705784e-07,3.650897955461205e-07,0.20202211113155324,0.0,-0.0004532365467717249,0.0005652701464985129,0.7642597796231738,0.0009056369372881597,0.007772283392595695,0.0001777172799627942,2.4808649005248045,-0.0033428427969138005,-0.003068823809607325,-9.668303890104192e-06,600.4700477163642,598.6271708578213,599.4804570150062,599.5592208552271
0.536,-1.3756766079035146e-05,4.65039373224891e-05,0.16927798694156707,0.039928124034753265,0.022880957086369797,-0.000809715703827582,1.9634040646318156e-07,3.9166491947370953e-07,0.20579458029053146,0.0,-0.000460839096500734,0.0005358128947592797,0.7733780576872121,-0.0005883759703780971,0.0069191284167486305,0.00017775234775409076,2.4683298903225763,-0.0030792214055400074,-0.0030658531762372664,-1.1019622739145363e-05,600.1285078912954,598.3613613250042,599.2100495100473,599.2138940394728
0.54,-1.4317219727833944e-05,4.622465596416827e-05,0.17243520475360535,0.0391979386505547,0.024089773214783256,-0.0007684599483357695,2.0102346377511048e-07,4.195601964763986e-07,0.2095863712147115,0.0,-0.0004647272211443573,0.0005017804165444418,0.7824828228108217,-0.0020763594615185064,0.005995765726955287,0.00017711665054319234,2.454652382577585,-0.002784615800943354,-0.0030301888770425315,-1.2184187578441851e-05,599.749487002477,598.0763896171062,598.9116657716575,598.8410025581722
0.544,-1.4792047986287216e-05,4.5806198609608626e-05,0.17562870489182983,0.03813605657482989,0.025063786235699402,-0.0007279061447753002,2.0538432992167003e-07,4.4875878048731444e-07,0.21339711553843763,0.0,-0.00046478700832066754,0.0004633618684676373,0.7915691006078838,-0.003544167320302982,0.0050120330609001364,0.00017562994008162353,2.439860859194546,-0.0024613551497243906,-0.0029622904136253304,-1.3004642177985741e-05,599.3337697847377,597.7722824920684,598.5859308522784,598.4417003186674
0.548,-1.51777225715247e-05,4.525229779269744e-05,0.17885838200926554,0.03675070860904541,0.025791516885631412,-0.0006882596276142851,2.094267142056634e-07,4.792439806733339e-07,0.21722644863411966,0.0,-0.00046093249726706926,0.00042077939219100746,0.8006325175946367,-0.004981830850617412,0.003975188707012512,0.00017320258767275598,2.423993171061258,-0.0021108286088461887,-0.0028609689471708827,-1.3559240433697545e-05,598.8823522294625,597.450027932017,598.2332343874151,598.0171117673756
0.552,-1.5471621891256084e-05,4.4567874154150604e-05,0.18212410770139445,0.03505554666545045,0.026266098199034884,-0.0006494766504907515,2.131542928836071e-07,5.10999260173149e-07,0.2210740095805027,0.0,-0.0004531123946398901,0.00037429587969273594,0.809668024205181,-0.006374891826476622,0.0028960914742005247,0.00017012706295937145,2.4070953000884474,-0.0017385613639092923,-0.0027290897037588707,-1.4130453107669009e-05,598.3979167017588,597.109944200724,597.8538381172492,597.5682596842813
0.556,-1.5672042454681086e-05,4.375897159107003e-05,0.18542573268541032,0.03306800048829789,0.026483864185349662,-0.0006116106045829079,2.1657070942994134e-07,5.440082348449323e-07,0.22493944113118422,0.0,-0.0004413216939104395,0.0003242274968357973,0.8186702419020389,-0.007705994702619265,0.0017889074043876542,0.00016707263358741952,2.3892095937193885,-0.001349389459747234,-0.002568916659924359,-1.4606544272553668e-05,597.8822710346683,596.751842189952,597.4485276024745,597.0966685852437
0.56,-1.577820576419862e-05,4.2832686168241136e-05,0.18876308807763248,0.030808510280028407,0.026443816413289425,-0.0005747023478016268,2.196795747992498e-07,5.78254672023532e-07,0.22882238968337684,0.0,-0.0004256089685796672,0.0002709474871448338,0.8276339356822341,-0.008957856146091774,0.0006686845869874298,0.0001637457888873364,2.3703765253529614,-0.0009476301604445273,-0.0023823353237511116,-1.4999898339020647e-05,597.3372388262638,596.3758046125668,597.0178714346399,596.6036087494612
0.5640000000000001,-1.5790261164108717e-05,4.1797090030370433e-05,0.19213598607592713,0.02830030901212044,0.026147642579200107,-0.0005387804693143334,2.2248446768650344e-07,6.137224892871278e-07,0.23272250524691457,0.0,-0.00040606338267750174,0.00021486967293126666,0.8365542468157201,-0.010117594592820833,-0.00045296132901084796,0.00016017825643731772,2.350635860760243,-0.0005376652308502531,-0.0021714606406502946,-1.5323102515875938e-05,596.7646712218063,595.9818532199309,596.5624427345983,596.0903107348413
0.5680000000000001,-1.5709278494010976e-05,4.066114493177349e-05,0.19554422063661847,0.02556916582422589,0.025599696014264817,-0.0005038625511413561,2.2498893478534304e-07,6.503957532332782e-07,0.23663944141350093,0.0,-0.0003828140317089368,0.0001564442313050476,0.8454264866178338,-0.011173319105153682,-0.0015643487142233778,0.00015639970777607442,2.3300266471058553,-0.0001239505727059476,-0.0019386693891070047,-1.5587772066078263e-05,596.166451927564,595.5699404628674,596.0828242315115,595.5579638853113
0.5720000000000001,-1.5537229624870673e-05,3.943460486686386e-05,0.19898756913159657,0.022642981938350133,0.024806877276359256,-0.00046995609465241405,2.2694780467400305e-07,6.880939154571805e-07,0.24057285532619738,0.0,-0.00035602930711406975,9.615333023787882e-05,0.8542462339528921,-0.01211449335444903,-0.0026540254813216487,0.00015244015086718295,2.308585201638156,0.0002910757999046408,-0.0016894034157209394,-1.5804890719605766e-05,595.5445522442441,595.1397973865476,595.5802668354905,595.0069577144982
0.5760000000000001,-1.5276951459105338e-05,3.8127898037602e-05,0.20246580195992003,0.01955040139010094,0.023777945126205766,-0.0004370615540293625,2.2836755399968966e-07,7.268033200456616e-07,0.24452240764914973,0.0,-0.00032591240856284835,3.450031213885506e-05,0.8630102284101244,-0.012933974364787774,-0.0037119952720680418,0.00014832667848511933,2.286328914676945,0.0007004823643779183,-0.0014201765759594778,-1.5982312062527756e-05,594.8998364311373,594.6913249077394,595.0536192384141,594.4391660589492
0.5800000000000001,-1.4932138104792629e-05,3.675205807105995e-05,0.2059786596013917,0.016323318547407914,0.022525002191064947,-0.00040517489054539893,2.2925460109818282e-07,7.665104385517812e-07,0.24848776253755128,0.0,-0.0002927027128721973,-2.799019698405462e-05,0.8717140084053826,-0.013623098941771366,-0.004727027523146572,0.00014408054220928836,2.2633220198166857,0.0011003562983439537,-0.0011373915016840994,-1.6125195227396592e-05,594.2353144775533,594.2245743365002,594.5047502193491,593.8557531883138
0.5840000000000001,-1.4507292556667346e-05,3.5318601862343725e-05,0.20952585612539656,0.012996140382255075,0.021063196770107886,-0.00037428629610546126,2.296153064625133e-07,8.072018689522616e-07,0.2524685876078407,0.0,-0.0002566821558253025,-9.076352759031245e-05,0.8803516217154366,-0.014171271164477337,-0.005686394854989179,0.00013972062258516454,2.2396226336875844,0.0014849293578034228,-0.0008450787109063376,-1.6240375228669662e-05,593.5537845361492,593.7395223690322,593.9347663577149,593.2583472979062
0.5880000000000001,-1.4007642872435505e-05,3.3839368931324136e-05,0.2131071038946593,0.00960272007063021,0.019408854287932355,-0.0003443840601067588,2.2945597320809794e-07,8.48864334612876e-07,0.2564645539081327,0.0,-0.00021817052214229675,-0.00015324365717305744,0.8889183874995263,-0.014571510922177108,-0.0065793748378387765,0.00013526836816128203,2.215239628304567,0.0018512781842904278,-0.0005457452157841495,-1.633040756979847e-05,592.8561999358587,593.235558013354,593.3437610477093,592.6471815599043
0.5920000000000001,-1.3439094533244035e-05,3.2326414826874127e-05,0.21672210184807583,0.006177348623923604,0.01758018606254541,-0.0003154560542143578,2.2878284753435885e-07,8.91484683261739e-07,0.26047533588888055,0.0,-0.0001775131745682942,-0.0002148553819097513,0.8974119344277982,-0.0148228342987495,-0.007398554493434977,0.0001307420142432567,2.190205759963592,0.002195839431151976,-0.0002424525254686755,-1.6396192242207427e-05,592.144278187896,592.7124794611797,592.7324051474792,592.0230940525187
0.5960000000000001,-1.2808167402461388e-05,3.079189113431811e-05,0.22037053150960584,0.002754783929279174,0.01559741292555018,-0.0002874911555576038,2.276021191828522e-07,9.350498859704402e-07,0.2645006113737674,0.0,-0.00013507832146225274,-0.0002750303137269257,0.9058290091323883,-0.01492406238994751,-0.008136037168726594,0.00012615508449196028,2.1645623621969183,0.002514722817390377,6.124503027126241e-05,-1.6436984718993145e-05,591.4200728937536,592.1701723335158,592.10160863901,591.3871159553424
0.6000000000000001,-1.2121930165616705e-05,2.924792754140001e-05,0.22405204842814316,-0.0006293923519094918,0.01348320277158364,-0.0002604800020105399,2.259199218919318e-07,9.795470361429642e-07,0.26854006153082616,0.0,-9.126428943302965e-05,-0.000333198833873142,0.9141645545398334,-0.014872519765150324,-0.008782364632053594,0.00012152054583151962,2.138368745527082,0.0028034929674699196,0.00036106024948250265,-1.645111767521551e-05,590.6862768719932,591.6087767365547,591.4527566295221,590.7407011421651
0.6040000000000001,-1.1387898599818773e-05,2.770648707599816e-05,0.2277663007549571,-0.003940683501284801,0.011261108239151356,-0.00023441607874190185,2.2374233384797308e-07,1.0249633485123386e-06,0.2725933708437851,0.0,-4.6494991276085466e-05,-0.00038879747758949933,0.9224141935721157,-0.014668071492802418,-0.009329785190558892,0.00011685062806411266,2.1116473938607982,0.00305945317800912,0.0006538814929998289,-1.643558287548017e-05,589.9442552827704,591.0279431196584,590.786411288659,590.0843165374152
0.6080000000000001,-1.0613939836284125e-05,2.617923679088824e-05,0.2315129402449502,-0.007146717610539532,0.008954586149385482,-0.00020929640609142417,2.2107537813318215e-07,1.0712861581449563e-06,0.2766602270836382,0.0,-1.2045500006769697e-06,-0.0004412873782138235,0.9305764099481095,-0.014315946540184902,-0.009775047106987792,0.00011215688765570191,2.084398747842671,0.0032812300615105176,0.0009376592749767653,-1.6386452071832495e-05,589.1944824463036,590.4271194385578,590.102629078065,589.4178470221942
0.6120000000000001,-9.808204358906132e-06,2.467744567530416e-05,0.23529160366830332,-0.010216260302566308,0.006588059948834647,-0.00018512143324023666,2.179250231700147e-07,1.1185029194525113e-06,0.280740321280438,0.0,4.417212590531764e-05,-0.000490165833858938,0.9386499450665422,-0.013823157712853648,-0.01011620408166341,0.00010744964925207798,2.0566609063004266,0.003466626840348878,0.0012093444847735245,-1.6299776268630354e-05,588.4386374681101,589.8064166650181,589.4024252174067,588.7420859815153
0.616,-8.979043164103556e-06,2.3211877070961955e-05,0.2391019062305486,-0.013119171216833436,0.004187103809923169,-0.00016189554822545836,2.145039672430374e-07,1.1660710140984886e-06,0.28483334769531005,0.0,8.919354520244225e-05,-0.0005349619732064843,0.946631166446597,-0.013195320090961568,-0.01034950319230583,0.0001027385547904939,2.028485847134578,0.003619476469933022,0.0014677761423811605,-1.6170869861918067e-05,587.6775911681742,589.1674454851593,588.6877703902383,588.0575694029983
0.62,-8.134881198687145e-06,2.179265402097341e-05,0.24294345827428138,-0.01582977367842367,0.0017750267979300864,-0.00014027751530812892,2.1081558192182917e-07,1.2139845136314226e-06,0.28893900379268667,0.0,0.0001334219855893708,-0.0005752473957137613,0.9545164355196387,-0.012442946064419282,-0.010475809717322504,9.689559643352774e-05,1.9998923862618752,0.0037290282278973166,0.0017080288519544583,-1.5235071499987175e-05,586.912902720407,588.5071312765905,587.9594147855349,587.3667794473669
0.624,-7.2841596074616696e-06,2.0429186301004683e-05,0.24681584411994406,-0.018324863265704747,-0.0006248064198228269,-0.00011983343080497754,2.0686320794099243e-07,1.2622375483066852e-06,0.2930569902127582,0.0,0.00017644186911985773,-0.0006106572297994846,0.9623019605122151,-0.011579499378458502,-0.01049845288781489,9.070386460570116e-05,1.97094248415156,0.0038008821994539223,0.0019302440715782897,-1.4741626895519575e-05,586.1472074449155,587.8297272811055,587.2177069270052,586.6684904397556
0.628,-6.435281254565692e-06,1.913013481586331e-05,0.25071865017938816,-0.020580377934503832,-0.0029863187261012065,-0.00010051891948537152,2.0265015544990603e-07,1.3108243065933204e-06,0.2971870107441413,0.0,0.00021783998531024613,-0.0006408681632528691,0.9699846152382579,-0.010612621057198153,-0.010415298109194152,8.478856491494984e-05,1.9416419201176778,0.003831458717586886,0.0021291669711612313,-1.4253240744219535e-05,585.3812633714218,587.1333411017212,586.4636678443206,585.9632555272443
0.632,-5.596487889332869e-06,1.7903293303007083e-05,0.2546514557181772,-0.022575270119074797,-0.005284313761916382,-8.230157334857848e-05,1.9817970426058268e-07,1.3597390346846932e-06,0.3013287722967609,0.0,0.00025719141809970485,-0.000665581907860806,0.9775631202067432,-0.009545955292415781,-0.010221086402444535,7.953791717048457e-05,1.9120152006614242,0.0038206198176529834,0.002302693792515097,-1.3757676759870158e-05,584.6159937388919,586.4181677333232,585.6981700157768,585.2513915843649
0.636,-4.775771453992509e-06,1.675552071265988e-05,0.25861383735798343,-0.02429163790701733,-0.0074948393447324315,-6.515705713706594e-05,1.9345510409364398e-07,1.4089760360129353e-06,0.3054819848749465,0.0,0.00029408087195530386,-0.0006845444687585392,0.9850364454108872,-0.008390967960219846,-0.00991852132224907,7.452332257256796e-05,1.8820779678194564,0.003769051229611009,0.002449482304987291,-1.3246758882090492e-05,583.8518770329281,585.6844195361346,584.9218709911179,584.5329795364555
0.64,-3.980789133852376e-06,1.5692688660833503e-05,0.26260538018887397,-0.02571480161298105,-0.009595772627585835,-4.906457178630266e-05,1.8847957482242735e-07,1.4585296707671568e-06,0.3096463615507383,0.0,0.00032812485766986303,-0.0006975643141253437,0.9924048209452383,-0.007161413938567987,-0.009513755503011598,6.97235464827097e-05,1.851823440348359,0.0036778356359297567,0.0025689089962708375,-1.2717280664603709e-05,583.0886748534119,584.9319197164118,584.1348146449707,583.8075785703375
0.644,-3.2187932224375744e-06,1.4719626708969645e-05,0.26662565668137367,-0.026833392784738,-0.01156623539651355,-3.400302838928867e-05,1.832563067152379e-07,1.5083943554153947e-06,0.3138216184374048,0.0,0.00035897436971906057,-0.000704512996015478,0.9996679141650882,-0.005871470649762135,-0.009013422716718573,6.512902847412889e-05,1.8212874099178946,0.0035482851792586327,0.0026598749383763415,-1.21703613201569e-05,582.3272597388501,584.1615249201029,583.3382089892631,583.0757021361268
0.648,-2.4965602290431754e-06,1.3840079434707489e-05,0.2706742150523433,-0.02763967575306908,-0.013386524318817497,-1.9952415454149237e-05,1.7801667771960533e-07,1.5581446765584067e-06,0.31800747466316753,0.0,0.00038631218895270525,-0.0007053275618985,1.006822280616636,-0.004536078688980088,-0.008423267904232304,6.0736000406224366e-05,1.790529726329289,0.0033872741749200125,0.002723856980486234,-1.160553626257101e-05,581.5679055012465,583.3758971057956,582.5343162242543,582.3380307471125
0.652,-1.8203226353385824e-06,1.3056698379892653e-05,0.27475060188317924,-0.02812926510381713,-0.015038876054663164,-6.8944123091808814e-06,1.7276107279283477e-07,1.6077802155466945e-06,0.32220365234513326,0.0,0.0004098532586562347,-0.0007000116085932389,1.0138644244831188,-0.0031704118684681023,-0.007749744842822741,5.653505422763458e-05,1.759565152436243,0.0031875607796225157,0.00275543992362039,-1.102158150650928e-05,580.8128676207764,582.5734712880585,581.7232085883467,581.5951860562366
0.656,-1.19571231733918e-06,1.2371044079355623e-05,0.2788543749847441,-0.02830067541275195,-0.016507750935996962,5.192063015317687e-06,1.6748987284787724e-07,1.6573005628867113e-06,0.32640987656343096,0.0,0.00042935230318198275,-0.0006886312536309039,1.0207942920052673,-0.0017885123065510297,-0.007001252315637934,5.251554633593227e-05,1.7283824371350551,0.0029557859394313034,0.0027573892810398557,-1.0422405693176023e-05,580.0604882474056,581.7552944794027,580.9051413256799,580.8462839465606
0.66,-6.277091760277314e-07,1.1783574045450947e-05,0.28298508578105747,-0.028155765083414552,-0.017779659011207326,1.6332068980324693e-05,1.62203454788149e-07,1.706705318145732e-06,0.3306258753355528,0.0,0.0004446087243394254,-0.0006713119349146698,1.0276125805130771,-0.0004040736437887809,-0.006187062913757387,4.867347488643055e-05,1.697005766982438,0.0026945260615566713,0.0027299129478631414,-9.81345186126463e-06,579.3109826978864,580.9223304583237,580.0810379045786,580.0915502477784
0.664,-1.205958986107791e-07,1.1293649541301767e-05,0.2871422741468771,-0.027699983836181906,-0.018843316326115907,2.655713275372775e-05,1.569021915420775e-07,1.7559940898575392e-06,0.3348513795908971,0.0,0.0004554668620210177,-0.0006482399975203513,1.0343178670933497,0.0009682100951385727,-0.005316564386434067,4.5014222970263787e-05,1.6654700520309738,0.002407067100955811,0.0026735507186147556,-9.203239388359479e-06,578.564688145428,580.0759772115143,579.2521488578712,579.3314214264266
0.668,3.2208202634674805e-07,1.089954890539026e-05,0.2913254576766966,-0.026942879374312195,-0.019689837341581064,3.5902999367990823e-05,1.5158645209737564e-07,1.8051664954289178e-06,0.339086123145512,0.0,0.00046181696197490933,-0.000619669847079529,1.0409063835803813,0.002311969041151823,-0.0043995610533391705,4.1539743415323906e-05,1.633832391584215,0.002097599570148679,0.002589222720638396,-8.597926139207905e-06,577.8223096407157,579.2183874762999,578.4203745040763,578.5668225403816
0.672,6.975347758922988e-07,1.0598528939850044e-05,0.29553415504363206,-0.025896871008691022,-0.020312738880025646,4.4407167958768465e-05,1.4625660153504704e-07,1.8542221610469525e-06,0.3433298426770383,0.0,0.0004635973494970253,-0.0005859217837360343,1.0473752183525702,0.0036117157839306406,-0.0034463675168444714,3.82455874063854e-05,1.602103229995719,0.0017697215587060481,0.0024782172671098312,-8.000967610230938e-06,577.0834028359468,578.3505087687564,577.5863058884751,577.7976502528707
0.676,1.003738798532157e-06,1.0386887830970312e-05,0.2997678990965606,-0.024576320856332077,-0.020707765982918104,5.211201206303196e-05,1.4091300106312348e-07,1.903160721587121e-06,0.3475822776998499,0.0,0.00046079381211938593,-0.000547367634448886,1.0537249878855932,0.004855626575140352,-0.0024672009595225544,3.5124332686117015e-05,1.570266438019172,0.0014262028544691824,0.0023418431214367033,-7.4195389465283735e-06,576.3469735170148,577.4725061901936,576.7497310312893,577.0232480158645
0.68,1.2394538605168903e-06,1.0260003150178692e-05,0.30402622007209756,-0.02299826692279885,-0.020873071127060834,5.9063495525772725e-05,1.3555600805013705e-07,1.9519818205221787e-06,0.35184317054039055,0.0,0.00045343881002877265,-0.0005044203748107003,1.0599572040677818,0.006033494845861071,-0.001472211782868886,3.217129963739038e-05,1.5383395472772496,0.001070557369175371,0.0021816713477007302,-6.859518386010762e-06,575.6127247186427,576.585547295528,575.9113654800261,576.2437397856582
0.684,1.4042194567068766e-06,1.021240454707824e-05,0.30830865409391844,-0.021181682276710814,-0.020809007825811136,6.531380591456032e-05,1.3018597605832898e-07,2.0006851098318247e-06,0.35611226631270526,0.0,0.00044160988405616153,-0.00045752979693903454,1.0660727034864974,0.00713540579171148,-0.00047141315678010415,2.9389404160639833e-05,1.506322963987657,0.000706048506704167,0.0019994087299520253,-6.3300110496963374e-06,574.879944673954,575.69035934257,575.0714304893795,575.4588676030727
0.6880000000000001,1.4983765766978066e-06,1.02377981440059e-05,0.31261470048516704,-0.01915007813819414,-0.020519286410752197,7.091995445986474e-05,1.2480325487659686e-07,2.049270249913149e-06,0.3603893128941649,0.0,0.0004254352154722847,-0.00040719537603205343,1.0720682707545244,0.008147785045924486,0.0005234000622652121,2.67810451921644e-05,1.4743035822982076,0.0003386074184729838,0.001797956983659096,-5.838745776964906e-06,574.1495387598547,574.7904507891021,574.2325741206915,574.6703539796861
0.6920000000000001,1.5230278802590006e-06,1.0329188480445265e-05,0.31694385757102356,-0.016928913317178232,-0.020009942556251513,7.593696825435376e-05,1.194081905531823e-07,2.0977369094918485e-06,0.36467406090138293,0.0,0.00040509557864784157,-0.0003539680160178136,1.0779402347845657,0.009057429955828393,0.001500289905978201,2.4344955295008384e-05,1.442296847809307,-2.7390797392934417e-05,0.001579931684395672,-5.385700874714805e-06,573.4208594536889,573.8872425122183,573.3954594246233,573.8783133140579
0.6960000000000001,1.4799993928933662e-06,1.0478987632488757e-05,0.3212956405982972,-0.014544104887560694,-0.019288629994669206,8.042054291744869e-05,1.1414671128782004e-07,2.145933345514662e-06,0.36896626366632185,0.0,0.0003808172493584566,-0.0002984335800331711,1.083688210171832,0.009856076438007288,0.0024493810510436698,2.2067180503862397e-05,1.4102819096681065,-0.0003874558417951688,0.001348984610184148,-4.973875748043726e-06,572.692160765842,572.9814159598102,572.5596829399864,573.0820681138216
0.7000000000000001,1.371826599716084e-06,1.067908299364846e-05,0.325669558410967,-0.012023340960302591,-0.018365360488132844,8.442806045102159e-05,1.0901740347306701e-07,2.1938610655925635e-06,0.3732656772125895,0.0,0.00035286278251845017,-0.0002411903206697548,1.0893137466561167,0.010538856437757324,0.0033620243496415465,1.9943259401184782e-05,1.3782847543644317,-0.0007411039171431443,0.0011044958938089778,-4.607490158604602e-06,571.9641342102694,572.0736091618794,571.7260747434161,572.2820919001232
