Time_s,X,Y,Z,Roll_deg,Pitch_deg,Yaw_deg,Ref_X,Ref_Y,Ref_Z,Ref_Yaw,vx,vy,vz,p,q,r,T_pert,tau_x,tau_y,tau_z,RPM_0,RPM_1,RPM_2,RPM_3
0.0040000000000000036,-6.51783449945208e-23,4.0,0.010006999594037988,-3.861262043247411e-18,-1.3963409037126566e-18,6.720055526330817e-20,1.49409180602207e-22,4.0,7.200000000000012e-05,0.0,5.628567488317738e-19,800.0,2.0013999188075973,0.0,0.0,0.0,-10.19,4.508920778836622e-18,4.1311283405792925e-18,-7.850087496102184e-20,0.0,0.0,0.0,0.0
0.008000000000000007,1.113506850970939e-22,4.0,0.010010999365392528,-5.1444567313571905e-18,-1.550621506643741e-18,1.4477037634234904e-19,1.49409180602207e-22,4.0,0.00021513340800000038,0.0,3.3232299862985963e-19,444.44444444444446,1.1123332628213918,0.0,0.0,0.0,-0.034338475932384316,1.7651659355412083e-18,-4.099547955979204e-18,-9.337797965599407e-20,534.6826504237879,534.682650423788,534.6826504237879,534.682650423788
0.01200000000000001,1.9252660002880107e-22,4.0,0.010014999136747069,-7.508202362477824e-18,-6.596018485984499e-19,2.0658638454388917e-19,1.49409180602207e-22,4.0,0.00042854147030131276,0.0,-6.914937656472969e-22,-1.004472280501188e-22,0.0009999428386350817,0.0,0.0,0.0,0.11268126925151128,3.118299682643949e-18,3.3123255631005755e-20,-7.817040841626664e-20,538.6882899209492,538.6882899209493,538.6882899209492,538.6882899209492
0.016000000000000014,2.974543020715162e-22,4.0,0.010018998908101609,-1.066237006960521e-17,-9.395393422812715e-20,2.6335698003781796e-19,1.49409180602207e-22,4.0,0.0007113732083620786,0.0,2.4631989463577255e-20,-1.3984529272636976e-22,0.0009999428386350817,0.0,0.0,0.0,0.2602150248187503,4.208181395065685e-18,-9.576565030602878e-19,-7.482935521220512e-20,542.6782129140881,542.6782129140882,542.6782129140881,542.6782129140882
0.020000000000000018,2.2807040051133556e-23,4.0,0.010022998681231899,-1.2747443150059671e-17,-1.4322100228481119e-18,3.6424899219393097e-19,1.49409180602207e-22,4.0,0.0010627853561306145,0.0,-1.734831943231292e-20,-1.8282813842116149e-22,0.0009999430162100503,0.0,0.0,0.0,0.40825158960122987,3.1828981731530844e-18,5.905453733797028e-18,-1.2871971590875256e-19,546.6524639213501,546.6524639213502,546.6524639213501,546.6524639213501
0.023999999999999994,4.345333231415865e-22,4.0,0.010026998466220958,-1.5138755726637144e-17,1.1791391851623047e-19,3.574980901826741e-19,1.49409180602207e-22,4.0,0.001481942297853104,0.0,2.114227105666957e-20,-2.2544199723507083e-22,0.0009999443796619364,0.0,0.0,0.0,0.556779865387341,3.691985591298975e-18,-9.477086817390286e-18,-7.14415066649343e-21,550.6110875689889,550.611087568989,550.6110875689889,550.6110875689889
0.027999999999999997,7.259178445432379e-22,4.0,0.010030998270878251,-1.6228121515255188e-17,9.661018799876323e-19,3.1357581504897254e-19,1.49409180602207e-22,4.0,0.001968016006352204,0.0,4.9338798300768604e-20,-2.563883251171497e-22,0.0009999476962401985,0.0,0.0,0.0,0.7057888904472125,2.3457526203982798e-18,6.126028379835054e-20,3.653014672980215e-20,554.5541294840706,554.5541294840707,554.5541294840706,554.5541294840707
0.032,1.0417607613676867e-21,4.0,0.010034998098508838,-1.726007265695909e-17,2.5982202783182575e-18,2.7084125996841817e-19,1.49409180602207e-22,4.0,0.002520185981773086,0.0,9.287286492293892e-20,-2.809713644027925e-22,0.0009999526889875598,0.0,0.0,0.0,0.8552678219350758,2.3645304599851405e-18,-2.5054106496447694e-18,3.692440012926099e-20,558.4816358110061,558.4816358110062,558.4816358110061,558.4816358110061
0.036000000000000004,1.1027654576202722e-21,4.0,0.010038997949864688,-1.9140583826246594e-17,3.0271560128547225e-18,3.2976701235513776e-19,1.49409180602207e-22,4.0,0.0031376391907935734,0.0,6.71457836222287e-20,-3.057735146579817e-22,0.000999958405146703,0.0,0.0,0.0,1.00520592649194,3.4380385653433046e-18,2.0150899996934163e-18,-8.009500445844852e-20,562.3936529618485,562.3936529618486,562.3936529618485,562.3936529618485
0.04000000000000001,1.191382180529632e-21,4.0,0.010042997824306184,-2.0360149144733388e-17,3.1270039991741828e-18,4.867899120496897e-19,1.49409180602207e-22,4.0,0.0038195700062949468,0.0,2.0635975483092186e-20,-3.309438542292186e-22,0.0009999642570082332,0.0,0.0,0.0,1.1555925808132226,2.8081871460172187e-18,-7.133828800052385e-19,-1.9713068769521988e-19,566.2902276343832,566.2902276343833,566.2902276343832,566.2902276343832
0.04400000000000001,1.184515132598232e-21,4.0,0.010046997720274748,-2.1280792989029598e-17,3.160266301530713e-18,3.447704896081559e-19,1.49409180602207e-22,4.0,0.004565180147490077,0.0,7.472289289002293e-21,-3.5220309353556974e-22,0.0009999699033784101,0.0,0.0,0.0,1.3064172720444134,2.556737691624069e-18,7.652655692151575e-19,1.4571618217396074e-19,570.1714068251389,570.171406825139,570.1714068251389,570.171406825139
0.048000000000000015,1.2606440667012127e-21,4.0,0.010050997635877914,-2.1955760259618117e-17,3.505637280980684e-18,4.922916288775305e-19,1.49409180602207e-22,4.0,0.0053736786205055564,0.0,1.9873797485419618e-20,-3.7096627476687817e-22,0.0009999751607243576,0.0,0.0,0.0,1.4576695965799622,2.3476658036346934e-18,-1.6043813424699549e-18,-1.867052739310885e-19,574.0372378012759,574.037237801276,574.0372378012759,574.0372378012759
0.05200000000000002,1.3564474898989598e-21,4.0,0.010054997569189133,-2.2738786660276188e-17,3.9870573141062436e-18,7.402853555610319e-19,1.49409180602207e-22,4.0,0.006244281659414512,0.0,1.855860761607532e-20,-3.846584515134555e-22,0.00099997994607616,0.0,0.0,0.0,1.6093392596732243,2.5353338258665567e-18,-1.1216625523715395e-18,-3.1016520488073904e-19,577.8877680942014,577.8877680942015,577.8877680942014,577.8877680942014
0.05600000000000002,1.367124559641596e-21,4.0,0.010058997518286514,-2.3206592791990845e-17,4.097065392544038e-18,6.607314788329157e-19,1.49409180602207e-22,4.0,0.007176212667716821,0.0,1.349443535927328e-20,-3.948289655949373e-22,0.0009999842556200275,0.0,0.0,0.0,1.7614160750139074,2.236660776345231e-18,4.794914153277899e-19,6.222708883660342e-20,581.7230454926897,581.7230454926898,581.7230454926897,581.7230454926898
0.060000000000000026,1.3609117157842062e-21,4.0,0.010062997481325544,-2.3313810566232514e-17,4.063646898904305e-18,6.95902830156692e-19,1.49409180602207e-22,4.0,0.008168702160263464,0.0,7.057776428613702e-21,-4.0343295515114184e-22,0.000999988089145365,0.0,0.0,0.0,1.9138899637223956,1.86378102064283e-18,-8.836229528125848e-20,-6.856950858993424e-20,585.5431180217735,585.5431180217736,585.5431180217735,585.5431180217735
0.06400000000000003,1.3411371288844055e-21,4.0,0.010066997456734962,-2.3545551302581445e-17,4.06069540327552e-18,6.472296748104015e-19,1.49409180602207e-22,4.0,0.00922098770562178,0.0,-4.213479600758675e-22,-4.074457374416455e-22,0.0009999914864722292,0.0,0.0,0.0,2.066750953169388,2.032798433549129e-18,-1.4934769876347796e-19,2.78813014715681e-20,589.3480339181798,589.3480339181799,589.3480339181798,589.3480339181798
0.06800000000000003,1.3374988015213065e-21,4.0,0.010070997443195529,-2.3647512713600663e-17,4.007520043417242e-18,7.156571876222979e-19,1.49409180602207e-22,4.0,0.010332313868878392,0.0,-3.859125016612858e-21,-4.1020037724569734e-22,0.000999994501120656,0.0,0.0,0.0,2.219989176489454,1.9135357880279164e-18,-4.280039904664625e-19,-1.0695730481630727e-19,593.1378416238672,593.1378416238673,593.1378416238672,593.1378416238673
0.07200000000000004,1.3241534231479939e-21,4.0,0.01007499743942336,-2.3544253668515104e-17,3.9191409039780304e-18,5.064213392547574e-19,1.49409180602207e-22,4.0,0.011501932154876646,0.0,-1.8065042126900925e-21,-4.1165244390001325e-22,0.0009999971867027946,0.0,0.0,0.0,2.3735948720648232,1.6973746544546522e-18,-9.839450246649166e-20,2.1453759173571406e-19,596.9125897791197,596.9125897791198,596.9125897791197,596.9125897791197
0.07599999999999998,1.1788652090605777e-21,4.0,0.010080654555998455,1.2726025032885535e-16,1.478793741170525e-17,-1.331754868695459e-18,1.49409180602207e-22,4.0,0.012729100951885328,0.0,-1.5273221609888577e-20,3.634778448898954e-22,0.0011657107344827458,0.0,0.0,0.0,2.524195246568127,-1.7427197536066177e-16,-1.1457633357218918e-17,2.125954058185109e-18,600.5904519932145,600.5904519932145,600.5904519932145,600.5904519932146
0.07999999999999999,6.572067071411086e-22,4.0,0.010093005957188185,5.368873699212923e-16,6.555959065789854e-17,-8.800442749099594e-18,1.49409180602207e-22,4.0,0.014013085475695655,0.0,-6.837211232640829e-20,8.89654048242401e-21,0.002000851701285458,0.0,0.0,0.0,2.664868038210345,-4.869087426344623e-16,-5.584710589118219e-17,8.778856447866928e-18,604.005640532527,604.005640532527,604.0056405325269,604.0056405325271
0.08399999999999999,3.374749833579363e-23,4.0,0.010117160784512714,1.216275926563278e-15,1.410790706149137e-16,-1.5572948837923723e-17,1.49409180602207e-22,4.0,0.015353157714143133,0.0,-1.3175162472287656e-19,5.004308067829274e-20,0.003983928002359964,0.0,0.0,0.0,2.7952971116180403,-8.303040041915485e-16,-9.1142515459554e-17,8.272908773316645e-18,607.154974356679,607.1549743566788,607.1549743566787,607.1549743566791
0.088,-1.3027579362636336e-22,4.0,0.010157717675733906,2.147923283724246e-15,2.0735301955701115e-16,-2.378770275214004e-17,1.49409180602207e-22,4.0,0.016748596372051533,0.0,-1.2622281078180284e-19,1.7568018987972536e-19,0.007205505603392372,0.0,0.0,0.0,2.9163462724499563,-1.172182099712523e-15,-9.205411144924573e-17,1.0236870386406758e-17,610.0632753814764,610.0632753814762,610.063275381476,610.0632753814764
0.092,2.76587779875011e-22,4.0,0.010218912373492348,3.3342819668553206e-15,2.7584300505271983e-16,-3.0598215882664875e-17,1.49409180602207e-22,4.0,0.018198686816595637,0.0,-4.9206210757662636e-20,4.659933444004751e-19,0.011559988127622309,0.0,0.0,0.0,3.0285961082497224,-1.5348245563795254e-15,-1.0099532771367688e-16,8.935480024103274e-18,612.7478307659156,612.7478307659153,612.7478307659153,612.7478307659158
0.096,1.2495101616259238e-21,4.0,0.010304576479375415,4.760836677373866e-15,3.686974538243377e-16,-3.79032615269917e-17,1.49409180602207e-22,4.0,0.019702721023079815,0.0,5.561174950405444e-20,1.024423729933354e-18,0.016946160315645456,0.0,0.0,0.0,3.132722566933656,-1.8987630279314173e-15,-1.3474635320563858e-16,9.794969944140597e-18,615.2276352258382,615.2276352258377,615.2276352258376,615.2276352258382
0.1,3.034908261385465e-21,4.0,0.010418129409677353,6.445560408823496e-15,4.900197239162373e-16,-4.304612315328338e-17,1.49409180602207e-22,4.0,0.02125999752112935,0.0,1.5066414631582235e-19,1.975015980133289e-18,0.023264327751424535,0.0,0.0,0.0,3.2294308890215246,-2.3011102434991716e-15,-1.7795330570509256e-16,7.571811933613101e-18,617.5218551388155,617.5218551388148,617.5218551388148,617.5218551388153
0.10400000000000001,6.017564160612129e-21,4.0,0.010562637316505492,8.390519027815902e-15,6.408565932891978e-16,-4.5058410591942816e-17,1.49409180602207e-22,4.0,0.022869821341291532,0.0,2.6624364101618615e-19,3.459314982838181e-18,0.03041720048045926,0.0,0.0,0.0,3.31931995759814,-2.724700207541394e-15,-2.262445028369861e-16,4.12899387947283e-18,619.6466844129349,619.6466844129341,619.6466844129341,619.6466844129347
0.10800000000000001,1.0853510782304209e-20,4.0,0.010740947380317993,1.0589006236473657e-14,8.061209490252208e-16,-4.680728731006057e-17,1.49409180602207e-22,4.0,0.02453150396204348,0.0,4.518904967390996e-19,5.6363597007379155e-18,0.038327912438222186,0.0,0.0,0.0,3.402727453005867,-3.1596123264817676e-15,-2.6254188471620106e-16,3.90706517296285e-18,621.6118035152562,621.6118035152554,621.6118035152552,621.611803515256
0.11200000000000002,1.818987963378248e-20,4.0,0.010955710761502655,1.2991064317824384e-14,9.784254644939432e-16,-5.167723645538538e-17,1.49409180602207e-22,4.0,0.026244363257203772,0.0,7.284034177778804e-19,8.668049149408777e-18,0.04693786700733001,0.0,0.0,0.0,3.4799515401385936,-3.555058920841884e-15,-2.917866230101147e-16,7.628053573619952e-18,623.4257161768843,623.4257161768833,623.4257161768833,623.4257161768843
0.11600000000000002,2.833206436422716e-20,4.0,0.01120940603460481,1.546356840144397e-14,1.1875944677798425e-15,-5.747281784839396e-17,1.49409180602207e-22,4.0,0.02800772344374488,0.0,1.0553766859637904e-18,1.267185597072359e-17,0.05620069218720183,0.0,0.0,0.0,3.5512491571832054,-3.810648903307811e-15,-3.5305704095982097e-16,8.912921943919387e-18,625.0957490880014,625.0957490880004,625.0957490880004,625.0957490880014
0.12000000000000002,4.220334964282482e-20,4.0,0.011504261043815082,1.8027492254851335e-14,1.4145179105054661e-15,-6.37873902592172e-17,1.49409180602207e-22,4.0,0.02982091503000352,0.0,1.436086281822027e-18,1.7723147247723597e-17,0.06606511652564093,0.0,0.0,0.0,3.6170414241502966,-4.097274031803099e-15,-4.0218085485312603e-16,9.761183102265955e-18,626.6328794255516,626.6328794255504,626.6328794255504,626.6328794255514
0.12400000000000003,6.080343898677256e-20,4.0,0.011842311523425006,2.073003763513079e-14,1.6407529481579449e-15,-7.092474689020381e-17,1.49409180602207e-22,4.0,0.03168327476428598,0.0,1.926193365495996e-18,2.3924303203723734e-17,0.07647635662576968,0.0,0.0,0.0,3.6776385674354115,-4.447059638450122e-15,-4.3286120887218595e-16,1.0986075041331112e-17,628.0453058438331,628.045305843832,628.045305843832,628.0453058438331
0.12800000000000003,8.501996097751757e-20,4.0,0.01222541905179821,2.3542326234450847e-14,1.861764621966759e-15,-7.714122215371921e-17,1.49409180602207e-22,4.0,0.03359414558386553,0.0,2.5465712435275517e-18,3.141152791197743e-17,0.08738619822537784,0.0,0.0,0.0,3.7333205843368558,-4.774489110927914e-15,-4.579614347304393e-16,1.0208374297728907e-17,629.3403735573393,629.340373557338,629.340373557338,629.3403735573393
0.13200000000000003,1.156515509362226e-19,4.0,0.012655286905745949,2.6445425697895326e-14,2.0812765904836968e-15,-8.15159346822922e-17,1.49409180602207e-22,4.0,0.03555287656436911,0.0,3.2938659005624877e-18,4.029737546733355e-17,0.09875202783396034,0.0,0.0,0.0,3.7843409317599974,-5.0892785086961904e-15,-4.870034105675675e-16,8.317558137625786e-18,630.5246835923837,630.5246835923823,630.5246835923823,630.5246835923837
0.13600000000000004,1.53519518473641e-19,4.0,0.0131334740028208,2.9463660298540174e-14,2.3000191898703207e-15,-8.921028937279419e-17,1.49409180602207e-22,4.0,0.03755882286955033,0.0,4.151337365118685e-18,5.0680884252664677e-17,0.11053508270736126,0.0,0.0,0.0,3.830929901234068,-5.4407087562236726e-15,-5.179871440160686e-16,1.2380755777161029e-17,631.6041905112712,631.6041905112697,631.6041905112697,631.6041905112711
0.14000000000000004,1.994337218979862e-19,4.0,0.013661407168815292,3.260699096100732e-14,2.5201826496433175e-15,-9.823454210074276e-17,1.49409180602207e-22,4.0,0.039611345701446074,0.0,5.103539047647028e-18,6.26858317316036e-17,0.12269998830835796,0.0,0.0,0.0,3.873297573256409,-5.813751037182401e-15,-5.523027637313197e-16,1.425646999831425e-17,632.5842869299088,632.5842869299071,632.5842869299073,632.5842869299087
0.144,2.542479192123574e-19,4.0,0.014240391941703588,3.5803658733413476e-14,2.7407114242238035e-15,-1.0746924176394479e-16,1.49409180602207e-22,4.0,0.04170981225091379,0.0,6.153067306521889e-18,7.641100334000686e-17,0.13521435200381932,0.0,0.0,0.0,3.9116363962727307,-6.113746889529251e-15,-5.869611043790582e-16,1.487972821814567e-17,633.4698765523128,633.4698765523111,633.4698765523112,633.4698765523127
0.148,3.188248343396144e-19,4.0,0.014871622099121571,3.897931511962186e-14,2.960126095513856e-15,-1.1956943355708078e-16,1.49409180602207e-22,4.0,0.043853595648546885,0.0,7.304024390351635e-18,9.184507951413702e-17,0.1480484081217162,0.0,0.0,0.0,3.9461234325631507,-6.33280260752343e-15,-6.210401938280229e-16,1.8613785399282426e-17,634.2654372396356,634.2654372396339,634.265437239634,634.2654372396355
0.152,3.944849615716354e-19,4.0,0.015556183262224533,4.20869716893004e-14,3.1322223095560723e-15,-1.3742981899431018e-16,1.49409180602207e-22,4.0,0.046042074915965035,0.0,8.632038529748085e-18,1.0887079455695486e-16,0.1611742272499859,0.0,0.0,0.0,3.976932076277046,-6.4977686311276894e-15,-6.074645511145488e-16,2.584782276831276e-17,634.9753003463331,634.9753003463313,634.9753003463316,634.9753003463331
0.156,4.825793192016278e-19,4.0,0.016295052795341998,4.5100331683708285e-14,3.1952759929152643e-15,-1.6406695113816304e-16,1.49409180602207e-22,4.0,0.048274634917477195,0.0,1.0306593487361064e-17,1.2736353377270565e-16,0.17456469182634166,0.0,0.0,0.0,4.004239455947406,-6.6295466424382196e-15,-5.203432153839882e-16,3.684345009869148e-17,635.6038279272525,635.6038279272507,635.6038279272509,635.6038279272525
0.16,5.833792125356106e-19,4.0,0.01708913470208112,4.793880860495461e-14,3.1592667930121584e-15,-1.9367550298252651e-16,1.49409180602207e-22,4.0,0.050550666312114176,0.0,1.2415268938069413e-17,1.471546341807129e-16,0.18819609050802072,0.0,0.0,0.0,4.028155411489397,-6.662876688087645e-15,-4.262222344491654e-16,4.1419798576117285e-17,636.1537857949805,636.1537857949788,636.153785794979,636.1537857949806
0.164,6.964140767325367e-19,4.0,0.017939237472856907,5.0529906624398273e-14,3.0677871809888275e-15,-2.281233671035122e-16,1.49409180602207e-22,4.0,0.05286956550602828,0.0,1.484112979952269e-17,1.6796863567729016e-16,0.20204666485143968,0.0,0.0,0.0,4.048837162313188,-6.601573717362759e-15,-3.680140175648283e-16,4.830222407369398e-17,636.6289886494619,636.6289886494602,636.6289886494602,636.628988649462
0.168,8.214974076003832e-19,4.0,0.018846097982675017,5.2844761979555805e-14,2.9127146897790818e-15,-2.664944130138615e-16,1.49409180602207e-22,4.0,0.0552307346052572,0.0,1.7459460549282406e-17,1.894625665915515e-16,0.21609578313216068,0.0,0.0,0.0,4.0663965533948785,-6.4914581676517665e-15,-2.996056995690448e-16,5.4315586943980814e-17,637.0321710577875,637.0321710577858,637.032171057786,637.0321710577877
0.17200000000000001,9.579102216189828e-19,4.0,0.019810393752867316,5.4827134385699047e-14,2.714731918673475e-15,-3.0554738807515304e-16,1.49409180602207e-22,4.0,0.05763358136884958,0.0,2.0226013703844285e-17,2.1128089957347808e-16,0.23032575218851767,0.0,0.0,0.0,4.080922908538287,-6.298394960720919e-15,-2.447530559086055e-16,5.670643146708799e-17,637.3655189477587,637.365518947757,637.3655189477571,637.3655189477588
0.17600000000000002,1.1048436273792414e-18,4.0,0.02083273094220308,5.650286116269833e-14,2.485703431819222e-15,-3.4554332756782225e-16,1.49409180602207e-22,4.0,0.060077519162349574,0.0,2.3084047194375886e-17,2.3309617762795144e-16,0.24472018928025813,0.0,0.0,0.0,4.092531896613843,-6.114150813512068e-15,-1.9924887765455108e-16,5.94329350925629e-17,637.631794395635,637.6317943956334,637.6317943956335,637.6317943956351
0.18000000000000002,1.2610653136938885e-18,4.0,0.021913642358199658,5.788374979653001e-14,2.2655465159732754e-15,-3.8340796376383817e-16,1.49409180602207e-22,4.0,0.06256196691163772,0.0,2.5913885128967115e-17,2.546698838761507e-16,0.2592615499920112,0.0,0.0,0.0,4.101345577772548,-5.9238953726588674e-15,-1.9266797191004675e-16,5.860972127551723e-17,637.833879632983,637.8338796329815,637.8338796329815,637.8338796329831
0.18400000000000002,1.4255038431148054e-18,4.0,0.02305360210058831,5.891509577004577e-14,2.076408058276637e-15,-4.1830425980239965e-16,1.49409180602207e-22,4.0,0.0650863490571256,0.0,2.8575350204615555e-17,2.757460304840324e-16,0.27393295235721876,0.0,0.0,0.0,4.107458711173173,-5.650562005409692e-15,-2.13433607021519e-16,5.672384132301735e-17,637.9740075346516,637.97400753465,637.9740075346502,637.9740075346517
0.18800000000000003,1.597249033696981e-18,4.0,0.024253031776494054,5.967058608012867e-14,1.93449228709508e-15,-4.52998906563183e-16,1.49409180602207e-22,4.0,0.06765009550830156,0.0,3.0930639850080455e-17,2.9607783801047383e-16,0.288719767081012,0.0,0.0,0.0,4.110955393024627,-5.440092790659361e-15,-2.5626351958361955e-16,5.79504404365604e-17,638.0541461605062,638.0541461605047,638.054146160505,638.0541461605063
0.19200000000000003,1.775720272636621e-18,4.0,0.025512296478458936,6.012368180257574e-14,1.839836085570377e-15,-4.857553647788723e-16,1.49409180602207e-22,4.0,0.07025264159862511,0.0,3.2960213591071764e-17,3.1544982358212435e-16,0.3036082963079084,0.0,0.0,0.0,4.111929634423376,-5.180296981456433e-15,-3.0550048515062623e-16,5.714262886222096e-17,638.0764724977026,638.0764724977013,638.0764724977014,638.0764724977028
0.19600000000000004,1.9606549158413422e-18,4.0,0.026831707015721632,6.030901097961772e-14,1.778381672597055e-15,-5.177603019775872e-16,1.49409180602207e-22,4.0,0.07289342804076723,0.0,3.469232593723984e-17,3.337320958032725e-16,0.3185847926560202,0.0,0.0,0.0,4.1104727979933235,-4.940575320255755e-15,-3.448505098840387e-16,5.76437311817875e-17,638.043086415659,638.0430864156576,638.0430864156577,638.0430864156591
0.20000000000000004,2.1519648325200658e-18,4.0,0.028211522480195084,6.01874216918343e-14,1.733199561811976e-15,-5.483491211920794e-16,1.49409180602207e-22,4.0,0.07557190088219418,0.0,3.621664546427832e-17,3.506937728180565e-16,0.33363583830509846,0.0,0.0,0.0,4.106672846989976,-4.636953566989411e-15,-3.68610560181853e-16,5.733985364579223e-17,637.9559953382294,637.9559953382281,637.9559953382283,637.9559953382295
0.20400000000000004,2.3494137696025585e-18,4.0,0.029651952613572514,5.970344237264408e-14,1.7087127612150408e-15,-5.808129593030019e-16,1.49409180602207e-22,4.0,0.07828751146109224,0.0,3.760082114901764e-17,3.6595329713055515e-16,0.34874864577606884,0.0,0.0,0.0,4.100614666618468,-4.2474831703365316e-15,-3.969528323969507e-16,6.082452955436031e-17,637.8171233092239,637.8171233092228,637.8171233092229,637.8171233092239
0.20800000000000005,2.553091403161903e-18,4.0,0.031153160855637206,5.894802311691908e-14,1.6849749678545558e-15,-6.135687134157416e-16,1.49409180602207e-22,4.0,0.08103971636263092,0.0,3.888683867943092e-17,3.79138243443504e-16,0.3639110947507601,0.0,0.0,0.0,4.09237860555997,-3.93909917463156e-15,-4.0713572659591755e-16,6.253915165928257e-17,637.6282790820247,637.6282790820236,637.6282790820238,637.6282790820248
0.212,2.7628867727891986e-18,4.0,0.03271526888508308,5.806369873043904e-14,1.6633876801836094e-15,-6.471947605507707e-16,1.49409180602207e-22,4.0,0.08382797737556205,0.0,4.0131923204985674e-17,3.9037767720653977e-16,0.3791119398743336,0.0,0.0,0.0,4.0820373492148665,-3.778068600367695e-15,-4.1686090962035316e-16,6.49436833762286e-17,637.3910857088299,637.3910857088289,637.391085708829,637.3910857088299
0.216,2.9788082152622297e-18,4.0,0.03433835178319151,5.708596349913706e-14,1.634377049310277e-15,-6.81105597367298e-16,1.49409180602207e-22,4.0,0.08665176144915253,0.0,4.137886356145452e-17,4.001200355107462e-16,0.39434009932940023,0.0,0.0,0.0,4.069674805496757,-3.649053640165979e-15,-4.1697043627180665e-16,6.670233917858966e-17,637.1074149699485,637.1074149699476,637.1074149699477,637.1074149699488
0.22,3.200761545570497e-18,4.0,0.03602243719030848,5.6118254686650196e-14,1.5965270435512395e-15,-7.140456685741218e-16,1.49409180602207e-22,4.0,0.08951054065044775,0.0,4.2663180359025284e-17,4.088410733234166e-16,0.4095840833002379,0.0,0.0,0.0,4.055378155058618,-3.6337554805953795e-15,-4.1384574418693496e-16,6.700836966384539e-17,636.7792066770623,636.7792066770613,636.7792066770616,636.7792066770625
0.224,3.427875549477783e-18,4.0,0.03776751809155589,5.515688915154199e-14,1.6207400596990635e-15,-7.411756618946203e-16,1.49409180602207e-22,4.0,0.092403792121864,0.0,4.3826427246249033e-17,4.1687230276181543e-16,0.4248331961829561,0.0,0.0,0.0,4.03921021694428,-3.614166439552344e-15,-4.838868206769908e-16,6.162375506127192e-17,636.4078352755221,636.407835275521,636.4078352755213,636.4078352755223
0.228,3.660035621908877e-18,4.0,0.03957355166552162,5.4274318454775665e-14,1.7195587792312993e-15,-7.629069694388748e-16,1.49409180602207e-22,4.0,0.09533099803910688,0.0,4.4554444126600315e-17,4.245585285749558e-16,0.4400782949445146,0.0,0.0,0.0,4.0212373258813745,-3.6789440420129275e-15,-5.810505253873122e-16,5.648302503285604e-17,635.994750273317,635.994750273316,635.9947502733162,635.9947502733171
0.232,3.897639386774562e-18,4.0,0.04144046438447233,5.345132723143774e-14,1.884927899990349e-15,-7.834777392961794e-16,1.49409180602207e-22,4.0,0.09829164556941344,0.0,4.469810108313407e-17,4.3216074064728593e-16,0.4553109219443616,0.0,0.0,0.0,4.001516680894522,-3.726055267731343e-15,-6.79971985981194e-16,5.607295187116917e-17,635.5411863487785,635.5411863487775,635.5411863487777,635.5411863487786
0.23600000000000002,4.141358172238242e-18,4.0,0.04336813823272855,5.2673883771226954e-14,2.1064485080143357e-15,-8.038183545944303e-16,1.49409180602207e-22,4.0,0.10128522683011582,0.0,4.4375202489923886e-17,4.397567621605485e-16,0.47052190137483674,0.0,0.0,0.0,3.9801345031814,-3.760280840214997e-15,-7.750627224224096e-16,5.67034940228678e-17,635.049042057136,635.0490420571349,635.0490420571351,635.049042057136
0.24000000000000002,4.392044642314739e-18,4.0,0.045356415031529915,5.2019660478915064e-14,2.378211114191352e-15,-8.238188409857881e-16,1.49409180602207e-22,4.0,0.10431123884752388,0.0,4.365357960068832e-17,4.474515333146183e-16,0.485701035546135,0.0,0.0,0.0,3.9571697275556352,-3.887778902218483e-15,-8.700560330164035e-16,5.719753790207513e-17,634.5200466575593,634.5200466575582,634.5200466575584,634.5200466575593
0.24400000000000002,4.65073146296685e-18,4.0,0.047405105461166636,5.15137677029153e-14,2.695072977444499e-15,-8.464024052656881e-16,1.49409180602207e-22,4.0,0.10736918351612454,0.0,4.2596994249048246e-17,4.556208173860436e-16,0.5008390530912232,0.0,0.0,0.0,3.932684330909894,-4.052568484903887e-15,-9.656284254410267e-16,6.109377907451134e-17,633.9555374112242,633.955537411223,633.9555374112233,633.9555374112242
0.24800000000000003,4.918750903756986e-18,4.0,0.04951401188422326,5.108381740224641e-14,3.0407874035232567e-15,-8.649148063666846e-16,1.49409180602207e-22,4.0,0.11045856755809541,0.0,4.128362411227442e-17,4.645270433453454e-16,0.5159298613312497,0.0,0.0,0.0,3.906695034502344,-4.142618219804886e-15,-1.0500547672718454e-15,5.732446056661903e-17,633.3558054022299,633.3558054022287,633.355805402229,633.3558054022299
0.252,5.197455056953079e-18,4.0,0.05168290702037348,5.0672955323779576e-14,3.408717870457284e-15,-8.817310506821722e-16,1.49409180602207e-22,4.0,0.11357890248313054,0.0,3.984755032149392e-17,4.738860645157041e-16,0.5309687108025262,0.0,0.0,0.0,3.8792621757825607,-4.1711703661287915e-15,-1.1304781961057902e-15,5.616364243403769e-17,632.7221448814178,632.7221448814164,632.7221448814167,632.7221448814175
0.256,5.488516712566084e-18,4.0,0.05391154564480268,5.0285638363907887e-14,3.768530375649278e-15,-8.938495418932088e-16,1.49409180602207e-22,4.0,0.11672970454857585,0.0,3.8425331004739575e-17,4.833263226987074e-16,0.5459500719288481,0.0,0.0,0.0,3.8504233656981794,-4.205945436830519e-15,-1.182334941076678e-15,5.142800949850912e-17,632.0553239173328,632.0553239173314,632.0553239173319,632.0553239173325
0.26,5.793507330983144e-18,4.0,0.05619964014710386,4.996330244727358e-14,4.1002654586388236e-15,-9.058074704112242e-16,1.49409180602207e-22,4.0,0.11991049471987207,0.0,3.723801675258447e-17,4.927883252153707e-16,0.560866458080516,0.0,0.0,0.0,3.820266460972803,-4.2904462519248364e-15,-1.2110376347822086e-15,5.1800473599378146e-17,631.3572722161224,631.357272216121,631.3572722161214,631.3572722161222
0.264,6.113652748818521e-18,4.0,0.05854687163067883,4.978947851604269e-14,4.406867645909725e-15,-9.176167134367498e-16,1.49409180602207e-22,4.0,0.12312079863130282,0.0,3.646448755140058e-17,5.026946639017738e-16,0.5757096497070193,0.0,0.0,0.0,3.788858212759595,-4.476707379245353e-15,-1.2390452979644483e-15,5.2181053748645186e-17,630.6294338194749,630.6294338194734,630.6294338194738,630.6294338194747
0.268,6.450077230638317e-18,4.0,0.060952890534670755,4.979951987635225e-14,4.691300089922516e-15,-9.310667740223895e-16,1.49409180602207e-22,4.0,0.12636014654704567,0.0,3.607663853845851e-17,5.137121315772668e-16,0.5904710673953809,0.0,0.0,0.0,3.7562651765108086,-4.714285957316095e-15,-1.2691438237692384e-15,5.464677537310222e-17,629.8732505347609,629.8732505347593,629.8732505347598,629.8732505347607
0.272,6.8038183719415786e-18,4.0,0.06341730615563829,4.989753416081514e-14,4.9557851193181285e-15,-9.456552892310727e-16,1.49409180602207e-22,4.0,0.12962807332252388,0.0,3.6049941517969147e-17,5.261541400726442e-16,0.6051421792106285,0.0,0.0,0.0,3.72257621981833,-4.852468066402338e-15,-1.3007661021090756e-15,5.659397388896204e-17,629.0906857510088,629.0906857510072,629.0906857510075,629.0906857510086
0.276,7.176129189191774e-18,4.0,0.06593970540603221,5.0084230829718746e-14,5.1730325041992935e-15,-9.558569708579723e-16,1.49409180602207e-22,4.0,0.13292411836605678,0.0,3.6458606406871015e-17,5.397670152131391e-16,0.6197148904680303,0.0,0.0,0.0,3.6878435194328913,-4.997562859365888e-15,-1.3030558563267166e-15,5.213452914942846e-17,628.282855223049,628.2828552230474,628.2828552230477,628.2828552230487
0.28,7.567901197927579e-18,4.0,0.06851965739616754,5.03492310080142e-14,5.335582386914769e-15,-1.0025480369086276e-06,1.49409180602207e-22,4.0,0.1362478256008061,0.0,3.745372638608236e-17,5.543102149931781e-16,0.6341833288168287,0.0,0.0,0.0,3.6521107342077084,-5.136732554373918e-15,-1.2907500723481249e-15,1.1711346388004152e-06,627.4489729298365,627.4489729298348,627.4523846735065,627.4523846735075
0.28400000000000003,7.980434135052918e-18,4.0,0.07115670797495281,5.064308259334957e-14,5.374707476947684e-15,-2.779830684961884e-06,1.49409180602207e-22,4.0,0.13959874342701678,0.0,3.938866786840569e-17,5.696469446710239e-16,0.6485423513430759,0.0,0.0,0.0,3.615433237372486,-5.223695012139552e-15,-1.2004442969968569e-15,2.1173850139739778e-06,626.5922632957396,626.5922632957379,626.5984400713961,626.5984400713972
0.28800000000000003,8.414396647850096e-18,4.0,0.07385037020867256,5.093705083216605e-14,5.2444801182530734e-15,-4.949951019928452e-06,1.49409180602207e-22,4.0,0.14297642468454957,0.0,4.2770990238234604e-17,5.854605930398138e-16,0.6627855948410283,0.0,0.0,0.0,3.5778865338535932,-5.279281042032107e-15,-1.0422287916178884e-15,2.6494565652025473e-06,625.7146735241013,625.7146735240997,625.7224132742316,625.7224132742328
0.29200000000000004,8.869595764972362e-18,4.0,0.07660016186693722,5.113643489197311e-14,4.92349410849205e-15,-7.406205810585266e-06,1.49409180602207e-22,4.0,0.14638042661570333,0.0,4.814932522193224e-17,6.011639543188396e-16,0.6769085370234434,0.0,0.0,0.0,3.5394711615218224,-5.224495047449011e-15,-8.382842450459737e-16,3.0731645519387453e-06,624.8156808923078,624.8156808923063,624.8246713112927,624.824671311294
0.29600000000000004,9.344749337613023e-18,4.0,0.07940560192169821,5.1272201012992306e-14,4.428394283477669e-15,-1.0058623919564e-05,1.49409180602207e-22,4.0,0.14981031082832508,0.0,5.562282801601028e-17,6.161929821074272e-16,0.6909109227196355,0.0,0.0,0.0,3.500194679251397,-5.19954064057319e-15,-6.280812339485385e-16,3.4036931035607174e-06,623.8953477950297,623.8953477950282,623.9053198425268,623.9053198425281
0.30000000000000004,9.837295044270207e-18,4.0,0.08226618433326703,5.134742823068044e-14,3.835955260424622e-15,-1.2828536771994967e-05,1.49409180602207e-22,4.0,0.15326564325920555,0.0,6.48622859694894e-17,6.303478967941526e-16,0.7047905272789714,0.0,0.0,0.0,3.4601178743399443,-5.173926160218648e-15,-4.797050523476926e-16,3.65056459069835e-06,622.9549925100995,622.9549925100981,622.9657039731543,622.9657039731557
0.30400000000000005,1.0345354468646315e-17,4.0,0.0851813708192595,5.132713000754299e-14,3.1114642192547157e-15,-1.56512588612909e-05,1.49409180602207e-22,4.0,0.15674599413775814,0.0,7.54286234179624e-17,6.435804283730847e-16,0.7185414649786699,0.0,0.0,0.0,3.419317071537486,-5.103369491283946e-15,-2.8993622195149093e-16,3.826891266089758e-06,621.9962992564261,621.9962992564248,622.0075453982885,622.0075453982898
0.30800000000000005,1.086690933412924e-17,4.0,0.08815066703547286,5.128315959949333e-14,2.1935207355023258e-15,-1.847364278566099e-05,1.49409180602207e-22,4.0,0.16025093794997913,0.0,8.745619731073997e-17,6.558671440298951e-16,0.7321633024768722,0.0,0.0,0.0,3.3777150772357523,-5.1101717699898265e-15,-1.608333097392999e-17,3.943498952380159e-06,621.0173495967925,621.0173495967913,621.0289566800471,621.0289566800486
0.31200000000000006,1.1398144678070759e-17,4.0,0.09117357082376217,5.1231525371871495e-14,1.1309140023380393e-15,-2.1249411522168324e-05,1.49409180602207e-22,4.0,0.16378005340268728,0.0,1.0131676536813039e-16,6.674557671591041e-16,0.7456586797291054,0.0,0.0,0.0,3.3353383923203044,-5.1340180782228984e-15,2.3696989812806315e-16,4.006230911530615e-06,620.0186639573486,620.0186639573475,620.0304746737111,620.0304746737127
0.31600000000000006,1.1934851924903586e-17,4.0,0.09424953576478932,5.1156076138347995e-14,-4.6443898346465923e-17,-2.3939718197607457e-05,1.49409180602207e-22,4.0,0.16733292338804043,0.0,1.1672443063840597e-16,6.786946344930301e-16,0.7590249293584581,0.0,0.0,0.0,3.292287799929062,-5.1384440052859266e-15,4.732331762380373e-16,4.02186319552233e-06,619.00251755014,619.0025175501387,619.0143938149877,619.0143938149893
0.32000000000000006,1.2472199454091412e-17,4.0,0.09737800235504743,5.105267570419857e-14,-1.2891022644888706e-15,-2.651326709843278e-05,1.49409180602207e-22,4.0,0.17090913494832735,0.0,1.3303998636159494e-16,6.895436968007025e-16,0.7722551465196459,0.0,0.0,0.0,3.248602282380563,-5.1363587636741275e-15,6.709946513088873e-16,3.997615608902719e-06,617.9697359582614,617.9697359582602,617.9815603506216,617.9815603506233
0.32400000000000007,1.3005319428887277e-17,4.0,0.10055835332591903,5.088477663007025e-14,-2.5700655464182362e-15,-2.8944667111314763e-05,1.49409180602207e-22,4.0,0.1745082792410327,0.0,1.4973493344677816e-16,6.997332753458782e-16,0.7853397040953904,0.0,0.0,0.0,3.204411981784716,-5.089612336601298e-15,8.468988056110879e-16,3.9390924044806845e-06,616.9233119677083,616.9233119677071,616.9349830207011,616.9349830207028
0.32800000000000007,1.3529134635869516e-17,4.0,0.10378992031025559,5.0660105501552035e-14,-3.853855252743442e-15,-3.121446458889415e-05,1.49409180602207e-22,4.0,0.17812995150417293,0.0,1.662791023406809e-16,7.090449311642975e-16,0.7982677747814582,0.0,0.0,0.0,3.159835413450325,-5.047360708167201e-15,9.913504159300395e-16,3.852176916714624e-06,615.8659811854606,615.8659811854595,615.8774143154056,615.8774143154073
0.3320000000000001,1.4038865516551218e-17,4.0,0.10707202897982218,5.036686748266343e-14,-5.134939166966584e-15,-3.33080943996032e-05,1.49409180602207e-22,4.0,0.18177375102190133,0.0,1.8234478854936984e-16,7.172801043913708e-16,0.8110295112676121,0.0,0.0,0.0,3.114901175775157,-4.987296809861746e-15,1.1312459727272416e-15,3.741769593722322e-06,614.798360236262,614.798360236261,614.809484968673,614.8094849686747
0.3360000000000001,1.4530028844409486e-17,4.0,0.11040400071331896,4.99725549912074e-14,-6.432926017751022e-15,-3.5215203916488066e-05,1.49409180602207e-22,4.0,0.1854392810903802,0.0,1.9784807262116896e-16,7.242260588884271e-16,0.8236223831626643,0.0,0.0,0.0,3.0696347327262705,-4.884379269326759e-15,1.2954138275582301e-15,3.612180917019991e-06,613.7209956953196,613.7209956953187,613.7317540007091,613.7317540007109
0.3400000000000001,1.499779517666003e-17,4.0,0.11378515233546846,4.9450205313415606e-14,-7.734136821182883e-15,-3.692907290187094e-05,1.49409180602207e-22,4.0,0.18912614898391802,0.0,2.1283942497623742e-16,7.294866541751567e-16,0.8360453075331937,0.0,0.0,0.0,3.024062274952911,-4.74278950018388e-15,1.4536551129317835e-15,3.467215957921126e-06,612.634455598224,612.6344555982232,612.644800466599,612.6448004666007
0.3440000000000001,1.543705149278588e-17,4.0,0.11721479597948395,4.879055878666276e-14,-8.996019438378966e-15,-3.844609791991464e-05,1.49409180602207e-22,4.0,0.19283396592137,0.0,2.271230102016076e-16,7.326313880341391e-16,0.848297141008643,0.0,0.0,0.0,2.978210477188921,-4.5812667676225785e-15,1.5709617234123333e-15,3.3102261885163507e-06,611.5393238396506,611.5393238396499,611.5492179996696,611.5492179996714
0.3480000000000001,1.584297863937361e-17,4.0,0.1206922390491292,4.797105257775951e-14,-1.0191236726833929e-14,-3.976533439955447e-05,1.49409180602207e-22,4.0,0.19656234703279937,0.0,2.4023943414053677e-16,7.333314454208222e-16,0.8603767113802521,0.0,0.0,0.0,2.9321063000078187,-4.38354747942243e-15,1.6557591681215538e-15,3.144155872333242e-06,610.4361955812095,610.4361955812088,610.4456103488026,610.4456103488043
0.3520000000000001,1.621102725264918e-17,4.0,0.1242167713548365,4.6981329920758316e-14,-1.1293465955969676e-14,-4.088892595891145e-05,1.49409180602207e-22,4.0,0.20031091132639842,0.0,2.5169015043102376e-16,7.312561598558629e-16,0.8722815507396342,0.0,0.0,0.0,2.8858030209896848,-4.162230552566949e-15,1.707438486502669e-15,2.972559907303211e-06,609.3263005903673,609.3263005903667,609.3352177527572,609.3352177527589
0.3560000000000001,1.6537301740526452e-17,4.0,0.12778767328137164,4.5866812438411465e-14,-1.230566474621608e-14,-4.181953285069618e-05,1.49409180602207e-22,4.0,0.20407928165566652,0.0,2.6123067073625166e-16,7.262723651762288e-16,0.8840087207947172,0.0,0.0,0.0,2.839337960485926,-3.98162316483767e-15,1.7537097632824915e-15,2.796116169588283e-06,608.2104980426041,608.2104980426035,608.2189012960152,608.218901296017
0.3600000000000001,1.6818399556719536e-17,4.0,0.13140423123428038,4.462311524985542e-14,-1.3243380581598145e-14,-4.2562748347627264e-05,1.49409180602207e-22,4.0,0.2078670846868438,0.0,2.6885470319382236e-16,7.185868713378432e-16,0.8955565793205501,0.0,0.0,0.0,2.792717448365655,-3.786583563497726e-15,1.8108161758528407e-15,2.618346656021269e-06,607.0889025231453,607.0889025231448,607.0967860616328,607.0967860616344
0.3640000000000001,1.7051655582121187e-17,4.0,0.1350657282868997,4.316121659009912e-14,-1.4163820356362266e-14,-4.312335248647264e-05,1.49409180602207e-22,4.0,0.21167395086659824,0.0,2.750123736917669e-16,7.079759989843671e-16,0.9069258494220355,0.0,0.0,0.0,2.7459666619346197,-3.477888484019248e-15,1.925222890880383e-15,2.4385179738043636e-06,605.9620905181213,605.962090518121,605.9694462693263,605.9694462693279
0.3680000000000001,1.7233791521214644e-17,4.0,0.1387714901241644,4.145150349716467e-14,-1.505108739313149e-14,-4.350781238943285e-05,1.49409180602207e-22,4.0,0.21549951438996442,0.0,2.801177705147205e-16,6.935911951557912e-16,0.9181198225649446,0.0,0.0,0.0,2.6990176978506155,-3.1186716574858916e-15,2.030643070153991e-15,2.2587844405152774e-06,604.8283879901311,604.828387990131,604.8352143523895,604.835214352391
0.3720000000000001,1.7361764923277986e-17,4.0,0.14252081391073512,3.95338242162333e-14,-1.5899944276767994e-14,-4.3725273443830356e-05,1.49409180602207e-22,4.0,0.21934341316853218,0.0,2.8430232696722886e-16,6.748025073427743e-16,0.9291410101547853,0.0,0.0,0.0,2.6519457138438964,-2.787847174091941e-15,2.1290904842388064e-15,2.082527956991109e-06,603.6895714400459,603.6895714400458,603.6958770058212,603.6958770058226
0.3760000000000001,1.7432233395766176e-17,4.0,0.1463129585507709,3.7498276703963126e-14,-1.6658357550234588e-14,-4.378394209302297e-05,1.49409180602207e-22,4.0,0.22320528879888304,0.0,2.871806411525093e-16,6.519293802133086e-16,0.939984057112944,0.0,0.0,0.0,2.604846600560823,-2.5466729795801373e-15,2.1716416095180277e-15,1.909015568519994e-06,602.5479400104502,602.5479400104502,602.553731162115,602.5537311621164
0.38,1.744280140500192e-17,4.0,0.1501472088038419,3.540476778663642e-14,-1.733951494459948e-14,-4.36921964623475e-05,1.49409180602207e-22,4.0,0.22708478653127284,0.0,2.884525293995851e-16,6.259806654614789e-16,0.9506454364110546,0.0,0.0,0.0,2.5576873994809555,-2.365972737378418e-15,2.2166199578215943e-15,1.738773723972588e-06,601.4026755286815,601.4026755286816,601.407960284995,601.4079602849964
0.384,1.7391201164654337e-17,4.0,0.1540228503027574,3.333238294724071e-14,-1.7937121153342277e-14,-4.3460408464193825e-05,1.49409180602207e-22,4.0,0.23098155523855893,0.0,2.8789467209106173e-16,5.981587902844635e-16,0.9611271620631022,0.0,0.0,0.0,2.5104850844337188,-2.2721980924344714e-15,2.2509313861055706e-15,1.5744650137932332e-06,600.2541666314828,600.2541666314829,600.2589611528505,600.2589611528518
0.388,1.7275577908218757e-17,4.0,0.157939133541752,3.1298884575374876e-14,-1.8454110882778524e-14,-4.309779799063559e-05,1.49409180602207e-22,4.0,0.234895247385369,0.0,2.8568295231482757e-16,5.694728434442741e-16,0.9714270317122352,0.0,0.0,0.0,2.4633297423408704,-2.199162882267608e-15,2.2814820264500074e-15,1.4151598233812939e-06,599.1045948282625,599.1045948282626,599.108912508111,599.1089125081122
0.392,1.7094093244249173e-17,4.0,0.1618953161440137,2.9270372770287687e-14,-1.8866031813219606e-14,-4.2614824924481415e-05,1.49409180602207e-22,4.0,0.23882551899751148,0.0,2.8162720159374073e-16,5.403644933546199e-16,0.9815412273896733,0.0,0.0,0.0,2.416226851672766,-2.0877811589757307e-15,2.280755586768049e-15,1.2626761233008615e-06,597.9540851800043,597.9540851800045,597.9579450430093,597.9579450430107
0.396,1.6845886665424457e-17,4.0,0.16589065777098955,2.7285711275429105e-14,-1.92072636255186e-14,-4.201965610819876e-05,1.49409180602207e-22,4.0,0.24277202963162434,0.0,2.7579966903388607e-16,5.108762009436238e-16,0.9914700531482857,0.0,0.0,0.0,2.369192048807192,-2.020706712823755e-15,2.3045289558805808e-15,1.114756393388838e-06,596.803018828054,596.8030188280542,596.8064330903326,596.8064330903339
0.4,1.6530105497193733e-17,4.0,0.16992448055121973,2.5388169977607566e-14,-1.9487821294244977e-14,-4.132168611841094e-05,1.49409180602207e-22,4.0,0.24673444234506112,0.0,2.684171580587003e-16,4.812859891368119e-16,1.0012194779512624,0.0,0.0,0.0,2.32211831687676,-2.005772948413035e-15,2.337169768031968e-15,9.731623453719817e-07,595.6487627391209,595.6487627391211,595.6517491057596,595.6517491057609
0.404,1.614585320765201e-17,4.0,0.17399605287097394,2.3606622384295735e-14,-1.968768568734919e-14,-4.053082330107789e-05,1.49409180602207e-22,4.0,0.2507124236660122,0.0,2.5967760332988897e-16,4.52331556282788e-16,1.0107918770963147,0.0,0.0,0.0,2.2751325487892666,-2.029188466075575e-15,2.344868630143946e-15,8.388727377494955e-07,594.4944179222866,594.4944179222867,594.4969971905776,594.496997190579
0.40800000000000003,1.569196475647905e-17,4.0,0.17810464295736939,2.1928221831181323e-14,-1.9734803860955413e-14,-3.9655519553781324e-05,1.49409180602207e-22,4.0,0.25470564356385994,0.0,2.491257509853252e-16,4.245294151274117e-16,1.020183878911471,0.0,0.0,0.0,2.2282546549297826,-2.04429068745013e-15,2.268117846052186e-15,7.105865919346693e-07,593.3404765363344,593.3404765363347,593.3426656151236,593.3426656151249
0.41200000000000003,1.516788906172368e-17,4.0,0.18224955955824484,2.033011455718548e-14,-1.9572224279644277e-14,-3.8704707804886114e-05,1.49409180602207e-22,4.0,0.2587137754197652,0.0,2.3583522180398297e-16,3.978970564677553e-16,1.029396521740397,0.0,0.0,0.0,2.1814220418974744,-2.0385875262876114e-15,2.10948692209769e-15,5.892069949711569e-07,592.1853939842731,592.1853939842732,592.1872126743503,592.1872126743516
0.41600000000000004,1.4574065385210188e-17,4.0,0.1864300606499552,1.8805374049244368e-14,-1.9171799606132838e-14,-3.768759060267238e-05,1.49409180602207e-22,4.0,0.26273649599748444,0.0,2.188428667241619e-16,3.72213900223418e-16,1.0384297027309919,0.0,0.0,0.0,2.13475615457427,-2.0291710069693214e-15,1.893695183510153e-15,4.754104488864542e-07,591.0321671193708,591.0321671193709,591.0336374202805,591.0336374202817
0.42000000000000004,1.391230639674096e-17,4.0,0.19064539764781077,1.7365132939780127e-14,-1.8560027813044036e-14,-3.661264801971303e-05,1.49409180602207e-22,4.0,0.26677348541441515,0.0,1.9788879657527133e-16,3.474266160252429e-16,1.0472791339313279,0.0,0.0,0.0,2.0882903812908817,-2.036706947001549e-15,1.6771810684744587e-15,3.687262450615348e-07,589.8816352035775,589.8816352035775,589.8827777869935,589.8827777869947
0.42400000000000004,1.3184588281557573e-17,4.0,0.19489482487897186,1.5970319410826885e-14,-1.7708035246103494e-14,-3.548798422774635e-05,1.49409180602207e-22,4.0,0.2708244271128678,0.0,1.730187808109083e-16,3.234218479808269e-16,1.0559415967176604,0.0,0.0,0.0,2.0420391444588035,-2.003390250745303e-15,1.4098898089886061e-15,2.6905945397562957e-07,588.7341723916638,588.7341723916637,588.7350077597221,588.735007759723
0.42800000000000005,1.2393897074608019e-17,4.0,0.199177599598009,1.462017018368044e-14,-1.6608734825208336e-14,-3.432131503303334e-05,1.49409180602207e-22,4.0,0.27488900783156295,0.0,1.4416962529931865e-16,3.000005654558124e-16,1.0644178251359242,0.0,0.0,0.0,1.9960167919469862,-1.971314931392831e-15,1.1050989031964641e-15,1.7628571551442923e-07,587.5901539073881,587.590153907388,587.5907022999701,587.590702299971
0.43200000000000005,1.1544517809266158e-17,4.0,0.20349298205733216,1.3331707252845272e-14,-1.530271551688667e-14,-3.311995679407604e-05,1.49409180602207e-22,4.0,0.2789669175773518,0.0,1.114414132907245e-16,2.77024869216205e-16,1.0727085568909112,0.0,0.0,0.0,1.9502374847746382,-1.9612284154050757e-15,8.135767248731013e-16,9.025231483475291e-08,586.449953231214,586.4499532312137,586.4502345355655,586.4502345355663
0.43600000000000005,1.0641211781035514e-17,4.0,0.20784023560592974,1.2133483949322766e-14,-1.3807274373466935e-14,-3.18908196105727e-05,1.49409180602207e-22,4.0,0.2830578495971584,0.0,7.53639065119729e-17,2.5478742715177576e-16,1.0808145484740073,0.0,0.0,0.0,1.9047151369602764,-1.9878032875046577e-15,5.192032923400711e-16,1.0782688883836374e-08,585.3139405503824,585.3139405503822,585.3139742238118,585.3139742238127
0.44000000000000006,9.688658948046141e-18,4.0,0.2122186268107881,1.098936061797384e-14,-1.2071779506229836e-14,-3.064040426552155e-05,1.49409180602207e-22,4.0,0.2871615003501418,0.0,3.612636378808874e-17,2.3352439277144407e-16,1.088736582306199,0.0,0.0,0.0,1.8594633658961972,-1.9775109956069112e-15,1.4973750005439038e-16,-6.231949737522873e-08,584.1824814528952,584.1824814528948,584.1822864573686,584.1822864573693
0.44400000000000006,8.693009676368454e-18,4.0,0.21662743204049825,9.895298678332869e-15,-1.011908412173809e-14,-2.9374521086054067e-05,1.49409180602207e-22,4.0,0.2912775694800768,0.0,-6.431599838066347e-18,2.1313390625037425e-16,1.0964761165648318,0.0,0.0,0.0,1.8144823729189377,-1.9654034581261265e-15,-2.3072567678737806e-16,-1.2959534800322895e-07,583.0556083458227,583.0556083458222,583.0552020627309,583.0552020627315
0.44800000000000006,7.661125204901242e-18,4.0,0.22106595625019598,8.880899106260933e-15,-7.972027255769752e-15,-2.8098502962280898e-05,1.49409180602207e-22,4.0,0.29540575978795136,0.0,-5.21772582657786e-17,1.9353613984398766e-16,1.1040371526044923,0.0,0.0,0.0,1.7697339701609551,-1.990521456517318e-15,-6.132561693420667e-16,-1.9136507406666628e-07,581.9323888213295,581.9323888213288,581.9317877312855,581.9317877312859
0.45200000000000007,6.600701171927307e-18,4.0,0.22553350725763063,7.978761849502382e-15,-5.675287363889742e-15,-2.681804960373812e-05,1.49409180602207e-22,4.0,0.29954577720477904,0.0,-1.0041791421100099e-16,1.7509557061043485e-16,1.1114236494732255,0.0,0.0,0.0,1.7252313126608017,-2.0584467871752945e-15,-9.730633987980776e-16,-2.4698189439513335e-07,580.8131742442735,580.8131742442727,580.8123969631667,580.8123969631671
0.45600000000000007,5.5201627428844625e-18,4.0,0.23002934123664387,7.223687789821719e-15,-3.2968455217691104e-15,-2.553811387019928e-05,1.49409180602207e-22,4.0,0.3036973307646254,0.0,-1.5017688652489069e-16,1.5850794574966077e-16,1.118631979544407,0.0,0.0,0.0,1.6810981327087715,-2.1740571876968466e-15,-1.2795794844538831e-15,-2.9708450883330424e-07,579.7011098354135,579.7011098354126,579.700173081777,579.7001730817774
0.4600000000000001,4.428140688625213e-18,4.0,0.23455273457430337,6.569165135427794e-15,-8.998836626852455e-16,-2.426325386677394e-05,1.49409180602207e-22,4.0,0.3078601325778461,0.0,-2.0020740673703452e-16,1.4413581102386804e-16,1.1256583617544087,0.0,0.0,0.0,1.6373140201110972,-2.2448836512613815e-15,-1.5284542816676273e-15,-3.4193063675373737e-07,578.5957214221871,578.595721422186,578.5946412018121,578.5946412018124
0.4640000000000001,3.333052516323959e-18,4.0,0.2391029568495406,6.047773280173706e-15,1.4782444583826237e-15,-2.2997892078671167e-05,1.49409180602207e-22,4.0,0.31203389780453533,0.0,-2.493136423838944e-16,1.3193844680925748e-16,1.1325022608955904,0.0,0.0,0.0,1.5939128065284094,-2.36017312908325e-15,-1.7409725907892698e-15,-3.814911788293565e-07,577.4979039162263,577.4979039162251,577.4966964257777,577.496696425778
0.4680000000000001,2.2428981863953527e-18,4.0,0.2436792785148859,5.7272272218760724e-15,3.830110690277431e-15,-2.1745668950718328e-05,1.49409180602207e-22,4.0,0.3162183446281833,0.0,-2.9674117120507265e-16,1.2232066222630102e-16,1.1391640504707978,0.0,0.0,0.0,1.5509129959879775,-2.563275403242668e-15,-1.9470950178389098e-15,-4.1649741731530294e-07,576.408171145357,576.4081711453557,576.4068503612223,576.4068503612224
0.4720000000000001,1.1654717070383352e-18,4.0,0.24828100392744964,5.575865450584277e-15,6.153506036400618e-15,-2.050987880776239e-05,1.49409180602207e-22,4.0,0.32041319422954095,0.0,-3.4222405502028775e-16,1.1601964134433039e-16,1.145646466283798,0.0,0.0,0.0,1.5082660728800068,-2.7429160351773146e-15,-2.1546438558842014e-15,-4.4720326944964726e-07,575.3253363949581,575.3253363949568,575.3239155680669,575.3239155680672
0.4760000000000001,1.0816272048567819e-19,4.0,0.25290746389052843,5.545714010441001e-15,8.470588631300398e-15,-1.9293534277204723e-05,1.49409180602207e-22,4.0,0.32461817076069,0.0,-3.8585538534422563e-16,1.1297716489256233e-16,1.1519564654168866,0.0,0.0,0.0,1.4659376222920504,-2.8779994770960704e-15,-2.3895517014833654e-15,-4.738013795756108e-07,574.2485626739814,574.2485626739799,574.2470545184323,574.2470545184325
0.4800000000000001,-9.214561389316903e-19,4.0,0.2575579845172086,5.6459813999334486e-15,1.0775384865203003e-14,-1.8099496680267357e-05,1.49409180602207e-22,4.0,0.32883300131931786,0.0,-4.278052608296598e-16,1.1270178967894358e-16,1.1580977369139935,0.0,0.0,0.0,1.4239556221600616,-3.0321035813146444e-15,-2.627114637566947e-15,-4.963434315012182e-07,573.1785979668853,573.1785979668837,573.1770151084509,573.1770151084511
0.4840000000000001,-1.9154412194422796e-18,4.0,0.26223187674175613,5.856059736183715e-15,1.3015393804924938e-14,-1.6930201577451913e-05,1.49409180602207e-22,4.0,0.3330574159231947,0.0,-4.678503014082779e-16,1.1494973574329176e-16,1.1640693442948604,0.0,0.0,0.0,1.3823695304491785,-3.1711315418596343e-15,-2.81505733797406e-15,-5.1520772869863e-07,572.116745141644,572.1167451416422,572.1150990746875,572.1150990746876
0.4880000000000001,-2.865984528610493e-18,4.0,0.26692847147808424,6.081816004489338e-15,1.5129927987496218e-14,-1.5787871301577698e-05,1.49409180602207e-22,4.0,0.3372911474848518,0.0,-5.0516887554193e-16,1.1913557970449306e-16,1.1698711377739648,0.0,0.0,0.0,1.341157977688471,-3.2078931269382233e-15,-2.9347258557605154e-15,-5.305416155147598e-07,571.0625025099203,571.0625025099184,571.0608043225012,571.0608043225013
0.4920000000000001,-3.7659224639352176e-18,4.0,0.2716470817842556,6.314400655933994e-15,1.707978420187455e-14,-1.4674455166813845e-05,1.49409180602207e-22,4.0,0.3415339317864595,0.0,-5.386626865998892e-16,1.242494254065632e-16,1.175503152958357,0.0,0.0,0.0,1.300375788153289,-3.2355505088453906e-15,-3.001066558398845e-15,-5.425708822684121e-07,570.0173190347319,570.0173190347301,570.0155791588952,570.0155791588952
0.4960000000000001,-4.608943675847767e-18,4.0,0.2763870319340383,6.560828020767752e-15,1.885382586594125e-14,-1.3591559795961651e-05,1.49409180602207e-22,4.0,0.34578550745490366,0.0,-5.675993244912238e-16,1.2961686902835795e-16,1.1809652646212752,0.0,0.0,0.0,1.2600193967236784,-3.2720280671796566e-15,-3.04122860560963e-15,-5.516137829665032e-07,568.981153530206,568.9811535302042,568.9793814349372,568.9793814349373
0.5000000000000001,-5.3889375680064715e-18,4.0,0.281147668415751,6.830753372668773e-15,2.040135651497435e-14,-1.254060596513288e-05,1.49409180602207e-22,4.0,0.3500456159370581,0.0,-5.915257193874432e-16,1.3531446869000511e-16,1.1862600951112134,0.0,0.0,0.0,1.2200626005617616,-3.320899037717464e-15,-3.0151314172382054e-15,-5.578193120767582e-07,567.9533809849023,567.9533809849005,567.9515857110525,567.9515857110528
0.5040000000000001,-6.10066007687157e-18,4.0,0.2859283211122329,7.106458258560156e-15,2.1684949144967082e-14,-1.1522781826782807e-05,1.49409180602207e-22,4.0,0.35431400147525294,0.0,-6.097133000169073e-16,1.4136573156181874e-16,1.1913891593406722,0.0,0.0,0.0,1.1805573162408083,-3.3508748881244397e-15,-2.9268317049434473e-15,-5.613986392353738e-07,566.9353864110158,566.935386411014,566.933576373211,566.9335763732112
0.5080000000000001,-6.740566536973695e-18,4.0,0.2907283258702161,7.393142781484383e-15,2.2748075836612265e-14,-1.053903966611738e-05,1.49409180602207e-22,4.0,0.3585904110829363,0.0,-6.21888822430482e-16,1.4770032377682216e-16,1.1963519531387303,0.0,0.0,0.0,1.1415102261565033,-3.3875107638836336e-15,-2.8577281204071445e-15,-5.625761924351236e-07,565.9273955954192,565.9273955954175,565.925578530304,565.9255785303043
0.512,-7.305119178614607e-18,4.0,0.29554703191080045,7.687499733499627e-15,2.35596293135483e-14,-9.59011646155532e-06,1.49409180602207e-22,4.0,0.36287459452052845,0.0,-6.2822723335871085e-16,1.5427464959747723e-16,1.201149746942154,0.0,0.0,0.0,1.1029128238845298,-3.421235662966577e-15,-2.7419341871700435e-15,-5.615620007840654e-07,564.9292422508656,564.9292422508638,564.9274252567636,564.927425256764
0.516,-7.791745297852894e-18,4.0,0.3003838103832457,7.975108342650585e-15,2.4105842433430684e-14,-8.676568970617013e-06,1.49409180602207e-22,4.0,0.36716630427146685,0.0,-6.287582389253047e-16,1.610245385358135e-16,1.2057864687507247,0.0,0.0,0.0,1.0647388571396967,-3.4388511182771787e-15,-2.58629429010742e-15,-5.585338972625183e-07,563.940298210768,563.9402982107662,563.9384878452671,563.9384878452674
0.52,-8.199119133630481e-18,4.0,0.30523801720790006,8.186148599049469e-15,2.4410647187178515e-14,-7.798774181896147e-06,1.49409180602207e-22,4.0,0.3714652955184402,0.0,-6.233819080689633e-16,1.6740667738223788e-16,1.2102637333387292,0.0,0.0,0.0,1.027036825582988,-3.3746748071202865e-15,-2.429673659668866e-15,-5.536765484576703e-07,562.9618720348714,562.9618720348698,562.9600742943726,562.9600742943729
0.524,-8.526966208716651e-18,4.0,0.31010901467638347,8.335031569073461e-15,2.452237076572818e-14,-6.956941607128912e-06,1.49409180602207e-22,4.0,0.3757713261198112,0.0,-6.126892765480516e-16,1.7272713284461854e-16,1.2145812243083864,0.0,0.0,0.0,0.9898119162189212,-3.3222381733404765e-15,-2.303307128516621e-15,-5.471676174478629e-07,561.9941539053126,561.994153905311,561.9923742395778,561.9923742395781
0.528,-8.775345755693286e-18,4.0,0.31499617321811796,8.478642313962498e-15,2.445833034090879e-14,-6.151128914037952e-06,1.49409180602207e-22,4.0,0.3800841565862254,0.0,-5.975442568239876e-16,1.7689423702891325e-16,1.2187397908288546,0.0,0.0,0.0,0.9530655671492951,-3.3320815456746492e-15,-2.1816594549071496e-15,-5.391733681897405e-07,561.0372369842579,561.0372369842564,561.0354803288078,561.0354803288083
0.532,-8.944912630595538e-18,4.0,0.3198988712763644,8.623698010659535e-15,2.42391388057132e-14,-5.381254596478816e-06,1.49409180602207e-22,4.0,0.38440355005740556,0.0,-5.786287977226807e-16,1.8058601576874823e-16,1.2227414618594392,0.0,0.0,0.0,0.9167992476550257,-3.3495085150898305e-15,-2.0663221523102494e-15,-5.298514950832213e-07,560.0912152492374,560.0912152492358,560.089486049203,560.0894860492034
0.536,-9.037198718214739e-18,4.0,0.3248165003747294,8.743969847631034e-15,2.392277532936528e-14,-4.6471441664704805e-06,1.49409180602207e-22,4.0,0.3887292722791295,0.0,-5.566637384964711e-16,1.8413841511514486e-16,1.2265887519035954,0.0,0.0,0.0,0.8810039276159025,-3.3365073287710777e-15,-1.99845751517858e-15,-5.193114535492803e-07,559.1559080352007,559.1559080351991,559.1542103983088,559.1542103983093
0.54,-9.053625957838114e-18,4.0,0.3297484781920743,8.799149411116157e-15,2.3523261000380193e-14,-3.948505090397749e-06,1.49409180602207e-22,4.0,0.3930610915803907,0.0,-5.325185220103813e-16,1.8715640303189585e-16,1.2302859838884517,0.0,0.0,0.0,0.845643662408992,-3.2748258883204212e-15,-1.9413906384898426e-15,-5.076958078027984e-07,558.230427897368,558.2304278973666,558.2287654807149,558.2287654807152
0.544,-8.995687535800578e-18,4.0,0.3346942270716458,8.777783158195108e-15,2.303723945787099e-14,-3.284930242490261e-06,1.49409180602207e-22,4.0,0.3973987788507399,0.0,-5.067405914724517e-16,1.8899671962395584e-16,1.2338371507866264,0.0,0.0,0.0,0.8107253274596666,-3.195357133283183e-15,-1.8736966661639992e-15,-4.951479556053843e-07,557.3150044186253,557.3150044186239,557.3133804260124,557.3133804260128
0.548,-8.865493816014135e-18,4.0,0.33965317462626443,8.712762248445413e-15,2.249683093948787e-14,-2.6559597375266915e-06,1.49409180602207e-22,4.0,0.4017421075178062,0.0,-4.795882800432502e-16,1.8940114812168794e-16,1.2372443195110105,0.0,0.0,0.0,0.7762544586599338,-3.1490471498784747e-15,-1.830077650402862e-15,-4.817437982879322e-07,556.4098328421644,556.409832842163,556.40825024233,556.4082502423305
0.552,-8.664951368789768e-18,4.0,0.34462478068995245,8.635126338892966e-15,2.1897223706963296e-14,-2.0610134347493015e-06,1.49409180602207e-22,4.0,0.40609085352499713,0.0,-4.513778503368732e-16,1.8876422050837216e-16,1.2405113906609588,0.0,0.0,0.0,0.7421817621797813,-3.135952577408907e-15,-1.778595515524407e-15,-4.6764028186116366e-07,555.5136660225542,555.5136660225528,555.5121272765798,555.5121272765803
0.556,-8.395553400967549e-18,4.0,0.34960846452844035,8.524559429800045e-15,2.1175948629904027e-14,-1.4993152485302244e-06,1.49409180602207e-22,4.0,0.41044479530937483,0.0,-4.219772355384213e-16,1.8747848893229253e-16,1.2436378854211672,0.0,0.0,0.0,0.7086046810607185,-3.098217510180136e-15,-1.6541406119878987e-15,-4.5308774802709026e-07,554.6291170285483,554.629117028547,554.6276237892887,554.6276237892891
0.56,-8.059452714555674e-18,4.0,0.35460363876029527,8.398067685020707e-15,2.0305610224421965e-14,-9.700942862147966e-07,1.49409180602207e-22,4.0,0.41480371377970887,0.0,-3.9057287812427053e-16,1.8569921166565908e-16,1.2466207964654916,0.0,0.0,0.0,0.675553144500836,-3.0780120012925606e-15,-1.4811371985602296e-15,-4.381096779887257e-07,553.7570318728526,553.7570318728514,553.755585722919,553.7555857229196
0.5640000000000001,-7.6600567808013e-18,4.0,0.35960973145702624,8.233492521427675e-15,1.934012748529999e-14,-4.7258484681400816e-07,1.49409180602207e-22,4.0,0.41916739229470285,0.0,-3.5685671402693647e-16,1.8331821027061463e-16,1.2494581591764031,0.0,0.0,0.0,0.643012477151579,-3.0307539110923324e-15,-1.34505384598839e-15,-4.2272939505477667e-07,552.8970814570341,552.8970814570329,552.8956839054025,552.895683905403
0.5680000000000001,-7.200552170058729e-18,4.0,0.3646261929957057,8.02418736075531e-15,1.82813280254229e-14,-5.902450439399731e-09,1.49409180602207e-22,4.0,0.4235356166413943,0.0,-3.2135518122501726e-16,1.8019091571954257e-16,1.2521541358417596,0.0,0.0,0.0,0.6109536392243189,-2.9730152664700865e-15,-1.2047892628220625e-15,-4.0711488002695324e-07,552.0485535806323,552.048553580631,552.0472055821847,552.0472055821851
0.5720000000000001,-6.683894795314145e-18,4.0,0.3696524688822473,7.770524434642535e-15,1.7084111050570594e-14,4.308226761329967e-07,1.49409180602207e-22,4.0,0.4279081750137263,0.0,-2.8425082230829747e-16,1.7607437764915113e-16,1.254711470402614,0.0,0.0,0.0,0.5794020707307155,-2.91250642291818e-15,-1.0058555419410078e-15,-3.912831206524122e-07,551.2121758846782,551.2121758846771,551.2108783410048,551.2108783410054
0.5760000000000001,-6.113898599715622e-18,4.0,0.37468802486479325,7.524242634678272e-15,1.5752871276739814e-14,8.385531022063318e-07,1.49409180602207e-22,4.0,0.43228485799128985,0.0,-2.451351406912556e-16,1.7120444618618038e-16,1.2571323654072597,0.0,0.0,0.0,0.5483324338921256,-2.909204379874598e-15,-7.903330088266007e-16,-3.753761417009707e-07,550.3873308395504,550.3873308395493,550.3860841799335,550.3860841799343
