Time_s,X,Y,Z,Roll_deg,Pitch_deg,Yaw_deg,Ref_X,Ref_Y,Ref_Z,Ref_Yaw,vx,vy,vz,p,q,r,T_pert,tau_x,tau_y,tau_z,RPM_0,RPM_1,RPM_2,RPM_3
0.0040000000000000036,3.3827230054016896e-22,2.0,0.010006999594037988,-2.096004393768565e-18,1.4202641527917514e-18,1.8284134537641468e-20,1.5271478250114865e-22,2.0,0.010074639714689831,9.401864931293104e-23,6.963764715863389e-20,400.0,2.0013999188075973,0.0,0.0,0.0,0.13727673356390743,2.447572233571506e-18,-3.820779320707456e-18,-1.5066042318395035e-20,539.3555031529193,539.3555031529194,539.3555031529193,539.3555031529194
0.008,4.0442552376654164e-22,2.0,0.01001099936604295,-4.931340104210861e-18,1.1887942467748524e-18,4.017486723599059e-20,1.5270385281404422e-22,2.0,0.01021705724096241,9.401192046584669e-23,4.603060848082743e-20,222.22222222222223,1.112333262893661,0.0,0.0,0.0,0.2830776344539666,3.4542431161520876e-18,1.4088113138089769e-18,-2.6101890846046516e-20,543.2938902409246,543.2938902409246,543.2938902409246,543.2938902409246
0.012000000000000004,6.854509485970767e-22,2.0,0.010014999147004025,-5.327225042289631e-18,2.155715459699074e-18,1.2664254714788407e-19,1.5268755694448375e-22,2.0,0.010429397942859043,9.400188793579058e-23,4.437777715088997e-20,-7.089040623440109e-23,0.000999943864330756,0.0,0.0,0.0,0.42940121619331495,7.995044015345168e-19,-3.771708852396918e-18,-1.0243711761090531e-19,547.2178991675321,547.2178991675322,547.2178991675321,547.2178991675321
0.016,5.9546701819155335e-22,2.0,0.010018998946044242,-5.169991874560948e-18,3.245813371905066e-18,6.750922818883474e-12,1.52665959873308e-22,2.0,0.010710815098006973,9.398859172812945e-23,3.341237397995113e-20,-8.864483311562691e-23,0.0009999466328984227,0.0,0.0,0.0,0.5762362186122123,1.8068202151113682e-19,2.6646660620960946e-18,-7.886145231885487e-12,551.1275383111993,551.1275383111994,551.1275382850439,551.1275382850439
0.020000000000000004,3.470576647052425e-22,2.0,0.010022998767447782,-6.71258708232834e-18,1.8491096751213717e-18,7.199218824369464e-12,1.5263912599243093e-22,2.0,0.0110604696579496,9.397207148565805e-23,-8.471076292306054e-21,-9.730802160467617e-23,0.0009999512754831769,0.0,0.0,0.0,0.7235715096807132,2.154874706887966e-18,3.325189374791076e-18,-8.008952383273073e-13,555.022818023027,555.0228180230271,555.0228180203894,555.0228180203894
0.024000000000000007,5.491916623999433e-22,2.0,0.01002699861245917,-8.143476526311437e-18,1.8587586466308365e-18,7.838604305209064e-12,1.5260711910958864e-22,2.0,0.011477530186265229,9.395236649152282e-23,-9.526127552735584e-21,-1.1329996363207544e-22,0.0009999568550699695,0.0,0.0,0.0,0.8713960695590337,2.129918587195234e-18,-5.1840636516482085e-18,-1.0425264390750349e-12,558.9037502672569,558.903750267257,558.9037502638474,558.9037502638474
0.027999999999999997,7.454983879641387e-22,2.0,0.0100309984806198,-8.45698872659881e-18,3.2441681166153866e-18,8.547551266794929e-12,1.525700024530525e-22,2.0,0.011961172797154362,9.392951567212351e-23,3.0468223097466496e-20,-1.3320782953922111e-22,0.0009999626808745651,0.0,0.0,0.0,1.019698990487877,9.229685951802107e-19,-1.848641520444785e-18,-1.1500404736951009e-12,562.7703484439828,562.7703484439829,562.7703484402474,562.7703484402474
0.032,5.461129363651487e-22,2.0,0.01003499837052342,-9.252959029518004e-18,3.4680273454939396e-18,9.254676559377902e-12,1.525278386763065e-22,2.0,0.012510581094492131,9.39035575999928e-23,8.844485944579162e-21,-1.5067785655188505e-22,0.000999968351027107,0.0,0.0,0.0,1.168469476941519,1.5077892594693226e-18,3.958925540601859e-18,-1.1770241198473418e-12,566.622627407441,566.6226274074411,566.6226274036441,566.6226274036441
0.036000000000000004,1.770513300195923e-22,2.0,0.010038998280285065,-9.747265502013553e-18,3.865208176983113e-18,9.920232913694082e-12,1.5248068986268912e-22,2.0,0.013124946111342446,9.387453049665406e-23,-6.3309962894968e-20,-1.6221225332111335e-22,0.0009999736579726151,0.0,0.0,0.0,1.3176968452094568,1.2099569693231541e-18,1.4373934112656311e-18,-1.157501866678453e-12,570.4606033976662,570.4606033976663,570.4606033939573,570.4606033939573
0.04000000000000001,-6.7124461963602e-22,2.0,0.010042998207943197,-9.713725316884382e-18,3.415483472902557e-18,1.0524777735761472e-11,1.5242861753000008e-22,2.0,0.013803466249930549,9.384247223545751e-23,-1.278249191226931e-19,-1.6794437006889167e-22,0.0009999784966947464,0.0,0.0,0.0,1.4673705225487945,6.273751760382975e-19,6.150742434336767e-18,-1.1135606349116678e-12,574.2842939764889,574.284293976489,574.2842939729446,574.2842939729446
0.044,-3.7147677668326154e-22,2.0,0.010046998151577564,-9.391600538623705e-18,3.184173353152773e-18,1.1060995310627682e-11,1.5237168263507224e-22,2.0,0.014545347222070593,9.380742034439484e-23,-7.745544933363749e-20,-1.6847780076379403e-22,0.0009999828525883436,0.0,0.0,0.0,1.6174800467878252,2.880920401199232e-19,-1.2630710624992262e-17,-1.0585681614006456e-12,578.0937179779787,578.0937179779788,578.0937179746317,578.0937179746317
0.048,-7.594837456049422e-22,2.0,0.01005099810940214,-9.601490667389184e-18,3.484754424241871e-18,1.152871807573942e-11,1.5230994557830867e-22,2.0,0.015349801990044966,9.376941200889251e-23,-3.666423623865741e-20,-1.665898834868825e-22,0.0009999867394566014,0.0,0.0,0.0,1.7680150654197804,8.87315425955949e-19,7.202401550528229e-18,-1.0005742116861282e-12,581.8888954484962,581.8888954484963,581.8888954453531,581.8888954453531
0.052000000000000005,-3.944432453092351e-22,2.0,0.010054998079771879,-9.868383425348267e-18,3.4528636901038032e-18,1.1931700027906731e-11,1.5224346620818545e-22,2.0,0.016216050707932004,9.37284840745839e-23,1.1380714022829657e-20,-1.6695992916485743e-22,0.0009999901884542861,0.0,0.0,0.0,1.9189653348291666,9.682320276358623e-19,-8.645786205342883e-18,-9.4415290656242e-13,585.6698475928339,585.669847592834,585.6698475898871,585.6698475898872
0.05600000000000001,-5.639367732918708e-22,2.0,0.010058998061211646,-1.014157297338533e-17,3.424966299617222e-18,1.2275679471535076e-11,1.521723038257202e-22,2.0,0.01714332066337891,9.36846730500603e-23,-1.0364973970346954e-20,-1.7190420423599337e-22,0.0009999932381784746,0.0,0.0,0.0,2.070320719308441,9.938357532963334e-19,5.728087837888549e-18,-8.917763822684728e-13,589.4365967176514,589.4365967176515,589.4365967148859,589.436596714886
0.06,-4.335255944573463e-22,2.0,0.010062998052610649,-1.0163309553168186e-17,3.4011914349071235e-18,1.2567397203717188e-11,1.520965171889068e-22,2.0,0.01813084621981657,9.363801510960119e-23,1.4302949904026332e-20,-1.754554955303322e-22,0.0009999959475801012,0.0,0.0,0.0,2.222071189790409,7.188873254339104e-19,-3.553725794306574e-18,-8.448513420315692e-13,593.1891661704599,593.1891661704601,593.1891661678566,593.1891661678566
0.064,-5.1443841658880435e-11,2.0000000000514437,0.010067274884494482,5.007741042142594e-06,5.00776618079025e-06,2.4265039193884063e-07,1.5201616451711636e-22,2.0,0.019177868759113068,9.358854609588364e-23,-5.158141583420085e-09,5.15813121394487e-09,0.001027681531095762,0.0,0.0,0.0,2.3736449897089367,-5.248230588679632e-06,-5.2482587377947515e-06,-2.834398634043139e-07,596.915766601965,596.9127363279258,596.9133835134327,596.9133835053062
0.068,-3.299466932382172e-10,2.0000000003299387,0.010075353625151861,3.304327068932226e-05,3.304411961765558e-05,1.600978064058745e-06,1.519313034954648e-22,2.0,0.02028363662466268,9.353630152267125e-23,-3.332879163039005e-08,3.3327990811395296e-08,0.001435556940597766,0.0,0.0,0.0,2.5184311241864092,-3.0391471130988925e-05,-3.039234449754903e-05,-1.5967055191150441e-06,600.4612515742649,600.44380705262,600.4476688217055,600.4476685710536
0.07200000000000001,-7.469311709093338e-10,2.000000000746895,0.010092445771645281,8.162468682549034e-05,8.162854824246091e-05,3.946721321341499e-06,1.5184199127914722e-22,2.0,0.02144740506490721,9.348131657748258e-23,-7.695541731637191e-08,7.695171770353635e-08,0.0027447719925856318,0.0,0.0,0.0,2.6528848566677135,-5.714207247666385e-05,-5.714540419692506e-05,-2.805940367725048e-06,603.7360298712039,603.7034076845964,603.7112238495531,603.7112228985344
0.076,-1.1314469022837068e-09,2.0000000011313577,0.010123299236329049,0.00014686828230116335,0.00014687854624183716,7.078100766979655e-06,1.5174828449773939e-22,2.0,0.022668436177286463,9.34236261242394e-23,-1.0547536398667664e-07,1.0546616727278457e-07,0.005279631259258625,0.0,0.0,0.0,2.7777712599948385,-8.179434694461927e-05,-8.180177448032278e-05,-3.82001143491227e-06,606.7617327306152,606.7152682342845,606.7269935438549,606.7269914342496
0.08,-1.2543456269876236e-09,2.0000000012541856,0.010172220827985134,0.00022510111177688876,0.00022512214248877454,1.0814852980746841e-05,1.5165023925946655e-22,2.0,0.023945998852614787,9.336326470589466e-23,-9.724575167147567e-08,9.722974125749105e-08,0.008975543841301432,0.0,0.0,0.0,2.8938246430454493,-0.0001041170439838517,-0.0001041300673639318,-4.655767072289954e-06,609.5596442726031,609.5007689177642,609.5162470662622,609.5162433842246
0.084,-8.372267936610735e-10,2.000000000837001,0.010243121948585673,0.00031284958359866644,0.0003128864763370236,1.4997964098839124e-05,1.5154791115543964e-22,2.0,0.025279368719880478,9.330026654704065e-23,-4.4025642263302215e-08,4.4003484906496575e-08,0.013724854669008867,0.0,0.0,0.0,3.001700718450764,-0.0001240380105512511,-0.00012405797022267207,-5.330627925833177e-06,612.1485568386754,612.0787114947505,612.0977195098384,612.0977138905358
0.08800000000000001,4.37621934872191e-10,1.999999999562134,0.010339559627989105,0.00040684857175805065,0.0004069069001000886,1.9488261204119932e-05,1.5144135526385945e-22,2.0,0.026667828091465066,9.32346655564972e-23,6.011890279300995e-08,-6.014428920110425e-08,0.019431132256041667,0.0,0.0,0.0,3.101984608294262,-0.00014149086051098306,-0.0001415189089022733,-5.86124173774678e-06,614.5450403677154,614.4656760041308,614.4879285072955,614.4879206414685
0.09200000000000001,2.916633274744586e-09,1.9999999970832165,0.010464759550692643,0.0005040633635773537,0.0005041489307591427,2.4166753067883106e-05,1.5133062615418873e-22,2.0,0.028110665908779347,9.316649532988023e-23,2.1923042305949682e-07,-2.1925343449868585e-07,0.02600657581682888,0.0,0.0,0.0,3.1952260839494415,-0.0001564336761207174,-0.00015647076216182597,-6.2654690236138875e-06,616.7643869014468,616.6769543800247,616.7021069920299,616.702096629046
0.09600000000000002,6.964119772667665e-09,1.9999999930360237,0.010621627116569478,0.0006017184430165525,0.0006018370495668634,2.8928884102064278e-05,1.512157778912925e-22,2.0,0.02960717768831314,9.309578915215078e-23,4.3583445436024646e-07,-4.3584690485469406e-07,0.03336878869099562,0.0,0.0,0.0,3.281963117705015,-0.0001688625602412451,-0.0001689093979826284,-6.5552867316497395e-06,618.8212309491626,618.7271631071671,618.7548404292685,618.754827384778
0.10000000000000002,1.295380822990735e-08,1.9999999870469405,0.010812867340032048,0.0006972112544757613,0.0006973684331319635,3.368521175759021e-05,1.5109686403954694e-22,2.0,0.03115666546809575,9.302258000014462e-23,7.113649570662441e-07,-7.113559677001823e-07,0.04144888693661038,0.0,0.0,0.0,3.3625006412171157,-0.00017870951177131945,-0.000178766539354618,-6.744055892316606e-06,620.7243719725379,620.6251214822631,620.6548950755711,620.6548792417924
0.104,2.1258496663873557e-08,1.9999999787433054,0.011040979320301736,0.0007881543268588283,0.0007883550984929859,3.835978306557915e-05,1.509739376669169e-22,2.0,0.0327584377545641,9.294690054508253e-23,1.046434544862153e-06,-1.0463904907625984e-06,0.0501918930596128,0.0,0.0,0.0,3.437161283252545,-0.00018593876605653827,-0.00018600614990084985,-6.8438616694956816e-06,622.4828062569619,622.3798300300681,622.4112309942814,622.411212337868
0.108,3.2240272866536473e-08,1.999999967763189,0.011308260908657781,0.0008723929876132855,0.0008726416474101469,4.289052983834816e-05,1.5084705134900242e-22,2.0,0.03441180946983568,9.286878315506155e-23,1.4409469797774084e-06,-1.440851587814515e-06,0.059547025187343096,0.0,0.0,0.0,3.5062648510087575,-0.0001905479774408546,-0.00019062558584752673,-6.867804809909278e-06,624.1052683448332,624.0000112613948,624.0325362168195,624.0325147853808
0.112,4.624063483074952e-08,1.9999999537652715,0.011616780917847928,0.0009480424767071187,0.0009483424407243961,4.7226039622193084e-05,1.5071625717305436e-22,2.0,0.036116101899383087,9.278825989752725e-23,1.8941904471211848e-06,-1.8940247778392102e-06,0.06946173573880682,0.0,0.0,0.0,3.5701940550090425,-0.00019258471157546284,-0.00019267217880573288,-6.825784176314941e-06,625.601788922977,625.4956587047895,625.5287924948653,625.5287683987041
0.116,6.357318058309794e-08,1.9999999364361503,0.011968437515814013,0.0010134615350571314,0.0010138151854273832,5.1324837712848524e-05,1.5058160674195944e-22,2.0,0.037870642640107546,9.270536254172705e-23,2.404973504861234e-06,-2.4047160644660365e-06,0.07988470820547809,0.0,0.0,0.0,3.629220482626895,-0.00019210572040038928,-0.00019220242934706472,-6.727297470719439e-06,626.9796331751917,626.873997032892,626.9072160079331,626.9071894243708
0.12000000000000001,8.451621861032484e-08,1.9999999154977242,0.012364965273491865,0.001067253258502849,0.0010676618266041412,5.515386637645716e-05,1.5044315117819496e-22,2.0,0.03967476554880827,9.262012256114495e-23,2.9717559931079522e-06,-2.9713827656074955e-06,0.09077216009987889,0.0,0.0,0.0,3.683606943837823,-0.00018917819355197655,-0.00018928327499509413,-6.580473960712441e-06,628.2457290471444,628.1419098190297,628.1746881730031,628.1746593462725
0.12400000000000001,1.0930615733365311e-07,1.9999998907138008,0.012807935779376504,0.0011082643217461155,0.0011087278153562735,5.868837694925414e-05,1.503009411277532e-22,2.0,0.04152781069104483,9.253257113591762e-23,3.592681735284342e-06,-3.5921662119054414e-06,0.10208310248965728,0.0,0.0,0.0,3.733620302735949,-0.00018388772375230473,-0.0001840001175468255,-6.393662497143197e-06,629.4069862333895,629.3062540112837,629.3380676723582,629.338036896645
0.128,1.3813300992809023e-07,1.999999861894587,0.013298824039589404,0.0011355869880648622,0.001136104102153863,6.191050884448931e-05,1.5015502676403618e-22,2.0,0.04342912429038967,9.244273915523214e-23,4.265580842968638e-06,-4.264893973209293e-06,0.11378316955797625,0.0,0.0,0.0,3.779397945026229,-0.00017635769361610588,-0.00017647610552347387,-6.173893183400979e-06,630.4672142972785,630.3707668631266,630.4011072851877,630.4010749162679
0.132,1.711353600490013e-07,1.999999828901717,0.013838987190657863,0.0011485544766362355,0.0011491225674296322,6.480827216503592e-05,1.5000545779172025e-22,2.0,0.04537805867806792,9.23506572197053e-23,4.987964990118718e-06,-4.987075221345e-06,0.1258436956815398,0.0,0.0,0.0,3.821123623660014,-0.00016671242581544878,-0.00016683538139831592,-5.927290500130499e-06,631.4312201789324,631.3401841864077,631.3685606328402,631.3685270733698
0.22000000000000003,1.6238921325544456e-06,1.9999983769621377,0.03951429981517045,-0.0017647543286713173,-0.0017652791758722085,8.471586284104772e-05,1.4496994189541768e-22,2.0,0.11099253698894744,8.925054866825841e-23,2.730085620548224e-05,-2.728530427638236e-05,0.42904271222849727,0.0,0.0,0.0,5.912783234195009,0.00019097628574330807,0.0001910138743508743,-4.622803344264771e-06,678.0482967948938,678.1453724306255,678.0843701731437,678.0843797257589
0.22400000000000003,1.6793889102178306e-06,1.999998321515567,0.04133010037613528,-0.0020671645649339336,-0.002067891537060416,8.198453889031626e-05,1.4473858253634823e-22,2.0,0.11400722782903171,8.910811259174138e-23,2.8475316623285327e-05,-2.845857026187123e-05,0.44327434557766476,0.0,0.0,0.0,4.719691511872336,0.0005241749793159643,0.0005242545007087282,-2.880876624498594e-07,651.717122027695,651.9942864858981,651.8549006417327,651.8549216641583
0.22800000000000004,1.7273998376472824e-06,1.9999982735523485,0.043202856109090415,-0.0023851517634573276,-0.002386098113563307,7.891599939491242e-05,1.445047889006163e-22,2.0,0.11705363811883311,8.896417785608924e-23,2.964599046812067e-05,-2.9627998989662538e-05,0.457510284223903,0.0,0.0,0.0,4.706984682371929,0.000535413257934964,0.0005356966984096642,2.1799036828539766e-07,651.4282517861132,651.7115362984006,651.5704834965319,651.5705584600955
0.23200000000000004,1.7667435316458747e-06,1.9999982342530556,0.04513257904486706,-0.0027187324291492376,-0.0027199158942507913,7.551149170239138e-05,1.4426859861611272e-22,2.0,0.12013127755418462,8.881876762686211e-23,3.081015478463259e-05,-3.079086687482203e-05,0.4717497478805043,-0.0005822093235218595,-0.0005826226376402979,-5.967945940873241e-06,4.692458574452214,0.0005947659822743917,0.0005950961234521717,7.364584552445984e-07,651.0856663594644,651.4005160632448,651.2451336216434,651.2452209801016
0.23600000000000004,1.796180379156931e-06,1.9999982048564262,0.047119279033696546,-0.003067919793180727,-0.0030693585993796088,7.177241472644278e-05,1.4403004894547302e-22,2.0,0.12323966059031996,8.867190484475114e-23,3.196505957227202e-05,-3.194442317547006e-05,0.48599209765984847,-0.0011916099870489185,-0.0011924682612988314,-1.2524167379772905e-05,4.676111156340639,0.0006569406611459481,0.0006573207494521086,1.2670883251110998e-06,650.7012092677593,651.0491728736716,650.8787224273614,650.8788230589167
0.24000000000000005,1.814412517335312e-06,1.9999981866593801,0.04916296414039711,-0.0034327243987990795,-0.003434437267923162,6.770029213971026e-05,1.4378917678911895e-22,2.0,0.12637830640224043,8.85236122274511e-23,3.310793254868326e-05,-3.3085894911389424e-05,0.5002368104565645,-0.001540616716245276,-0.0015417497657193777,-1.6757300667271e-05,4.657939733045332,0.0007219962316719644,0.0007224296507030945,1.8096767958006977e-06,650.2747302928398,650.6573967567513,650.4711196381104,650.4712344613257
0.24400000000000005,1.8200838209592397e-06,1.9999981810170295,0.05126364096795249,-0.0038131545801794254,-0.0038151607379444353,6.32967504295633e-05,1.4354601868827673e-22,2.0,0.12954673884538737,8.837391227151846e-23,3.4235983220848055e-05,-3.421249079684506e-05,0.5144834579694966,-0.0016088040607247465,-0.0016100189989222608,-1.8222736148507735e-05,4.6379410784700426,0.0007899925887094514,0.0007904828514425198,2.3640411965536835e-06,649.8060584561018,650.2250582258918,650.0221749197904,650.0223048919846
0.24800000000000005,1.811779895909322e-06,1.9999981893426857,0.05342131492245374,-0.004209216853678812,-0.004211536039374621,5.856350093681956e-05,1.4330061082797184e-22,2.0,0.13274448641661812,8.822282725421524e-23,3.534640635683138e-05,-3.5321404658907304e-05,0.5287316895231728,-0.001676979608202281,-0.0016782785650058987,-1.9681817364136183e-05,4.616111543490126,0.0008609905338430156,0.0008615412681799558,2.9300156163193575e-06,649.2950042930111,649.7520105643404,649.5317201499256,649.5318662638232
0.25200000000000006,1.7880280776789324e-06,1.999998213107856,0.05563599043002712,-0.00462091623735521,-0.004623568715058932,5.3502325156392775e-05,1.4305298904000079e-22,2.0,0.1359710822154831,8.80703792353385e-23,3.643638493990867e-05,-3.640981844126594e-05,0.5429812180010922,-0.0017452222877059366,-0.001746607500104444,-2.1135218740895863e-05,4.5924471443419925,0.0009350516607152549,0.0009356666627858186,3.5074478308590656e-06,648.7413616808446,649.2380916495758,648.9995712269416,648.9997345253298
0.256,1.7472974340715622e-06,1.9999982538422414,0.05790767111444737,-0.005048256511744498,-0.005051263083062097,4.8115062709089924e-05,1.4280318880587996e-22,2.0,0.1392260639058019,8.791659005903583e-23,3.750309267677995e-05,-3.747490471957968e-05,0.5572318083274509,-0.0018134892728454192,-0.0018149629981856746,-2.2582274272363527e-05,4.566943634892371,0.001012238417255919,0.0010129216044241802,4.096196786024163e-06,648.1449092686294,648.6831254309877,648.425529531081,648.4257110949042
0.26,1.6879887421539643e-06,1.99999831314375,0.06023645655741509,-0.005491144747296073,-0.005494526723207161,4.241324251189015e-05,1.4255124525977155e-22,2.0,0.1425089736775363,8.776148135560664e-23,3.8543521552208593e-05,-3.851365430547759e-05,0.5714929295214237,-0.0018815354827336113,-0.0018830999031797875,-2.4005040610098307e-05,4.539400484275318,0.0010926190437760442,0.001093374524613731,4.684868310968254e-06,647.5009981393334,648.0825162527595,647.8049412098202,647.8051421787474
0.264,1.6082216992737538e-06,1.9999983928911609,0.06262422768132751,-0.005944679897166756,-0.005948456910300088,3.649722102946399e-05,1.422971931913871e-22,2.0,0.1458193582089575,8.760507454328982e-23,3.954071256809344e-05,-3.9509112628854455e-05,0.585952273349311,-0.0019408642840904812,-0.0019425178112334926,-2.5231480047108208e-05,4.506193655950261,0.0011731240365952795,0.0011739549379533982,5.169224369270767e-06,646.7285187210822,647.3536131704983,647.0556336425601,647.0558549304036
0.268,1.50594317387128e-06,1.9999984951359095,0.06507317508619351,-0.00639706737991203,-0.006401252145509603,3.0451187544786223e-05,1.4204106704886837e-22,2.0,0.14915676862910612,8.744739083003724e-23,4.043136949257063e-05,-4.03980152006992e-05,0.6008285719486268,-0.0019709274602884705,-0.001972655559300196,-2.611602060092669e-05,4.466629148889723,0.0012443598513043382,0.0012452628361038667,5.564029826283525e-06,645.8137829446019,646.4777596011951,646.1614760798872,646.1617168979627
0.272,1.3791161832299752e-06,1.9999986219132158,0.06758481303759646,-0.006834651534353985,-0.006839246756491737,2.4373907448325194e-05,1.4178290094164612e-22,2.0,0.1525207604805423,8.72884512152738e-23,4.1100048043288826e-05,-4.106498997127713e-05,0.6162001584014071,-0.0019501945489959764,-0.0019519652041264928,-2.65716085385564e-05,4.422004273339098,0.0013013103319902326,0.001302276905995933,5.848800400659449e-06,644.7869764802025,645.4824354496651,645.151242015601,645.1515001960023
0.276,1.2257655223202943e-06,1.9999987751964847,0.07016001789222885,-0.007240150521428199,-0.007245144210030964,1.8350025736584934e-05,1.4152272864327662e-22,2.0,0.15591089368238398,8.712827649164377e-23,4.13904555082056e-05,-4.1353863763086245e-05,0.6319072868922377,-0.0018646731495702458,-0.0018664364915554495,-2.6636452418010482e-05,4.373559972637308,0.0013382838432216414,0.0013392990833769078,6.035975320648629e-06,643.6772609300742,644.3937060338236,644.0525782168226,644.0528498589711
0.28,1.044067360432909e-06,1.9999989568077945,0.07279934595868523,-0.007597551602289115,-0.00760291668396266,1.2438861314822264e-05,1.412605835942564e-22,2.0,0.15932673249363097,8.696688724674361e-23,4.112647754827157e-05,-4.108867567375537e-05,0.6478253273985422,-0.0017082828904788887,-0.0017099772935764267,-2.634170070863196e-05,4.32191248180373,0.0013545071241763997,0.0013555537184175201,6.151663669697819e-06,642.4984020170706,643.224861369953,642.8790851840831,642.8793657266289
0.28400000000000003,8.324173495981417e-07,1.9999991683498557,0.07550314464709891,-0.007893095684482435,-0.007898790812359939,6.689526154193872e-06,1.4099649890481504e-22,2.0,0.16276784547677323,8.680430386484136e-23,4.013364430760759e-05,-4.009512354871152e-05,0.6638715243486439,-0.0009688202028735569,-0.0009698078671702886,-1.5678985496259686e-05,4.267462719011048,0.0013506179997628113,0.0013516777350364856,6.205352935721037e-06,641.2589756046851,641.984753113224,641.6395025640131,641.6397871778336
0.28800000000000003,5.894897893664667e-07,1.999999411146909,0.07827155065632173,-0.00811505769862202,-0.008121028113741388,1.1426286462360734e-06,1.407305073576864e-22,2.0,0.16623380546168062,8.664054652858281e-23,3.82599027192176e-05,-3.8221316097424676e-05,0.6799911491158765,-0.0002998087025364465,-0.00030012395789418754,-5.1672610715393325e-06,4.210622001728265,0.0013271976055026383,0.0013282514944942694,6.2049599488084166e-06,639.9678601565446,640.682499933679,640.3428505004068,640.3431341172324
0.29200000000000004,3.1428859180653346e-07,1.9999996861938203,0.08110449594451617,-0.008253746299350925,-0.00825992495472291,-4.1692601174925455e-06,1.4046264141085841e-22,2.0,0.1697241895097725,8.647563522068433e-23,3.537586896229259e-05,-3.533802224695525e-05,0.6961323622963901,0.0,0.0,0.0,4.151796308224158,0.0012850096633376003,0.0012860382840842496,6.1582060350381975e-06,638.6338205409963,639.3272021971052,638.9980828189999,638.9983602183344
0.29600000000000004,6.1803823016353965e-09,1.999999994123028,0.08400177084415197,-0.008301500135594086,-0.008307809189421674,-9.22033968003377e-06,1.4019293320030159e-22,2.0,0.17323857887846492,8.63095897256127e-23,3.137518664505381e-05,-3.133902594683881e-05,0.7122498756103444,0.0,0.0,0.0,4.091270111985747,0.0012251152425192741,0.0012260993268803648,6.0716628924310605e-06,637.2628182251038,637.925319693811,637.6114283279601,637.6116942938436
0.30000000000000004,-3.350795482655398e-07,2.0000003351786337,0.08696306029723683,-0.008252591966601991,-0.008258944495781025,-1.3990719185058362e-05,1.3992141454267623e-22,2.0,0.1767765589858934,8.614242963125179e-23,2.617518720169773e-05,-2.6141782283428925e-05,0.7283094025661747,0.0,0.0,0.0,4.029258922643979,0.0011486545382519966,0.0011495753593214317,5.951174419218286e-06,635.8592525446411,636.481796056992,636.187574806219,636.1878242310949
0.30400000000000005,-7.09318868075036e-07,2.0000007091880696,0.08998791499324783,-0.008103343383895824,-0.008109645406088368,-1.8464991492707053e-05,1.3964811693801884e-22,2.0,0.18033771937590926,8.59741743305565e-23,1.971812376169268e-05,-1.9688646510620354e-05,0.7442807193575951,0.0,0.0,0.0,3.966040246755198,0.001056980424652995,0.001057820232316164,5.8011615226772685e-06,634.4289293985597,635.0030984313026,634.7326710858533,634.7328990878692
0.30800000000000005,-1.1159485120376906e-06,2.000001115562425,0.09307582199633457,-0.007851741308823565,-0.007857893747200816,-2.263180391178218e-05,1.3937307157240756e-22,2.0,0.1839216536833474,8.580484302319365e-23,1.1970776786107948e-05,-1.1946476814671236e-05,0.7601382213367038,0.0,0.0,0.0,3.9017525927604453,0.0009514444021505187,0.0009521867275637355,5.625727773231899e-06,632.9744930366378,633.492539471483,633.2497071926113,633.2499092008335
0.31200000000000006,-1.5539525618175238e-06,2.0000015532863498,0.096226185283435,-0.007497569497035129,-0.007503470438356017,-2.6483342884446653e-05,1.3909630932060702e-22,2.0,0.18752795959956367,8.563445471717032e-23,2.924203057228246e-06,-2.9063803712332346e-06,0.7758614123579822,0.0004803745591435593,0.0004807219002004325,-4.925899104729552e-06,3.836576056488984,0.0008335400531715178,0.000834170129619639,5.428541260256823e-06,631.499533847575,631.9544600254279,631.7426591035561,631.7428309746209
0.31600000000000006,-2.0218898083445725e-06,2.000002020919631,0.09943832580056798,-0.0070424480505461165,-0.007047995224505399,-3.001542539682548e-05,1.3881786074869254e-22,2.0,0.19115623883823976,8.546302823044944e-23,-7.4059546906044635e-06,7.415980774659493e-06,0.7914304391470017,0.0012747237291801244,0.0012756900821746984,-1.0989771382551722e-05,3.770693328906635,0.0007050533818379841,0.0007055586156437462,5.213522183368594e-06,630.007653399381,630.3933791237264,630.2155982507404,630.215736401409
0.32,-2.5179002291984225e-06,2.00000251660367,0.1027114682239312,-0.006490010780948052,-0.006495104378151593,-3.322633157436963e-05,1.3853775611665407e-22,2.0,0.19480609710145352,8.529058219255293e-23,-1.8976691239513026e-05,1.897761781220975e-05,0.8068232317671832,0.0020899026184863024,0.002091557329835444,-1.4801855104061118e-05,3.7043166769335008,0.0005681571680256993,0.0005685278974898328,4.983376110785348e-06,628.5030695831472,628.8146534027735,628.6733194654726,628.6734210860886
0.324,-3.0397341996506576e-06,2.000003038090674,0.10604478788637066,-0.005845418951266439,-0.005849964106793383,-3.611640591543105e-05,1.3825602538097988e-22,2.0,0.1984771440460131,8.511713504615224e-23,-3.1717894699314996e-05,3.170847377723469e-05,0.8220207562217752,0.002508106877038858,0.002510189779063717,-1.3373280658722315e-05,3.637566258726685,0.000424859959647901,0.00042508941368149327,4.740443932910769e-06,626.9879373681906,627.2214996847407,627.1185151784265,627.1185782299865
0.328,-3.5847795855676145e-06,2.0000035827707263,0.10943742086171551,-0.005115209851129847,-0.005119119044217341,-3.8687996744182055e-05,1.3797269819722004e-22,2.0,0.20216899325005233,8.49427050486467e-23,-4.553480482078309e-05,4.5513881368031776e-05,0.8370098699838946,0.0029023254495904325,0.0029048123704744086,-1.1963072849362865e-05,3.5705433991233932,0.0002770933593777216,0.0002771778595962355,4.487080581378773e-06,625.4640128505804,625.6167050242823,625.5534634804457,625.5534867583124
0.332,-4.150093378438247e-06,2.0000041477033847,0.11288846997173028,-0.004307163655533669,-0.004310359000804724,-4.0945305608179715e-05,1.3768780392253024e-22,2.0,0.2058812621798861,8.476731027372947e-23,-6.0311087483044205e-05,6.027763585422511e-05,0.851781107584906,0.00326672561316629,0.003269582091753047,-1.0581212602031597e-05,3.503338542917886,0.00012679916140024997,0.00012673825506973968,4.225547343899983e-06,623.9328111794113,624.0028323959123,623.9802096120754,623.9801927914783
0.336,-4.732437904630346e-06,2.000004729653851,0.11639701000542096,-0.003430160705006813,-0.003432576085633117,-4.28942828372094e-05,1.374013716181955e-22,2.0,0.20961357215712334,8.459096861294139e-23,-7.591045007802114e-05,7.586360956213753e-05,0.8663264579159792,0.0035960887831014547,0.0035992706132160516,-9.236351396835162e-06,3.4360326615249535,-2.4086535708062857e-05,-2.4289974877783464e-05,3.958059603714815e-06,622.3956411862349,622.3822468112044,622.4005964648351,622.4005401381258
0.34,-5.328320889148549e-06,2.000005325132984,0.11996209225518711,-0.0024940313169680714,-0.0024956143135952,-4.454255371765232e-05,1.3711343005213453e-22,2.0,0.2133655483260361,8.44136977772127e-23,-9.217856836885232e-05,9.211767683806911e-05,0.8806391752993517,0.0038857142447957125,0.0038891681129100365,-7.935527725144328e-06,3.3686984726671687,-0.0001736560400214483,-0.00017399579734903405,3.6868183146767668e-06,620.8536379780397,620.7571354174551,620.816291022462,620.8161967129398
0.34400000000000003,-5.934038654168814e-06,2.0000059304404396,0.12358274846532041,-0.0015093995920664356,-0.0015101131653367083,-4.589935951880541e-05,1.368240077013844e-22,2.0,0.21713681962118217,8.423551529839278e-23,-0.00010894526987577058,0.00010886989465472383,0.8947136143233154,0.004131689199603953,0.004135353729369763,-6.684886899468202e-06,3.3014014880060065,-0.00032005222622018747,-0.0003205187251286818,3.414024319163263e-06,619.3077917612848,619.1295239258366,619.2288070271258,619.2286772048224
0.34800000000000003,-6.545723184859204e-06,2.0000065417116724,0.1272580038773981,-0.00048739616186762496,-0.0004872199407704295,-4.69745370601728e-05,1.3653313275456603e-22,2.0,0.22092701873528012,8.405643853076795e-23,-0.00012602735380330343,0.00012593731825289285,0.9085460478983626,0.004330926269513357,0.004334733252577506,-5.487702577827486e-06,3.234181424545679,-0.00046162060535220244,-0.0004622011768021974,3.1407527902459383e-06,617.7585502392265,617.5007936178107,617.6390614113047,617.6388994278108
0.35200000000000004,-7.159392216317815e-06,2.0000071549679537,0.1309869048071974,0.0005608245777501935,0.0005618936123886316,-4.777959227054724e-05,1.3624083311433033e-22,2.0,0.22473578208733444,8.387648465256751e-23,-0.00014323412748646445,0.00014312953097918188,0.9221370018220014,0.00448186043829518,0.0044857368352155015,-4.3467108050002104e-06,3.1670222963307237,-0.0005971635149534375,-0.0005978428979590649,2.8693574429732608e-06,616.2051696755284,615.8708880557259,616.0466603575651,616.0464703149828
0.35600000000000004,-7.770985699243257e-06,2.000007766152772,0.13476845332525622,0.0016233626491196289,0.0016253090838020648,-4.8330087879550784e-05,1.3594713639978532e-22,2.0,0.22856274979100896,8.369567066745798e-23,-0.00016036896749788517,0.0001602502007599984,0.9354843542156814,0.00458279921417952,0.004586667897542502,-3.268834418198766e-06,3.1000400694273234,-0.0007247573435507857,-0.0007255171512777604,2.605049732677019e-06,614.6498299878328,614.2430908654918,614.4543502111709,614.4541371207425
0.36000000000000004,-8.376413188929285e-06,2.0000083711791525,0.1386015948147961,0.002687553855588788,0.0026903429463050943,-4.864057995437953e-05,1.3565206994890447e-22,2.0,0.2324075656232469,8.351401340602575e-23,-0.0001772249123584639,0.00017709267317030577,0.9485786718697595,0.004631073729050878,0.00463485355008663,-2.257891865074475e-06,3.0333774284171633,-0.0008422492815606247,-0.000843068049725178,2.3472927742189044e-06,613.0953145643973,612.621431325937,612.8655347572823,612.8653045359223
0.36400000000000005,-8.971613376301833e-06,2.000008965989106,0.14248530188001562,0.00374115408080201,0.003744732015559832,-4.872722176222319e-05,1.3535566082091602e-22,2.0,0.23626987699313556,8.333152952724809e-23,-0.00019358809686403688,0.00019344339941442402,0.961413578276253,0.004625178333486921,0.0046287859374070026,-1.314790158373648e-06,2.9670086281128576,-0.0009486371552874665,-0.0009494914204463576,2.098550068716385e-06,611.5407277433948,611.005621430482,611.279628801413,611.2793879758184
0.36800000000000005,-9.552598357632896e-06,2.0000095465978274,0.14641855299917292,0.004772193802724733,0.004776488105166263,-4.8606216798244235e-05,1.3505793579867388e-22,2.0,0.2401493349110138,8.314823551995278e-23,-0.00020924629314660655,0.00020909046707217861,0.9739913698292624,0.004566087138132213,0.004569439907814626,-4.367259365365279e-07,2.900950435273077,-0.001042905960770892,-0.0010437705204435904,1.8595435955156171e-06,609.9861828305802,609.3963962112557,609.6970579999353,609.696813639581
0.37200000000000005,-1.0115499302673704e-05,2.0000101091392968,0.15040035826906506,0.00576935808582227,0.00577427847032464,-4.8294675028186914e-05,1.347589213910099e-22,2.0,0.24404559395782072,8.296414770426629e-23,-0.00022399563510857746,0.00022383031501114177,0.9863165927851683,0.004455683361727323,0.004458701088526625,3.765807336486755e-07,2.835167235842214,-0.001122896826436712,-0.0011237450948626902,1.635390977330049e-06,608.4302049016206,607.793555764333,608.1169995389902,608.1167591602646
0.37600000000000006,-1.0656606931029881e-05,2.000010649906688,0.15442972161182814,0.0067217123868376204,0.006727151787455042,-4.7810540096208416e-05,1.3445864383506782e-22,2.0,0.24795831225468346,8.277928223305069e-23,-0.00023764154632433584,0.0002374686559791977,0.9983925808014842,0.0042961353525915276,0.004298741571785118,1.1257361442824875e-06,2.7696991644146682,-0.0011900661458625098,-0.0011908712058828572,1.4243535688292796e-06,606.8741660805307,606.1977074917633,606.5404379405446,606.5402092130537
0.38000000000000006,-1.117241249819267e-05,2.0000111653932926,0.15850563062275191,0.007618772016879434,0.007624608001120583,-4.717281137508358e-05,1.3415712909861896e-22,2.0,0.25188715143274265,8.259365509332928e-23,-0.00024999922610651414,0.000249820956803036,1.0102182570434677,0.004089416568356539,0.004091539863681579,1.809018029913766e-06,2.7046072106825694,-0.0012436164168262579,-0.0012443507925409623,1.2283894024762274e-06,605.3193091148507,604.6106062020343,604.9688775660453,604.9686683788326
0.38400000000000006,-1.1659647717262509e-05,2.000011652332383,0.16262703481786644,0.008450503946060197,0.008456600580835324,-4.640034162955573e-05,1.3385440288235994e-22,2.0,0.2558317766032136,8.240728210770117e-23,-0.0002608927568197776,0.0002607115391581857,1.0217877390741603,0.0038374654416751205,0.0038390410824571007,2.426779912120502e-06,2.639997085521007,-0.0012827512580549844,-0.0012833875349135525,1.0480966694230704e-06,603.7679750936965,603.0351108884706,603.4049201044339,603.4047383909601
0.388,-1.2115320467253578e-05,2.000012107732874,0.1667928679427155,0.009207652645977647,0.00921386276604751,-4.5512333393896136e-05,1.3355049062219228e-22,2.0,0.2597918563276811,8.222017893574472e-23,-0.00027015782532596386,0.0002699762927462529,1.0330943868759346,0.003542774825770232,0.0035437466152755774,2.9792206699369642e-06,2.5759304912064445,-0.0013070910573670584,-0.0013076025327116753,8.84648704277217e-07,602.2215791088114,601.47291966581,601.8501258058179,601.8499793568939
0.392,-1.2536744708860572e-05,2.000012528909206,0.17100206292405362,0.0098818930641317,0.009888060691858675,-4.452583438142902e-05,1.3324541749148422e-22,2.0,0.26376706258862725,8.203236107541006e-23,-0.0002776452056319675,0.0002774661508784367,1.0441350824104374,0.0032087936807290323,0.003209115277409176,3.4710582992948e-06,2.512439341157446,-0.0013165151257581464,-0.001316876258849304,7.36308787173025e-07,600.6809043485795,599.9249514555357,600.3053407423936,600.3052370743507
0.396,-1.2921562602442358e-05,2.00001291350344,0.17525359200625892,0.01046605670652009,0.010472019335786927,-4.3457494809470145e-05,1.3293920840331496e-22,2.0,0.26775707076018884,8.18438438644007e-23,-0.0002832255404637702,0.00028305186927328203,1.0549124607401072,0.0028398529254340414,0.0028394883167730616,3.906266052125143e-06,2.44947417004719,-0.0013112858507804363,-0.0013114723413456108,6.03305737931243e-07,599.1448630304226,598.3900318087426,598.7694349392826,598.7693812673733
0.4,-1.3267770640927071e-05,2.000013259511368,0.1795464328408336,0.010954069093518662,0.010959660481783446,-4.232286238334055e-05,1.3263188801270122e-22,2.0,0.27176155957914433,8.165464248154433e-23,-0.0002867918642993712,0.00028662654702377106,1.0654322581170035,0.0024407611008493216,0.0024396851181523703,4.288664172575175e-06,2.3870531331292737,-0.0012915964141756741,-0.001291585930195752,4.850296461558377e-07,597.6139920235739,596.8686510427862,597.2429207461237,597.2429237711207
0.404,-1.357373744208848e-05,2.000013565300296,0.18387956905435113,0.01134100260392192,0.011346055703511666,-4.11361833167168e-05,1.3232348071880638e-22,2.0,0.2757802111161275,8.14647719481529e-23,-0.00028826059816915666,0.00028810661595084723,1.0756968597679482,0.002016466761789492,0.0020146663381127366,4.621277212566494e-06,2.3251931122060503,-0.0012578420687463477,-0.0012576146955402391,3.8059397449950884e-07,596.088861254936,595.3612141793815,595.7262837188117,595.726349490999
0.40800000000000003,-1.3838216963309818e-05,2.0000138296222634,0.18825199070576198,0.011623115641722255,0.011627465624241124,-3.9910247684403175e-05,1.320140106671324e-22,2.0,0.2798127107470667,8.127424712937203e-23,-0.00028757203942223624,0.00028743232677252365,1.0857077855089214,0.001079611073680051,0.0010783123262755856,2.866408782352059e-06,2.2639099216018126,-0.00121057121009728,-0.0012101099393984622,2.8887908433680893e-07,594.5700649056239,593.8680589550875,594.2199873379685,594.2201211078517
0.41200000000000003,-1.4060354851812425e-05,2.0000140516204072,0.1926627034621648,0.011797838347568517,0.011801325466380347,-3.8655934802749363e-05,1.317035017516945e-22,2.0,0.28385874712484777,8.108308273551988e-23,-0.00028469108359010316,0.00028456846930614236,1.0954675440969457,0.0003151496925192718,0.00031464403369433215,9.836132179650907e-07,2.2032005988469314,-0.0011504567354045057,-0.0011497475598861691,2.0817536864896401e-07,593.0577771954232,592.3890266945804,592.7240351569625,592.7242413390373
0.41600000000000004,-1.4239686631979573e-05,2.000014230827183,0.19711075130881708,0.011863670688586065,0.01186614259104345,-3.738265564536134e-05,1.313919776171788e-22,2.0,0.28791801215119894,8.089129332341549e-23,-0.0002796066499894958,0.000279503803527631,1.1049818552396844,0.0,0.0,0.0,2.143015643705527,-0.0010782140588767872,-0.0010772457687091516,1.3721232955533267e-07,591.5510352450782,590.9227914952186,591.2372799138179,591.2375621374604
0.42000000000000004,-1.4376149049437207e-05,2.000014367175726,0.20159517205935,0.011820369826221526,0.011821684830660687,-3.609861872449e-05,1.3107946166108306e-22,2.0,0.29199020094879646,8.069889329769669e-23,-0.0002723317269118041,0.0002722511049127258,1.1142551566468992,0.0,0.0,0.0,2.0833946767137013,-0.0009946913982369196,-0.0009934567059385903,7.497042281272683e-08,590.0511132698108,589.4701847118475,589.760772494496,589.761133266234
0.42400000000000004,-1.4470082789593329e-05,2.0000144610026087,0.2061149739938752,0.011669122257424825,0.011669153185571345,-3.481032303070117e-05,1.3076597703584068e-22,2.0,0.29607501183358864,8.050589691212782e-23,-0.0002629056148195176,0.0002628493989360472,1.1232854035941524,0.0,0.0,0.0,2.024424977633861,-0.0009011079620059575,-0.0008996046154999191,1.978897366075169e-08,588.5605921015338,588.0331222347859,588.2967575883403,588.2971979527986
0.42800000000000005,-1.4522213246604195e-05,2.000014513028674,0.21066917283506717,0.011412304331704962,0.011410941283032862,-3.352265150474838e-05,1.3045154665092792e-22,2.0,0.3001721462873373,8.031231827089692e-23,-0.0002513949354170382,0.0002513649661083817,1.132069515382065,0.0,0.0,0.0,1.966119772975774,-0.0007987482468720426,-0.0007969784144541362,-2.995324747938216e-08,587.0802529843668,586.6116725348015,586.845656377767,586.8461760839022
0.43200000000000005,-1.4533636166820523e-05,2.0000145243447474,0.21525679470853123,0.011053426765739187,0.011050579614322101,-3.223908899414631e-05,1.3013619317495468e-22,2.0,0.30428130893037464,8.011817132990304e-23,-0.00023789196913388583,0.0002378896884650105,1.1406082057639817,-0.00048620111918352103,-0.0004881564953143094,1.7746696363680514e-06,1.9084860922498632,-0.0006888675009044876,-0.0006868377296407683,-7.568888175532318e-08,585.6107209146564,585.2057569843743,585.4077388846599,585.408336385064
0.43600000000000005,-1.4505797722671905e-05,2.000014496391786,0.21987688436678612,0.010596987875400863,0.010592588284160273,-3.096171994072481e-05,1.2981993903773882e-22,2.0,0.30840220749457403,7.992346989803322e-23,-0.0002225118943868834,0.0002225383005368666,1.1489049008391317,-0.0012828276901950967,-0.0012874916908355049,4.155091197814588e-06,1.8515139905405213,-0.0005726999346058898,-0.0005704208963776208,-1.1891043853643719e-07,584.1521955523676,583.8148761515274,583.9828517568933,583.9835242704603
0.44000000000000006,-1.4440470005861044e-05,2.000014430936455,0.22452851804246793,0.010048261919999572,0.0100422646906864,-2.969187904268849e-05,1.2950280643236417e-22,2.0,0.31253455279653325,7.97282276384295e-23,-0.0002053891677627644,0.00020544478119168932,1.1569651308967561,-0.0020893260322109248,-0.0020961342859949837,5.954113871951119e-06,1.795166890764692,-0.00045136695077908543,-0.0004488529732017344,-1.604077106597671e-07,582.7041751034745,582.4378883764713,582.5701718359429,582.5709154758068
0.44400000000000006,-1.4339744948527155e-05,2.0000143300651185,0.22921074859648036,0.00941385618942132,0.009406241807416546,-2.8430016840850512e-05,1.2918481731722248e-22,2.0,0.31667805871096827,7.953245806974605e-23,-0.00018667840838495548,0.00018676323892822698,1.1647910495520284,-0.002484050910621202,-0.0024910270694258347,5.972075716312897e-06,1.7395185819067116,-0.0003264971856234942,-0.000323767664653354,-2.0115820120253698e-07,581.2690794252663,581.076267061825,581.1716438921163,581.1724532330406
0.44800000000000006,-1.4205997303466537e-05,2.0000141961469193,0.23392263765901616,0.008701259504558311,0.008692035451099638,-2.7175934611277062e-05,1.2886599341803906e-22,2.0,0.3208324421443165,7.933617456739629e-23,-0.00016655510301548298,0.00016666861840637068,1.1723819918830045,-0.002849279561803495,-0.0028563109116397497,5.972038710624826e-06,1.684578413835366,-0.0001996473527482559,-0.00019672591095839517,-2.4190129638364537e-07,579.8477046981657,579.7298941122183,579.7876056024799,579.7884739184121
0.452,-1.4041854028827141e-05,2.0000140318032575,0.2386632583655858,0.007918720126560098,0.007907921726222447,-2.5929073091883236e-05,1.285463562298828e-22,2.0,0.3249974230085473,7.91393903647903e-23,-0.00014521378878721943,0.0001453548909316796,1.1797390552992912,-0.003181019790717235,-0.0031879877706452774,5.9556763154667644e-06,1.6303499501687098,-7.224809153146233e-05,-6.916214465905698e-05,-2.830657788751113e-07,578.4406696042199,578.3985399758806,578.4182509547012,578.4191703364893
0.456,-1.3850160262658072e-05,2.0000138398738616,0.24343170301808806,0.007075036568887906,0.007062727278786197,-2.46885872820009e-05,1.2822592701916012e-22,2.0,0.329172724195179,7.894211855456245e-23,-0.00012286266206759907,0.00012302967901259022,1.1868658878953968,-0.0034763344414195574,-0.003483117676286088,5.924610408477491e-06,1.576820885150778,5.439614325691952e-05,5.761583726252072e-05,-3.2500789752611293e-07,577.0481578283226,577.0816073271236,577.0633725974586,577.0643340780285
0.46,-1.36339428695884e-05,2.000013623380428,0.24822709510615804,0.0061792803260637096,0.00616555135705698,-2.345394009702944e-05,1.2790472682559343e-22,2.0,0.33335807154950015,7.874437208978937e-23,-9.971833937918362e-05,9.990903053894669e-05,1.1937680988993893,-0.003733084802175021,-0.0037395612714671124,5.879580009399542e-06,1.523953949694747,0.00017920849891904522,0.00018252854455642453,-3.674022110172489e-07,575.6696503414015,575.7779254418289,575.7221270781766,575.7231208359575
0.464,-1.3396390989055614e-05,2.0000133855072653,0.253048537647382,0.005241419674356841,0.005226390155123276,-2.2224791324156652e-05,1.2758277646418382e-22,2.0,0.33755319384499366,7.854616378519833e-23,-7.600621664654893e-05,7.6217783915055e-05,1.2004481043762212,-0.003948910391658941,-0.003954958510064865,5.821221922119482e-06,1.4718157695426926,0.0003005301617663857,0.0003039137978846689,-4.1004038877743126e-07,574.3074422481197,574.4887819188147,574.3963068166464,574.3973219460656
0.468,-1.3140809932100738e-05,2.0000131295552785,0.2578951507978798,0.004271673844860132,0.004255489947190977,-2.1001005992356514e-05,1.2726009652715842e-22,2.0,0.34175782275796285,7.834750631836612e-23,-5.196043223837523e-05,5.218953687081213e-05,1.2069063972224514,-0.0041213789430914385,-0.004126878490757936,5.750076706847331e-06,1.4203973361125635,0.00041706468799692373,0.0004204729450985538,-4.5269626231683386e-07,572.9618097924791,573.2136546011523,573.0857897090802,573.0868145633265
0.47200000000000003,-1.2870581728001184e-05,2.0000128589026045,0.26276608597234474,0.0032801992935190755,0.003263032777064271,-1.9783196104780906e-05,1.2693670738590233e-22,2.0,0.3459716928423571,7.814841223090843e-23,-2.78187571398331e-05,2.8061547421140605e-05,1.2131470172304835,-0.004249476191682726,-0.00425431104672441,5.666768734152923e-06,1.369660481511789,0.000527899417602736,0.0005312917977145535,-4.945024155825875e-07,571.6321676769602,571.9513848519921,571.7897065323516,571.7907289246563
0.47600000000000003,-1.2589139006820028e-05,2.000012576978579,0.2676604857780408,0.0022775457568573495,0.0022595925031380485,-1.8572300078446583e-05,1.2661262919287542e-22,2.0,0.35019454150479634,7.794889392965991e-23,-3.818909675379472e-06,4.071060359772744e-06,1.2191735719358405,-0.00433256073996631,-0.004336620852467691,5.571973945297695e-06,1.319647399361363,0.0006317108842927906,0.0006350453747296883,-5.35051997581226e-07,570.3201090062125,570.7027385486095,570.509237975569,570.5102451766805
0.48000000000000004,-1.2299916493772721e-05,2.0000122872152906,0.2725775464150673,0.0012736905329741235,0.0012551685046573464,-1.7370110042774607e-05,1.262878818835139e-22,2.0,0.3544261089797921,7.774896368784493e-23,1.9806084037626602e-05,-1.954932522507531e-05,1.2249913967707866,-0.004370834853463034,-0.004374017528449357,5.465782457675147e-06,1.2702739647183214,0.0007279876187283284,0.0007312216879550071,-5.733087201260331e-07,569.0237469504475,569.4654886954341,569.2423302120059,569.2433092544843
0.48400000000000004,-1.2006334471827474e-05,2.000011993031144,0.2775164209800674,0.0002792047892659734,0.0002603514441897997,-1.617917956425302e-05,1.2596248517811692e-22,2.0,0.35866613830516464,7.754863364623895e-23,4.282646001908694e-05,-4.257021694287915e-05,1.2306017989612579,-0.004364094281382324,-0.004366306279654811,5.348430528078942e-06,1.2216506333248223,0.0008152217956250791,0.0008183125932467052,-6.083089059230133e-07,567.7464899907748,568.2420931831638,567.9919191489691,567.9928568790301
0.48800000000000004,-1.1711755050511365e-05,2.000011697787171,0.28247626686852845,-0.0006954830919978234,-0.0007144136220199826,-1.5002552221940077e-05,1.2563645858371828e-22,2.0,0.3629143752976537,7.734791581432098e-23,6.501590303971047e-05,-6.476560598796586e-05,1.2360030737094443,-0.004311997734812098,-0.004313157170015815,5.219734558143924e-06,1.173793073475588,0.0008923868437755217,0.0008952922559823237,-6.393744990818782e-07,566.4891828648017,567.0327327667727,566.7585191960675,566.7594025996295
0.49200000000000005,-1.1419445973725084e-05,2.000011404750877,0.28745626241671923,-0.0016403904580008038,-0.0016591303242756775,-1.3843696557891681e-05,1.253098213959434e-22,2.0,0.3671705685287222,7.714682207141671e-23,8.615233565188562e-05,-8.591364981672761e-05,1.2411952432271458,-0.004214984053348894,-0.004215021462252887,5.080851607345006e-06,1.1266830831753285,0.0009588635999823713,0.0009615425290642421,-6.658830979245114e-07,565.2516754363007,565.836837646719,565.5417718839628,565.5425881768268
0.49600000000000005,-1.1132548159883e-05,2.000011117063815,0.2924556171497981,-0.002546183635367258,-0.0025644542611962372,-1.2706649461446526e-05,1.2498259270085158e-22,2.0,0.37143446930055085,7.694536416783273e-23,0.00010602835218299397,-0.0001058071052545035,1.2461842475119316,-0.004075226072725558,-0.004074084870927949,4.93237592424965e-06,1.0802810355430401,0.0010143060520507285,0.001016718724187365,-6.870271127562901e-07,564.0331749241183,564.6533604944574,564.3407592814569,564.3414960081267
0.5,-1.0854049902953192e-05,2.0000108377158368,0.29747352592790394,-0.003403825174783326,-0.0034213415210916412,-1.1595766335038062e-05,1.2465479137676364e-22,2.0,0.3757058316222227,7.67435537259817e-23,0.00012445206343629687,-0.00012425416368041207,1.2509731217390239,-0.003894859804556652,-0.003892498565569162,4.774962005522112e-06,1.0346394115888127,0.0010580434608705393,0.0010601528151367172,-7.022671797240716e-07,562.8353722911628,563.4835358427258,563.1569451842269,563.1575906446479
0.504,-1.058675702891219e-05,2.000010569515246,0.3025092017985544,-0.004204958525190305,-0.004221432645093107,-1.0515468993664005e-05,1.2432643609607518e-22,2.0,0.37998441218609613,7.654140224149875e-23,0.00014124736002160871,-0.00014107870705329975,1.2555631274304195,-0.003676036144345201,-0.0036724300420916114,4.6093635052648455e-06,0.9897445259166608,0.0010897969635093611,0.0010915687291927197,-7.113450450218474e-07,561.6581283826557,562.3270075823566,561.9900821911496,561.9906254755174
0.508,-1.0333267919274003e-05,2.0000103150638116,0.30756188813709384,-0.004942066983317951,-0.004957211248335234,-9.470235083440503e-06,1.2399754532705553e-22,2.0,0.3842699703443644,7.633892108434891e-23,0.0001562565523954346,-0.00015612295220164175,1.2599585768395225,-0.0034217317874569034,-0.0034168715006128365,4.436734381451252e-06,0.9455575142479338,0.0011095433236976997,0.0011109459116027073,-7.14011779831075e-07,560.5005651769038,561.1828381350392,560.8392628231949,560.8396937874966
0.512,-1.0095951040677928e-05,2.00001007673432,0.31263081491601197,-0.005608287975536341,-0.005621820111951993,-8.464388852199373e-06,1.2366813733563232e-22,2.0,0.388562268085801,7.613612149992583e-23,0.00016934300248542131,-0.00016925007862113924,1.26416251207701,-0.0031352046229845285,-0.003129098146551286,4.2581351642541345e-06,0.902127337293823,0.0011171004057997872,0.001118106852649639,-7.102602631569842e-07,559.3641401258411,560.0523262129701,559.705864442366,559.7061743131649
0.516,-9.876925568950235e-06,2.000009856651155,0.31771522380843664,-0.0061976204968225476,-0.006209267618873795,-7.50191381704516e-06,1.2333823018716213e-22,2.0,0.39286107001268933,7.593301461014182e-23,0.0001803914021735605,-0.00018034449990734155,1.2681756592216162,-0.0028198359309875463,-0.0028125102550879415,4.074785428856292e-06,0.8594524744338008,0.0011125814020110831,0.0011131693142622358,-7.003082050587548e-07,558.2489072020252,558.9355508657453,558.5899522253723,558.5901335968975
0.52,-9.678045016769734e-06,2.000009656673888,0.3228143700714144,-0.0067049866126196985,-0.006714489131258465,-6.586319546843831e-06,1.2300784174818684e-22,2.0,0.3971661433179345,7.572961141450926e-23,0.00018930872695664046,-0.00018931281783625544,1.2720000613476437,-0.0024793143629149783,-0.002470814705325636,3.888039242217358e-06,0.8175272488555316,0.001096241195918496,0.0010963928080081006,-6.845426481125993e-07,557.1547657626306,557.832525877692,557.4914809310915,557.49152779574
0.524,-9.500884030773822e-06,2.0000094783840248,0.32792752222728155,-0.007126269965742256,-0.007133385400719089,-5.720512839311153e-06,1.2267698968817632e-22,2.0,0.40147725776235726,7.552592279121337e-23,0.00019602624317610523,-0.0001960858409276386,1.2756390976593142,-0.0021177074298800716,-0.002108095883376478,3.699290449983181e-06,0.7763462359247626,0.0010684582064519011,0.001068160730318459,-6.635203372519398e-07,556.0815805383131,556.7433093173206,556.4104096125159,556.4103174813214
0.528,-9.346726456799069e-06,2.0000093230730154,0.33305395023969214,-0.007458389710345806,-0.0074628971127247284,-4.906581686989486e-06,1.2234569148125715e-22,2.0,0.4057941856521675,7.532195949817654e-23,0.00020050028125669973,-0.00020061935826923586,1.2790949137518064,-0.0014691797428355192,-0.0014608574306364632,2.8458156636538837e-06,0.7359276232236762,0.0010297594064211549,0.0010290060688970795,-6.380749281010996e-07,555.0297890678243,555.6686267194503,555.3473164597633,555.3470826972873
0.532,-9.216559911649058e-06,2.0000091917367513,0.3381929324868626,-0.00769928822728643,-0.007700991920511744,-4.1459986747175155e-06,1.220139644079277e-22,2.0,0.4101167018166166,7.511773217411422e-23,0.00020271294496646415,-0.00020289484609422367,1.2823691548879905,-0.000657991131441264,-0.0006536272395242253,1.3850074991423124e-06,0.6962754378706253,0.0009807870290779851,0.0009795768902663502,-6.088359528824637e-07,553.9994198540854,554.608870243767,554.3024092028132,554.3020329858656
0.536,-9.111077010744283e-06,2.000009085076684,0.34334378085873546,-0.00784783482874785,-0.00784656621019822,-3.4393597057439036e-06,1.2168182555675948e-22,2.0,0.41444458358582686,7.491325133958238e-23,0.0002026711860868997,-0.00020291856349672575,1.285465704029678,0.0,0.0,0.0,0.6573425410569564,0.0009222072106209974,0.0009205435996153832,-5.767633208477324e-07,552.9891395222716,553.5630900684824,553.2745428132063,553.2740246565462
0.54,-9.030671498857773e-06,2.0000090034958835,0.34850581880379256,-0.007903906852763985,-0.007899527317051696,-2.7864158418370743e-06,1.2134929182608526e-22,2.0,0.41877761076879755,7.47085273980167e-23,0.00020040578825165082,-0.00020072055497329138,1.2883903127739935,0.0,0.0,0.0,0.6191253169720135,0.0008547805159547386,0.00085267213141554,-5.428157047308215e-07,551.9987259041848,552.5315094940869,552.2637142794558,552.2630563893473
0.544,-8.975441145425167e-06,2.0000089471018376,0.35367838131776064,-0.007868372393489403,-0.00786077589630572,-2.186092652863185e-06,1.2101637992567338e-22,2.0,0.42311556563158487,7.450357063676348e-23,0.00019597105999248442,-0.0001963543471894868,1.2911465051498667,0.0,0.0,0.0,0.5816198408237734,0.0007793865104440676,0.000776847574050299,-5.079638831878454e-07,551.0279076506473,551.5143814411598,551.2699107483403,551.2691170826077
0.548,-8.94519367112969e-06,2.0000089157122694,0.3588608148863866,-0.007743063470823607,-0.00773217870548116,-1.6365398767131138e-06,1.2068310637838912e-22,2.0,0.42745823287565604,7.429839122810237e-23,0.0001894444445659527,-0.00018989655982194021,1.293737163430532,0.0,0.0,0.0,0.5448219720355745,0.0006969743771989692,0.0006940245704345874,-4.7315459659076606e-07,550.0763818076379,550.5119755853459,550.2931120088538,550.2921882690888
0.552,-8.93945273107739e-06,2.0000089088610196,0.3640524671148626,-0.0075308785947096855,-0.007516671450254606,-1.1350124440988847e-06,1.2034948752184266e-22,2.0,0.43180539961641484,7.409299923026099e-23,0.00018092602314306113,-0.00018144641617052243,1.2961641251174543,0.0,0.0,0.0,0.5087482868056645,0.0006086809437910116,0.0006053459174796505,-4.395055544930149e-07,549.1443342219889,549.525172861571,549.333847206243,549.3328010101259
0.5559999999999999,-8.957473061055646e-06,2.0000089258130673,0.36925269824061124,-0.007235574162481137,-0.007218048971934291,-6.785921130976779e-07,1.2001553951002396e-22,2.0,0.4361568553618982,7.388740458842141e-23,0.0001705382950604373,-0.00017112552826456474,1.298429339048733,0.0001420944440888923,0.00014353800729548965,2.1032721852073333e-07,0.47339199573485624,0.000515580946254256,0.0005118914680073267,-4.0732841849288515e-07,548.2313450468649,548.5542154431673,548.3920259975489,548.3908666221878
0.5599999999999999,-8.998263481853847e-06,2.0000089655874054,0.37446091168289963,-0.006861286396905243,-0.0068404846374415795,-2.6369763550566237e-07,1.1968127831492472e-22,2.0,0.4405123919916428,7.368161713571873e-23,0.00015841990781851348,-0.00015907166071987068,1.3005381037489283,0.000795321630422602,0.0008024834556751677,1.0154865641752386e-06,0.43868394088564844,0.0004183515391917169,0.00041434076710413436,-3.775143681020243e-07,547.3354499856657,547.5975558783181,547.4658894027194,547.4646269323201
0.564,-9.060587518346154e-06,2.000009026957565,0.3796765002997685,-0.006413234796437215,-0.006389236838426231,1.1366096387569945e-07,1.1934671972814734e-22,2.0,0.44487180373571883,7.347564659423159e-23,0.00014472398529060746,-0.00014543707175610152,1.3024953067650498,0.0015773159047057228,0.0015900559662256997,1.7653332875283008e-06,0.40466269479473227,0.0003182744348105285,0.0003139811172452945,-3.5068501960633473e-07,546.4573612222827,546.656706957281,546.5565471857064,546.5551935299495
0.568,-9.142987453863712e-06,2.000009108475545,0.3848988664772633,-0.0058973570437417,-0.005870282117920613,4.5764061768183603e-07,1.1901187936250108e-22,2.0,0.44923488715393145,7.32695025759649e-23,0.00012961943191234994,-0.00013038981439642238,1.3043021068825225,0.002025679686324754,0.0020394739868671487,1.8429904746390084e-06,0.37132642957758666,0.00021655161471360255,0.00021201860094010943,-3.271966264156385e-07,545.5967360470918,545.7320822705564,545.6640330827872,545.6626015145158
0.572,-9.24380527341938e-06,2.0000092084926364,0.3901274238184127,-0.005320209371120354,-0.005290214932222585,7.724470248702817e-07,1.1867677265358552e-22,2.0,0.45360144111518796,7.306319458382469e-23,0.00011329068553374253,-0.0001141134921618361,1.305960200597193,0.0023141504660264016,0.002327383361928895,1.7144262939966116e-06,0.3386696197713517,0.00011430172324580182,0.00010957530471948922,-3.072745220464265e-07,544.7531548795249,544.8239708703434,544.7882805734777,544.7867855266356
0.576,-9.361206035840884e-06,2.0000093251826874,0.3953616017027739,-0.004688798490864271,-0.004656078920358701,1.0621083130306003e-06,1.1834141486136141e-22,2.0,0.45797126677702926,7.285673201258513e-23,9.593264983714852e-05,-9.680221412658644e-05,1.307472852429324,0.002573611821637704,0.0025861181788015496,1.593279530593428e-06,0.3066771622722768,1.2536108289242106e-05,7.665216598855295e-06,-2.9088193791772706e-07,543.9259701125608,543.9323702203421,543.9289642493129,543.9274210689518
0.58,-9.49320303028851e-06,2.0000094565671462,0.40060085245484167,-0.0040103597158343985,-0.0039751442684787305,1.3305091308715106e-06,1.1800582107170898e-22,2.0,0.4623441675653245,7.2650124149848e-23,7.77459253957455e-05,-7.86558427305488e-05,1.3088444941104145,0.002802386891334341,0.002814008358233801,1.479229410537492e-06,0.275318935876381,-8.792048652290612e-05,-9.288507649809845e-05,-2.7801492042914024e-07,543.1141837250436,543.0568125999016,543.0853508463185,543.0837755374711
0.584,-9.637672694791678e-06,2.000009600529879,0.4058446202719975,-0.003292854819057381,-0.003255406234087652,1.5812433498426496e-06,1.176700061979738e-22,2.0,0.46671994915412784,7.244338017699432e-23,5.8936929255822274e-05,-5.98801191397774e-05,1.3100776274286035,0.0029984608796973368,0.0030090462163026577,1.3718337432746005e-06,0.24462718200133482,-0.0001857425144227933,-0.0001907475505963359,-2.6849182767729935e-07,542.3183122764874,542.1986666177872,542.2583829753708,542.256792410569
