Time_s,X,Y,Z,Roll_deg,Pitch_deg,Yaw_deg,Ref_X,Ref_Y,Ref_Z,Ref_Yaw,vx,vy,vz,p,q,r,T_pert,tau_x,tau_y,tau_z,RPM_0,RPM_1,RPM_2,RPM_3
0.0040000000000000036,3.907672823421635e-23,-2.0,0.010006999594037988,3.1588276933026285e-18,-1.2404722931936249e-18,-1.2671305083394822e-20,-1.7036918152829097e-23,-2.0,7.200000000000012e-05,0.0,-7.173352330779748e-20,-400.0,2.0013999188075973,0.0,0.0,0.0,-10.19,-3.688665432071574e-18,7.946506583471864e-19,1.4802088048930945e-20,0.0,0.0,0.0,0.0
0.008000000000000007,-2.2845147947142647e-22,-2.0,0.010010999365392528,4.225032291713385e-18,-3.0182454625789816e-18,-5.043015736345434e-21,-1.7036918152829097e-23,-2.0,0.00021513340800000038,0.0,-6.955654838364261e-20,-222.22222222222223,1.1123332628213918,0.0,0.0,0.0,-0.034338475932384316,-1.4632550593036749e-18,5.885575995615201e-18,-8.389839031087655e-21,534.6826504237879,534.682650423788,534.6826504237879,534.682650423788
0.01200000000000001,-8.380860753587008e-23,-2.0,0.010014999136880033,5.119212085748636e-18,-1.6314232418497263e-18,-5.679101235072133e-20,-1.7036918152829097e-23,-2.0,0.00042854147030131276,0.0,-7.855027952229846e-21,7.661678037794994e-23,0.0009999428519315637,0.0,0.0,0.0,0.11268126898165703,-1.3382353508458173e-18,-5.987764715921556e-18,6.065816209560736e-20,538.6882899136241,538.6882899136242,538.6882899136241,538.6882899136241
0.016000000000000014,-5.075458063136336e-22,-2.0,0.010018998914443494,5.512932513758819e-18,-3.5664905532635504e-18,3.5543254726505605e-20,-1.7036918152829097e-23,-2.0,0.0007113732083620786,0.0,-2.974345002689031e-20,8.802617808035606e-23,0.0009999434728236167,0.0,0.0,0.0,0.26021501221340504,-8.185527557291264e-19,8.879878214467394e-18,-1.055238015776891e-19,542.6782125744407,542.6782125744409,542.6782125744407,542.6782125744407
0.020000000000000018,-5.21159227863406e-22,-2.0,0.010022998708143238,6.806374240327551e-18,-4.490256343235924e-18,5.896752866672595e-20,-1.7036918152829097e-23,-2.0,0.0010627853561306145,0.0,-3.2654442413071736e-20,1.0213064902670936e-22,0.000999945707343998,0.0,0.0,0.0,0.40825154765299004,-1.8999587535496788e-18,-3.09040357854497e-18,-2.882005638874571e-20,546.6524627992839,546.652462799284,546.6524627992839,546.652462799284
0.02400000000000002,-4.096139341200651e-22,-2.0,0.01002699852321945,7.775975687704135e-18,-5.098692965161711e-18,1.5875793748324698e-19,-1.7036918152829097e-23,-2.0,0.0014819422978531074,0.0,-3.622848471267696e-20,1.1686453957693495e-22,0.0009999499065601464,0.0,0.0,0.0,0.5567798034669496,-1.615000327379711e-18,-4.112681500914991e-19,-1.1899377046597212e-19,550.6110859245991,550.6110859245993,550.6110859245991,550.6110859245991
0.027999999999999997,-2.6678043606621403e-22,-2.0,0.010030998361537077,8.464620353073669e-18,-3.817245176347315e-18,2.4275593413397213e-19,-1.7036918152829097e-23,-2.0,0.001968016006352204,0.0,2.3395972761946286e-20,1.3427631792491465e-22,0.000999955269170849,0.0,0.0,0.0,0.7057888203156216,-1.358650293168751e-18,-1.584666700904509e-18,-1.0465453450732563e-19,554.5541276348625,554.5541276348627,554.5541276348625,554.5541276348625
0.032,-3.4332486235064817e-22,-2.0,0.010034998222984525,9.275525740708523e-18,-4.232052262936926e-18,6.3886117350540195e-19,-1.7036918152829097e-23,-2.0,0.002520185981773086,0.0,1.9102435142138408e-20,1.4952545584916285e-22,0.0009999610156364788,0.0,0.0,0.0,0.8552677504124183,-1.5544186749388798e-18,3.2038457153741114e-18,-4.727113230816588e-19,558.4816339383812,558.4816339383813,558.4816339383812,558.4816339383812
0.036000000000000004,-4.658982982404615e-22,-2.0,0.01003899810644552,1.082656364509267e-17,-4.192402920346713e-18,5.875906497258498e-19,-1.7036918152829097e-23,-2.0,0.003137639190793574,0.0,-5.5872639455810806e-21,1.6681315673995304e-22,0.0009999667005275784,0.0,0.0,0.0,1.0052058573647087,-2.4806225649053694e-18,8.676204127537381e-19,3.3584355035129264e-20,562.3936511645311,562.3936511645312,562.3936511645311,562.3936511645311
0.04000000000000001,-3.931354384686881e-22,-2.0,0.01004299801021353,1.1663986422093753e-17,-4.262709649775563e-18,8.112559955445573e-19,-1.7036918152829097e-23,-2.0,0.0038195700062949476,0.0,-8.887043601117348e-21,1.8531162020284387e-22,0.0009999720793530884,0.0,0.0,0.0,1.1555925163011755,-1.760933080563278e-18,-1.776107545828873e-18,-2.855199050953963e-19,566.2902259686026,566.2902259686027,566.2902259686026,566.2902259686027
0.04400000000000001,-4.586949903692811e-22,-2.0,0.010046997932264013,1.2081251977500096e-17,-4.627311831482391e-18,9.60578595118375e-19,-1.7036918152829097e-23,-2.0,0.004565180147490079,0.0,3.394098398848833e-21,1.999570179448076e-22,0.0009999770210437214,0.0,0.0,0.0,1.3064172131817038,-1.3357098359762011e-18,2.3003696122961987e-18,-2.0791687687317794e-19,570.1714053155773,570.1714053155773,570.1714053155773,570.1714053155773
0.048000000000000015,-2.1877807914375253e-22,-2.0,0.010050997870580267,1.207191168169914e-17,-4.420211749829997e-18,6.194154581530307e-19,-1.7036918152829097e-23,-2.0,0.005373678620505558,0.0,2.2558891466872074e-20,2.0861455865913096e-22,0.0009999814677809707,0.0,0.0,0.0,1.4576695437220464,-8.745162765105391e-19,-3.3948121512780702e-18,3.5884929634882155e-19,574.0372364548389,574.037236454839,574.0372364548389,574.037236454839
0.05200000000000002,-1.7521101190844573e-22,-2.0,0.010054997823268196,1.246015744365155e-17,-3.983370763049884e-18,7.996187791086748e-19,-1.7036918152829097e-23,-2.0,0.006244281659414513,0.0,2.7249162231836325e-20,2.126259103182318e-22,0.0009999854197808092,0.0,0.0,0.0,1.609339212861545,-1.3465794691516155e-18,1.9163993564812512e-18,-2.3622315720345276e-19,577.8877669097241,577.8877669097242,577.8877669097241,577.8877669097242
0.055999999999999994,-1.3184375843515543e-22,-2.0,0.010058997788649595,1.2567455316559534e-17,-3.933053760796664e-18,9.679448995328472e-19,-1.7036918152829097e-23,-2.0,0.007176212667716816,0.0,2.774834619321685e-20,2.154286100518022e-22,0.000999988912815837,0.0,0.0,0.0,1.7614160338601836,-1.0537555144976138e-18,2.16977404231849e-19,-2.2980426101063073e-19,581.7230444582412,581.7230444582414,581.7230444582412,581.7230444582412
0.06,-2.3683916167319698e-23,-2.0,0.010062997765405476,1.2756458322578407e-17,-3.835137295951393e-18,9.472030456602379e-19,-1.7036918152829097e-23,-2.0,0.00816870216026346,0.0,1.5632546404046308e-20,2.1977826908194537e-22,0.0009999920149803693,0.0,0.0,0.0,1.9138899272585892,-1.1652762674108925e-18,-5.971974857308991e-19,-1.592255721595807e-20,585.5431171111912,585.5431171111913,585.5431171111912,585.5431171111912
0.064,-1.410093832932337e-22,-2.0,0.010066997752361558,1.2903269056916656e-17,-3.912340546385423e-18,1.0316846594143434e-18,-1.7036918152829097e-23,-2.0,0.009220987705621774,0.0,5.4296680015174894e-21,2.2224300799838236e-22,0.0009999947900666065,0.0,0.0,0.0,2.066750920671596,-1.1378371467281893e-18,2.930353215756197e-18,-1.3805460635553387e-19,589.3480331118772,589.3480331118773,589.3480331118772,589.3480331118772
0.068,-5.026064007373568e-23,-2.0,0.01007099774850195,1.2873496245392183e-17,-3.861022950529711e-18,1.0085673654354399e-18,-1.7036918152829097e-23,-2.0,0.010332313868878387,0.0,-1.6339464164660648e-21,2.2424814074201395e-22,0.0009999972804503737,0.0,0.0,0.0,2.2199891474111757,-9.506822669960695e-19,-2.0750761792337298e-18,-1.5903179620655147e-20,593.1378409070159,593.137840907016,593.1378409070159,593.1378409070159
0.07200000000000001,-2.8547274042189893e-22,-2.0,0.010076457523272485,1.275468989191854e-17,1.9845716542938113e-17,2.114402934074873e-18,-1.7036918152829097e-23,-2.0,0.01150193215487664,0.0,-2.6626778294270472e-20,2.570065820462332e-22,0.0011459765611556913,0.0,0.0,0.0,2.370632217842205,-8.536663760490372e-19,-2.3649991214031617e-17,-1.3338197851052226e-18,596.8400104975773,596.8400104975774,596.8400104975773,596.8400104975773
0.07600000000000001,-1.2564220726981877e-22,-2.0,0.01008820363045381,1.2635743777278317e-17,8.092777724678565e-18,1.4361904332727342e-18,-1.7036918152829097e-23,-2.0,0.01272910095188534,0.0,-1.937232859229857e-21,4.266570197864569e-22,0.001920588111835493,0.0,0.0,0.0,2.5117909892543673,-8.542833654799877e-19,7.994794053512962e-18,7.046736910920114e-19,600.2883750295692,600.2883750295694,600.2883750295692,600.2883750295694
0.08000000000000002,6.723474910330891e-23,-2.0,0.010111108794338594,1.695069972604222e-17,-3.66211332228649e-18,-1.9231971033792354e-18,-1.7036918152829097e-23,-2.0,0.014013085475695667,0.0,2.083793313719417e-20,9.478357290273216e-22,0.003784256631675191,0.0,0.0,0.0,2.643208314928925,-6.032582043140394e-18,1.2683343635183336e-17,3.864459429499536e-18,603.4810546749981,603.4810546749982,603.4810546749981,603.4810546749981
0.08400000000000002,6.02614858866596e-22,-2.0,0.010149540496748863,2.0526487451933896e-17,-4.935261405963398e-17,-5.902048245260025e-18,-1.7036918152829097e-23,-2.0,0.015353157714143145,0.0,8.501829124286364e-20,2.1014276833373593e-21,0.006831553178769829,0.0,0.0,0.0,2.7657447606162986,-5.4763321071493425e-18,4.9480720599013996e-17,4.7261724032167285e-18,606.4428378007108,606.4428378007109,606.4428378007108,606.4428378007108
0.08800000000000002,1.1522884408478178e-21,-2.0,0.01020747892994026,2.4841075189421186e-17,-1.0757671087516614e-16,-9.670452451887385e-18,-1.7036918152829097e-23,-2.0,0.016748596372051543,0.0,1.3016546953561236e-19,4.064391038672989e-21,0.010950011491127863,0.0,0.0,0.0,2.8800376948285487,-6.597903853660916e-18,7.080714133380578e-17,4.644133577277374e-18,609.1923910407411,609.1923910407411,609.1923910407411,609.1923910407411
0.09200000000000003,1.3516050070212385e-21,-2.0,0.010288556321157405,2.915542658662909e-17,-1.5989670069323395e-16,-1.3240286923792781e-17,-1.7036918152829097e-23,-2.0,0.018198686816595647,0.0,1.338792492679294e-19,7.03347466933432e-21,0.016042983735193965,0.0,0.0,0.0,2.9866571068765464,-6.9100119577778576e-18,7.219734406185803e-17,4.567590655570582e-18,611.7462004954946,611.7462004954947,611.7462004954946,611.7462004954946
0.09600000000000003,8.337342292317223e-22,-2.0,0.010396092244794855,3.716454000283802e-17,-1.8784723589881743e-16,-1.5870236507376628e-17,-1.7036918152829097e-23,-2.0,0.019702721023079826,0.0,5.2563173201874836e-20,1.152928837761658e-20,0.022025559534724626,0.0,0.0,0.0,3.0861124970046108,-1.1539885174590456e-17,5.199124308139302e-17,3.6171697195715965e-18,614.1188396545098,614.1188396545099,614.1188396545098,614.1188396545098
0.10000000000000003,-2.610290060739389e-22,-2.0,0.010533111510071524,4.960740950351946e-17,-2.1766541979290565e-16,-1.8177389367761448e-17,-1.7036918152829097e-23,-2.0,0.021259997521129365,0.0,-5.982027445388564e-20,1.91900946337339e-20,0.028820065614855443,0.0,0.0,0.0,3.1788871143605295,-1.7290953709672205e-17,5.5182783660283677e-17,3.3491942475810258e-18,616.3238661084775,616.3238661084777,616.3238661084775,616.3238661084775
0.10400000000000004,-1.879449163021178e-21,-2.0,0.010702337973392057,6.204992106348631e-17,-2.636931325353333e-16,-2.070686636393116e-17,-1.7036918152829097e-23,-2.0,0.022869821341291546,0.0,-1.722493325932558e-19,3.147393889262703e-20,0.03635171401346251,0.0,0.0,0.0,3.265486248328065,-1.8176041168415165e-17,7.617838393118225e-17,3.70491213621402e-18,618.3750212994921,618.3750212994921,618.3750212994921,618.3750212994921
0.10800000000000004,-4.47301363557875e-21,-2.0,0.01090628967106623,7.07968936038906e-17,-2.960544435264739e-16,-2.635504034720163e-17,-1.7036918152829097e-23,-2.0,0.024531503962043497,0.0,-2.804332460577716e-19,4.728354999096276e-20,0.04455478157365557,0.0,0.0,0.0,3.3462317948050457,-1.4754808005796254e-17,6.927387199463226e-17,7.453357453431719e-18,620.2814200341212,620.2814200341213,620.2814200341212,620.2814200341212
0.11199999999999999,-8.251512488164128e-21,-2.0,0.011147321668150478,7.99127659519924e-17,-3.074317047071157e-16,-3.2608425295063156e-17,-1.7036918152829097e-23,-2.0,0.026244363257203765,0.0,-4.552276203516292e-19,6.581119506701894e-20,0.05337831109636423,0.0,0.0,0.0,3.421365334485229,-1.58331485492644e-17,5.048682037795311e-17,8.394111690271554e-18,622.0500720106296,622.0500720106297,622.0500720106296,622.0500720106297
0.11599999999999999,-1.298430985916261e-20,-2.0,0.011427574196547859,8.865845399719174e-17,-3.2727531142349425e-16,-3.730721262958689e-17,-1.7036918152829097e-23,-2.0,0.028007723443744872,0.0,-6.5425880785169185e-19,8.704999132389873e-20,0.06277533154700754,0.0,0.0,0.0,3.4912389837203257,-1.6080026956525107e-17,5.972500424630322e-17,6.837156456271118e-18,623.6904044666597,623.6904044666597,623.6904044666597,623.6904044666597
0.12,-1.899539766090249e-20,-2.0,0.011749078634029506,9.703388609330232e-17,-3.304957661472983e-16,-4.2522615541819026e-17,-1.7036918152829097e-23,-2.0,0.029820915030003513,0.0,-8.687506182366806e-19,1.1186144600650565e-19,0.07270443282048795,0.0,0.0,0.0,3.5559967070885437,-1.630761326152558e-17,4.654674622630225e-17,7.63619700663492e-18,625.2067944571949,625.2067944571951,625.2067944571949,625.206794457195
0.124,-2.660828811889253e-20,-2.0,0.012113718059910477,1.0762550905745004e-16,-2.8936842276923546e-16,-4.8546550033576774e-17,-1.7036918152829097e-23,-2.0,0.03168327476428597,0.0,-1.1473425977509885e-18,1.4054053985541728e-19,0.08313021274734475,0.0,0.0,0.0,3.615866077621648,-1.953600548097487e-17,1.4430233609741716e-19,8.797819609634654e-18,626.6054524267516,626.6054524267518,626.6054524267516,626.6054524267516
0.128,-3.588720153662583e-20,-2.0,0.012523187069376725,1.2671495155015863e-16,-1.8764961612323819e-16,-5.488853036832095e-17,-1.7036918152829097e-23,-2.0,0.033594145583865524,0.0,-1.5545754310137239e-18,1.7831220951720582e-19,0.09401406010888565,0.0,0.0,0.0,3.6711610385843594,-3.0258601725786346e-17,-7.101311307217324e-17,9.4200987703655e-18,627.8944762479688,627.8944762479689,627.8944762479688,627.8944762479688
0.132,-4.596167175684638e-20,-2.0,0.012979026353576645,1.4875974913592677e-16,-8.110068944178267e-17,-6.328984669357984e-17,-1.7036918152829097e-23,-2.0,0.035552876564369104,0.0,-1.9808307699168754e-18,2.31578579138295e-19,0.10531295359815751,0.0,0.0,0.0,3.7221314461298345,-3.5103510695682217e-17,-9.20799277108172e-17,1.2089982912877268e-17,629.0803475390054,629.0803475390056,629.0803475390054,629.0803475390055
0.136,-5.647796108617814e-20,-2.0,0.013482681314591313,1.678476962020994e-16,3.2843390841652094e-17,-7.200445798161258e-17,-1.7036918152829097e-23,-2.0,0.037558822869550326,0.0,-2.360860606359288e-18,2.9947938987945046e-19,0.11699304523205782,0.0,0.0,0.0,3.7689131875701047,-3.326203000136193e-17,-1.1123196930058044e-16,1.280536451895077e-17,630.1668017718888,630.1668017718889,630.1668017718888,630.1668017718889
0.14,-6.70308190658367e-20,-2.0,0.014035461444582516,1.8397848092311375e-16,1.5346949691576264e-16,-7.938679579209247e-17,-1.7036918152829097e-23,-2.0,0.03961134570144607,0.0,-2.674008394424042e-18,3.7338900008268956e-19,0.12902443853959333,0.0,0.0,0.0,3.811727713131818,-3.1231314626620555e-17,-1.3102104836723083e-16,1.1611935267221059e-17,631.1594827917636,631.1594827917637,631.1594827917636,631.1594827917636
0.14400000000000002,-7.708771696703943e-20,-2.0,0.014638582791616549,2.0158598251225367e-16,2.71192826621568e-16,-8.66662855750519e-17,-1.7036918152829097e-23,-2.0,0.04170981225091381,0.0,-2.944482122931799e-18,4.512133589116721e-19,0.14137896525292046,0.0,0.0,0.0,3.8507147048675723,-3.418722728713577e-17,-1.4197569981179332e-16,1.1800477298197208e-17,632.0620638801557,632.0620638801558,632.0620638801557,632.0620638801557
0.14800000000000002,-8.627932631013377e-20,-2.0,0.015293201926187562,2.1993121201585408e-16,3.9259016920418613e-16,-9.374245474307679e-17,-1.7036918152829097e-23,-2.0,0.043853595648546906,0.0,-3.155875769196234e-18,5.391442997795155e-19,0.15403484544355886,0.0,0.0,0.0,3.885947971968484,-3.6393472363320507e-17,-1.5904044601286292e-16,1.1867936392646048e-17,632.8766358563191,632.8766358563192,632.8766358563191,632.8766358563192
0.15200000000000002,-9.397030467651653e-20,-2.0,0.016000397939586936,2.323627921881928e-16,4.991662140023226e-16,-1.0381784478993796e-16,-1.7036918152829097e-23,-2.0,0.046042074915965056,0.0,-3.286944895065154e-18,6.331637410480446e-19,0.16697422060006106,0.0,0.0,0.0,3.9175398376425212,-3.089594372014023e-17,-1.5826274021452255e-16,1.566861538028782e-17,633.6061303498861,633.6061303498863,633.6061303498861,633.6061303498863
0.15600000000000003,-1.0001244384908028e-19,-2.0,0.016761146786709646,2.4700956553972766e-16,6.168181976260348e-16,-1.1520650479350167e-16,-1.7036918152829097e-23,-2.0,0.048274634917477216,0.0,-3.365512969903066e-18,7.295614847160469e-19,0.18017618411269862,0.0,0.0,0.0,3.9456572496058135,-3.449501733254452e-17,-1.8166106218051511e-16,1.7623698147302044e-17,634.2546897989087,634.2546897989085,634.2546897989087,634.2546897989085
0.16000000000000003,-1.038047481669056e-19,-2.0,0.017576333282050913,2.6534956406694133e-16,7.285234874100721e-16,-1.2567190798948785e-16,-1.7036918152829097e-23,-2.0,0.0505506663121142,0.0,-3.3916541569116736e-18,8.322815818551165e-19,0.19361695355380806,0.0,0.0,0.0,3.970446179872979,-3.9981742331244736e-17,-1.9144694658000622e-16,1.702088616093733e-17,634.8259245290938,634.8259245290938,634.8259245290938,634.8259245290938
0.16400000000000003,-1.0516049360032496e-19,-2.0,0.018446769194053553,2.992073544385052e-16,8.579492574393695e-16,-1.3812230442974388e-16,-1.7036918152829097e-23,-2.0,0.052869565506028296,0.0,-3.403457176748993e-18,9.66676009373275e-19,0.20727475723855032,0.0,0.0,0.0,3.9920188652440087,-5.954175213486394e-17,-2.24248905487332e-16,1.977818884371237e-17,635.322626314218,635.3226263142179,635.322626314218,635.322626314218
0.16800000000000004,-1.0332029873251636e-19,-2.0,0.019373186351280738,3.278910481858497e-16,9.763343932959218e-16,-1.52022075015711e-16,-1.7036918152829097e-23,-2.0,0.055230734605257216,0.0,-3.362807838805879e-18,1.1387168707736511e-18,0.22113043788879114,0.0,0.0,0.0,4.0105039439312815,-5.60239540446141e-17,-2.3163625294506303e-16,2.1992183133893176e-17,635.7479285579116,635.7479285579116,635.7479285579117,635.7479285579117
0.17200000000000004,-9.79112059762312e-20,-2.0,0.020356256378138645,3.543560497052355e-16,1.0932389245539025e-15,-1.654147317843949e-16,-1.7036918152829097e-23,-2.0,0.05763358136884959,0.0,-3.271874771783919e-18,1.3330255403618183e-18,0.2351658296552907,0.0,0.0,0.0,4.025992629786904,-5.56234854074147e-17,-2.456950956924502e-16,2.1981176457658555e-17,636.1040712380195,636.1040712380195,636.1040712380196,636.1040712380195
0.176,-8.852514355322546e-20,-2.0,0.021396582092659298,3.830361813817961e-16,1.212357051306544e-15,-1.7922590698347937e-16,-1.7036918152829097e-23,-2.0,0.06007751916234955,0.0,-3.0965632621805855e-18,1.5322681167634993e-18,0.24936458573340953,0.0,0.0,0.0,4.038595594969481,-6.026729142811023e-17,-2.648270575637283e-16,2.3031565875417667e-17,636.3937133662491,636.3937133662491,636.3937133662492,636.3937133662491
0.18,-7.481568074068708e-20,-2.0,0.02249469791608283,4.213217646564077e-16,1.3440345816012183e-15,-1.9451021072933782e-16,-1.7036918152829097e-23,-2.0,0.0625619669116377,0.0,-2.912173822519114e-18,1.75909246243045e-18,0.2637097607931467,0.0,0.0,0.0,4.048424954112748,-7.371251357885151e-17,-2.9596263855954004e-16,2.5332056589888335e-17,636.6195208406524,636.6195208406524,636.6195208406524,636.6195208406524
0.184,-5.619396903597119e-20,-2.0,0.02365107281683232,4.625620887164216e-16,1.4786642844756146e-15,-2.1011256031818277e-16,-1.7036918152829097e-23,-2.0,0.06508634905712558,0.0,-2.7118643119399334e-18,2.0300712897306065e-18,0.278184581117085,0.0,0.0,0.0,4.0555891072196495,-8.00750571996753e-17,-3.200167905806891e-16,2.634478649758516e-17,636.784050736752,636.784050736752,636.7840507367521,636.784050736752
0.188,-3.218448457234041e-20,-2.0,0.02486612082945963,5.082350689779884e-16,1.619940506668797e-15,-2.248636204055888e-16,-1.7036918152829097e-23,-2.0,0.06765009550830155,0.0,-2.4889417482115995e-18,2.3474687520792342e-18,0.2927735200624147,0.0,0.0,0.0,4.060177271821736,-8.839425389256482e-17,-3.479333628969771e-16,2.600569705143294e-17,636.8893988889592,636.8893988889592,636.8893988889594,636.8893988889594
0.192,-2.284575562960976e-21,-2.0,0.026140202671556607,5.627750159494171e-16,1.7708190911598279e-15,-2.385909510980032e-16,-1.7036918152829097e-23,-2.0,0.0702526415986251,0.0,-2.241242881325387e-18,2.7132942872608666e-18,0.3074626813751109,0.0,0.0,0.0,4.062277213976431,-1.0222653992292585e-16,-3.8065876244148376e-16,2.5431243673637074e-17,636.937609530126,636.937609530126,636.937609530126,636.937609530126
0.196,3.40578668938376e-20,-2.0,0.027473626859817392,6.1731408691058455e-16,1.9327779132629675e-15,-2.5191164056054847e-16,-1.7036918152829097e-23,-2.0,0.07289342804076722,0.0,-1.9923980521265575e-18,3.1350808148138305e-18,0.3222387955867788,0.0,0.0,0.0,4.061976212702676,-1.0634797900608684e-16,-4.169679219774199e-16,2.5536567577952082e-17,636.9306993426778,636.9306993426778,636.9306993426778,636.9306993426778
0.2,7.754784020068415e-20,-2.0,0.028866656006412608,6.711126735686866e-16,2.0962096558103474e-15,-2.6717694078555666e-16,-1.7036918152829097e-23,-2.0,0.07557190088219416,0.0,-1.7203128486708048e-18,3.597456201682124e-18,0.3370893815318392,0.0,0.0,0.0,4.0593505103753795,-1.0964376907581499e-16,-4.452815696021516e-16,2.8372757574531334e-17,636.8704170318018,636.8704170318018,636.8704170318018,636.8704170318018
0.20400000000000001,1.2896545193212443e-19,-2.0,0.030319505456554093,7.389511798507361e-16,2.245593466876009e-15,-2.794406446916222e-16,-1.7036918152829097e-23,-2.0,0.07828751146109222,0.0,-1.3610097713557002e-18,4.110319782311448e-18,0.3520025986670294,0.0,0.0,0.0,4.0544806551669295,-1.3018603806842701e-16,-4.572715787689705e-16,2.5511913251655783e-17,636.7585971231314,636.7585971231314,636.7585971231314,636.7585971231314
0.20800000000000002,1.887795251851444e-19,-2.0,0.03183234530165801,8.112229804542692e-16,2.39201255156305e-15,-2.916015005701673e-16,-1.7036918152829097e-23,-2.0,0.08103971636263091,0.0,-8.872720104095757e-19,4.693453611466532e-18,0.3669669052906131,0.0,0.0,0.0,4.047444693139331,-1.4051778269555824e-16,-4.785070720897325e-16,2.591486627594909e-17,636.5970051395865,636.5970051395865,636.5970051395865,636.5970051395865
0.21200000000000002,2.575493373545611e-19,-2.0,0.03340530366653803,8.879283104219045e-16,2.535465456394886e-15,-3.048050893645543e-16,-1.7036918152829097e-23,-2.0,0.08382797737556208,0.0,-3.1056265398615784e-19,5.3631253844965966e-18,0.381971203795111,0.0,0.0,0.0,4.038315517892333,-1.5120341620669188e-16,-5.012324814661036e-16,2.7652664709556866e-17,636.3872780497172,636.3872780497172,636.3872780497172,636.3872780497172
0.21600000000000003,3.357882122273899e-19,-2.0,0.0350384669485076,9.646327946109148e-16,2.6789071382926156e-15,-3.195561494519602e-16,-1.7036918152829097e-23,-2.0,0.08665176144915256,0.0,3.377013975412596e-19,6.096441949425866e-18,0.39700493581866986,0.0,0.0,0.0,4.027166951405217,-1.5706761188322202e-16,-5.273940442914372e-16,3.0023817135299517e-17,636.1310651419957,636.1310651419957,636.1310651419957,636.1310651419957
0.22000000000000003,4.2400701229277766e-19,-2.0,0.03673188136199585,1.0472482297442161e-15,2.825292806049623e-15,-3.345176564746196e-16,-1.7036918152829097e-23,-2.0,0.08951054065044778,0.0,1.0372067615240265e-18,6.889821318350159e-18,0.41205780369677625,0.0,0.0,0.0,4.0140710863396825,-1.6988869610960877e-16,-5.576728369808084e-16,3.0897687656978985e-17,635.8299681525673,635.8299681525672,635.8299681525673,635.8299681525672
0.22400000000000003,5.227971799700522e-19,-2.0,0.03848555626234518,1.1372527015421874e-15,2.9701875870743246e-15,-3.4700368451646997e-16,-1.7036918152829097e-23,-2.0,0.09240379212186403,0.0,1.7924736690942426e-18,7.752404338412045e-18,0.4271200366611286,0.0,0.0,0.0,3.999094625407166,-1.8489767021766574e-16,-5.846190307968686e-16,2.8643658122251476e-17,635.4854580915263,635.4854580915262,635.4854580915263,635.4854580915262
0.22800000000000004,6.326717614326271e-19,-2.0,0.04029946845277771,1.2316906869264186e-15,3.1165465567016396e-15,-3.598987292282958e-16,-1.7036918152829097e-23,-2.0,0.09533099803910691,0.0,2.601455316360126e-18,8.708414020025772e-18,0.4421827032866698,0.0,0.0,0.0,3.982296779531965,-1.9702349910864662e-16,-6.147835241222855e-16,2.9658396188742365e-17,635.0988275650967,635.0988275650965,635.0988275650967,635.0988275650967
0.23200000000000004,7.541896301738916e-19,-2.0,0.04217355121736344,1.3261276956770672e-15,3.262890832098671e-15,-3.7586496212509647e-16,-1.7036918152829097e-23,-2.0,0.09829164556941347,0.0,3.468645977783734e-18,9.747820128743176e-18,0.4572364639676148,0.0,0.0,0.0,3.9637601288474285,-2.0434013443570783e-16,-6.445845681648649e-16,3.380066733814445e-17,634.6719021762809,634.6719021762808,634.6719021762809,634.6719021762809
0.23600000000000004,8.87892710939834e-19,-2.0,0.044107702829803676,1.4205630931630737e-15,3.4092194510444943e-15,-3.9264922836184787e-16,-1.7036918152829097e-23,-2.0,0.10128522683011584,0.0,4.393974912913628e-18,1.0846330793133254e-17,0.47227168081137866,0.0,0.0,0.0,3.943551445337026,-2.1172189136853784e-16,-6.74964390488959e-16,3.543812486070584e-17,634.206140052098,634.2061400520978,634.206140052098,634.2061400520979
0.24000000000000005,1.0342904064120305e-18,-2.0,0.046101788425969514,1.5120400660295568e-15,3.558487630644338e-15,-4.107657680761521e-16,-1.7036918152829097e-23,-2.0,0.10431123884752391,0.0,5.370145543228146e-18,1.1987254813021382e-17,0.4872794329595447,0.0,0.0,0.0,3.921734889441683,-2.1571669971936933e-16,-7.091903100864557e-16,3.771105902487296e-17,633.7029360241593,633.702936024159,633.7029360241593,633.7029360241593
0.244,1.193926494100228e-18,-2.0,0.04815564120200063,1.6005576853579698e-15,3.710694703611778e-15,-4.286813626156281e-16,-1.7036918152829097e-23,-2.0,0.10736918351612453,0.0,6.389596742578626e-18,1.3161891057400796e-17,0.5022515101642187,0.0,0.0,0.0,3.898373318636568,-2.1957198222332594e-16,-7.447777969545396e-16,3.8248923564692526e-17,633.1636524570904,633.1636524570904,633.1636524570905,633.1636524570904
0.248,1.3673522000175184e-18,-2.0,0.05026906358074514,1.6861147096253564e-15,3.865840314771891e-15,-4.460827170175021e-16,-1.7036918152829097e-23,-2.0,0.1104585675580954,0.0,7.440456803071411e-18,1.4354568622977083e-17,0.5171799993993884,0.0,0.0,0.0,3.873528312974874,-2.232852443019353e-16,-7.814550283559032e-16,3.841380933564338e-17,632.5896205018836,632.5896205018835,632.5896205018837,632.5896205018836
0.252,1.5551590659175602e-18,-2.0,0.05244182142942488,1.7716664302937447e-15,4.020967574914731e-15,-4.616185542833706e-16,-1.7036918152829097e-23,-2.0,0.11357890248313052,0.0,8.533471389068168e-18,1.5569606791054257e-17,0.5320565855679192,0.0,0.0,0.0,3.847274240039715,-2.3030677351920176e-16,-8.161720609113974e-16,3.698028838409424e-17,631.9824661328184,631.9824661328183,631.9824661328184,631.9824661328184
0.256,1.7578157729543713e-18,-2.0,0.05467365318782829,1.861646486566303e-15,4.184943883328877e-15,-4.768458474666779e-16,-1.7036918152829097e-23,-2.0,0.11672970454857583,0.0,9.661922332112306e-18,1.6828080329156814e-17,0.5468733460823938,0.0,0.0,0.0,3.8196681776298798,-2.425649705634722e-16,-8.606782829243317e-16,3.7290038632158026e-17,631.3434157487676,631.3434157487674,631.3434157487676,631.3434157487675
0.26,1.97596275616685e-18,-2.0,0.056964291922208275,1.9530989473568126e-15,4.351857498825291e-15,-4.910494112549937e-16,-1.7036918152829097e-23,-2.0,0.11991049471987204,0.0,1.080630477619353e-17,1.8152508980441072e-17,0.5616249603145786,0.0,0.0,0.0,3.7907233893185546,-2.5173706913979753e-16,-9.01669533974633e-16,3.675273259585521e-17,630.672679910048,630.6726799100477,630.672679910048,630.6726799100479
0.264,2.2102266164329504e-18,-2.0,0.05931343266748205,2.0445452406294366e-15,4.518751398437828e-15,-5.040235495932769e-16,-1.7036918152829097e-23,-2.0,0.12312079863130279,0.0,1.1977674386199356e-17,1.954219349002849e-17,0.576306410727595,0.0,0.0,0.0,3.76051965909563,-2.5934712362514954e-16,-9.40186694794762e-16,3.5934095013112244e-17,629.9720092820265,629.9720092820263,629.9720092820265,629.9720092820264
0.268,2.461538090485696e-18,-2.0,0.06172075442256684,2.1256379185869087e-15,4.6523678696403274e-15,-5.186551335724186e-16,-1.7036918152829097e-23,-2.0,0.12636014654704564,0.0,1.3320336486765565e-17,2.0950614276021364e-17,0.5909114090289178,0.0,0.0,0.0,3.7290934125474626,-2.549375479044685e-16,-9.44351188563836e-16,3.8438200965514354e-17,629.2421503233872,629.2421503233869,629.2421503233872,629.2421503233871
0.272,2.730845397028803e-18,-2.0,0.06418589508040541,2.2111559429228316e-15,4.708356547061188e-15,-5.34528020202124e-16,-1.7036918152829097e-23,-2.0,0.12962807332252388,0.0,1.515070322179882e-17,2.2371584497568763e-17,0.6054326662129239,0.0,0.0,0.0,3.696532534949198,-2.6713445313218805e-16,-8.958421802999257e-16,4.0525267629498473e-17,628.4850460838092,628.4850460838089,628.4850460838092,628.485046083809
0.276,3.018350807843754e-18,-2.0,0.06670846835821252,2.298882196167543e-15,4.6896589834139265e-15,-5.498985438947588e-16,-1.7036918152829097e-23,-2.0,0.13292411836605678,0.0,1.7779366148911838e-17,2.3822009139994336e-17,0.6198625423184279,0.0,0.0,0.0,3.6628919298766673,-2.7710467699061575e-16,-8.379338990588419e-16,4.062753717938551e-17,627.7018769569813,627.7018769569812,627.7018769569813,627.7018769569813
0.28,3.323555872679598e-18,-2.0,0.06928807085156331,2.3962071375175834e-15,4.639128044304724e-15,-5.648648017976309e-16,-1.7036918152829097e-23,-2.0,0.1362478256008061,0.0,2.1103541759767785e-17,2.536221550007533e-17,0.6341949826431119,0.0,0.0,0.0,3.628213022814478,-2.959172278863825e-16,-8.172959383958697e-16,4.0824844135618624e-17,626.8935115068049,626.8935115068047,626.8935115068049,626.8935115068048
0.28400000000000003,3.646368286320183e-18,-2.0,0.07192428066572665,2.50017542351213e-15,4.5441942849727324e-15,-5.798381860208217e-16,-1.7036918152829097e-23,-2.0,0.13959874342701678,0.0,2.493548741481667e-17,2.701078685187493e-17,0.6484252999079412,0.0,0.0,0.0,3.592540629872622,-3.120030551692977e-16,-7.844297971163904e-16,4.148716651746671e-17,626.0608988614907,626.0608988614906,626.0608988614907,626.0608988614907
0.28800000000000003,3.986540002966219e-18,-2.0,0.07461662253031591,2.60413651594351e-15,4.391546921710252e-15,-5.927498588133916e-16,-1.7036918152829097e-23,-2.0,0.14297642468454957,0.0,2.925809391683424e-17,2.8775869843611475e-17,0.6625457006407487,0.0,0.0,0.0,3.555991023554446,-3.2084970475569863e-16,-7.313693904158826e-16,3.9734097230285346e-17,625.2066615309124,625.2066615309121,625.2066615309124,625.2066615309122
0.29200000000000004,4.3433130230398264e-18,-2.0,0.0773646146367178,2.7036547526468946e-15,4.1981752166506725e-15,-6.087350952310426e-16,-1.7036918152829097e-23,-2.0,0.14638042661570333,0.0,3.409222833342758e-17,3.059650560604517e-17,0.6765485114738651,0.0,0.0,0.0,3.518587186755407,-3.245887745541652e-16,-6.882883137714275e-16,4.3896082147376327e-17,624.3312490285589,624.3312490285587,624.3312490285589,624.3312490285588
0.29600000000000004,4.715978035500651e-18,-2.0,0.08016777992717553,2.806858702259748e-15,3.960376979031897e-15,-6.277171770874237e-16,-1.7036918152829097e-23,-2.0,0.14981031082832508,0.0,3.940842849326185e-17,3.245343872041109e-17,0.6904313991041107,0.0,0.0,0.0,3.4803294650505476,-3.37585501108994e-16,-6.38234793673045e-16,4.809577448446217e-17,623.4345802586382,623.4345802586381,623.4345802586383,623.4345802586382
0.30000000000000004,5.103601074640354e-18,-2.0,0.08302562580784102,2.914117513503381e-15,3.679992778870774e-15,-6.466177898772408e-16,-1.7036918152829097e-23,-2.0,0.15326564325920555,0.0,4.51659039989231e-17,3.43633306270071e-17,0.7041933784390719,0.0,0.0,0.0,3.4412592902901764,-3.513373823253889e-16,-5.842427581261164e-16,4.8823894022725004e-17,622.517536562294,622.5175365622938,622.517536562294,622.517536562294
0.30400000000000005,5.505029618322346e-18,-2.0,0.08593762190405253,3.0232144229907347e-15,3.3644063775096947e-15,-6.643942006846523e-16,-1.7036918152829097e-23,-2.0,0.15674599413775814,0.0,5.132597890653714e-17,3.635871407615996e-17,0.7178292363229629,0.0,0.0,0.0,3.40146380014004,-3.6285283895287545e-16,-5.327528098492696e-16,4.8331910757746896e-17,621.5820776194558,621.5820776194557,621.5820776194558,621.5820776194558
0.308,5.919021065271444e-18,-2.0,0.08890325369803384,3.1008920062231267e-15,3.0169403927495214e-15,-6.769633691302231e-16,-1.7036918152829097e-23,-2.0,0.16025093794997908,0.0,5.777858264810006e-17,3.835077060397186e-17,0.73133516416128,0.0,0.0,0.0,3.360922542171491,-3.3573438110196585e-16,-4.808017762397713e-16,4.3025368355594355e-17,620.6276382897348,620.6276382897348,620.6276382897348,620.6276382897349
0.312,6.344468522384368e-18,-2.0,0.09192196799277051,3.1271871513357174e-15,2.6172653895049342e-15,-6.885705696235659e-16,-1.7036918152829097e-23,-2.0,0.16378005340268723,0.0,6.457747946161593e-17,4.00512338758496e-17,0.7447081968706624,0.0,0.0,0.0,3.319725303893114,-2.832100519170979e-16,-4.035129085962782e-16,4.246502913386466e-17,619.656249628419,619.656249628419,619.656249628419,619.6562496284191
0.316,6.7795475441901775e-18,-2.0,0.09499319539696598,3.1349768971988426e-15,2.197891744841545e-15,-7.003091234257046e-16,-1.7036918152829097e-23,-2.0,0.16733292338804037,0.0,7.171907792654227e-17,4.128109016937791e-17,0.7579427929407009,0.0,0.0,0.0,3.2779175353274033,-2.655820105883737e-16,-3.513150989391172e-16,4.3143170867500957e-17,618.6689060150728,618.6689060150727,618.6689060150728,618.6689060150728
0.32,7.222556150959227e-18,-2.0,0.09811635294660546,3.132018051983848e-15,1.7695356131862042e-15,-7.077423127126234e-16,-1.7036918152829097e-23,-2.0,0.1709091349483273,0.0,7.900394386560339e-17,4.214979147659831e-17,0.7710342136204127,0.0,0.0,0.0,3.2355399448147386,-2.557518406245461e-16,-3.1013282538886307e-16,3.8644737900381196e-17,617.6664946458995,617.6664946458994,617.6664946458995,617.6664946458995
0.324,7.6718736837338e-18,-2.0,0.10129084479997798,3.119786139112418e-15,1.33219812752715e-15,-7.162134840351717e-16,-1.7036918152829097e-23,-2.0,0.17450827924103265,0.0,8.622802493492444e-17,4.283294489941993e-17,0.7839791101709668,0.0,0.0,0.0,3.192632324892793,-2.469076073432437e-16,-2.6777517204013326e-16,4.0211905460233076e-17,616.6498856207802,616.6498856207802,616.6498856207803,616.6498856207803
0.328,8.125839805059795e-18,-2.0,0.1045160690238952,3.1149085618866652e-15,8.873590404488135e-16,-7.258349871812948e-16,-1.7036918152829097e-23,-2.0,0.17812995150417288,0.0,9.335994974498359e-17,4.342962530276447e-17,0.7967749157140421,0.0,0.0,0.0,3.149221167460567,-2.568370777162045e-16,-2.2459391201611677e-16,4.1953529620154564e-17,615.6196378441749,615.6196378441748,615.6196378441749,615.6196378441749
0.332,8.582688927875143e-18,-2.0,0.1077914277911312,3.1129525043684535e-15,4.453669376250422e-16,-7.380253155753221e-16,-1.7036918152829097e-23,-2.0,0.18177375102190127,0.0,1.0034041220108182e-16,4.402138357539627e-17,0.8094207964901816,0.0,0.0,0.0,3.105312523797624,-2.6208970703658335e-16,-1.9021746643237377e-16,4.54000864398766e-17,614.5758267011144,614.5758267011144,614.5758267011145,614.5758267011145
0.336,9.040725456555025e-18,-2.0,0.11111628738083933,3.11724477867586e-15,1.06605919398114e-17,-7.449917735267648e-16,-1.7036918152829097e-23,-2.0,0.18543928109038013,0.0,1.0708152408500282e-16,4.467604490963412e-17,0.8219135825693377,0.0,0.0,0.0,3.0609935546113967,-2.7142557750599136e-16,-1.603802553122064e-16,3.984987771186763e-17,613.5204603076031,613.5204603076032,613.5204603076031,613.5204603076033
0.34,9.498335936079222e-18,-2.0,0.11449001102625868,3.12852596025332e-15,-4.167547755593166e-16,-7.362716634068654e-16,-1.7036918152829097e-23,-2.0,0.18912614898391797,0.0,1.1350788117549493e-16,4.540554125530481e-17,0.834249017036355,0.0,0.0,0.0,3.0162859600034806,-2.8205651423867934e-16,-1.3038523060695476e-16,2.1863561108622702e-17,612.4539970175477,612.4539970175477,612.4539970175477,612.4539970175479
0.34400000000000003,9.953973250112917e-18,-2.0,0.11791202976020305,3.1442106941997004e-15,-8.398305982328735e-16,-7.103666940618873e-16,-1.7036918152829097e-23,-2.0,0.19283396592136995,0.0,1.196303426079819e-16,4.621352341351569e-17,0.8464319648998881,0.0,0.0,0.0,2.9710678146959806,-2.9015424210535125e-16,-9.664229845821278e-17,1.4822537709323217e-18,611.3734626615005,611.3734626615005,611.3734626615004,611.3734626615005
0.34800000000000003,1.0406066418767719e-17,-2.0,0.12138173460332592,3.1583875658490483e-15,-1.2563450253084128e-15,-6.761312976190124e-16,-1.7036918152829097e-23,-2.0,0.19656234703279932,0.0,1.2545350448687518e-16,4.707258656029642e-17,0.8584655876663183,0.0,0.0,0.0,2.925433896554109,-2.9166109492488426e-16,-6.397152654168078e-17,-9.263150820266797e-18,610.2810533769062,610.2810533769062,610.2810533769061,610.2810533769062
0.35200000000000004,1.0853126218266905e-17,-2.0,0.12489852053767611,3.1773382227038002e-15,-1.6688800378509208e-15,-6.287917068903875e-16,-1.7036918152829097e-23,-2.0,0.20031091132639836,0.0,1.3098677535463732e-16,4.79644831902096e-17,0.8703502377048423,0.0,0.0,0.0,2.8793910723622718,-3.0041001715849307e-16,-2.810420536204676e-17,-2.5929534587148077e-17,609.1768701055807,609.1768701055807,609.1768701055805,609.1768701055807
0.35600000000000004,1.129370822330646e-17,-2.0,0.12846180918965644,3.198846546857463e-15,-2.0818655506851944e-15,-5.678336817384109e-16,-1.7036918152829097e-23,-2.0,0.20407928165566647,0.0,1.3625844884690713e-16,4.888794409017449e-17,0.8820847814881055,0.0,0.0,0.0,2.8329001050975844,-3.069107795291565e-16,1.367972110580718e-17,-4.3738037464542815e-17,608.0599051550627,608.0599051550627,608.0599051550626,608.0599051550627
0.36000000000000004,1.1726319551602673e-17,-2.0,0.1320710713153546,3.2214350247614964e-15,-2.4938207455488573e-15,-4.980435706544163e-16,-1.7036918152829097e-23,-2.0,0.20786708468684376,0.0,1.413100793875682e-16,4.985819783090966e-17,0.8936792757760825,0.0,0.0,0.0,2.7858753313020572,-3.1187611646302825e-16,5.585584514266327e-17,-5.65188008535228e-17,606.9280241280197,606.9280241280198,606.9280241280195,606.9280241280196
0.36400000000000005,1.2149428221321077e-17,-2.0,0.13572566270502004,3.2428864047634403e-15,-2.8980897599357258e-15,-4.2412862850328006e-16,-1.7036918152829097e-23,-2.0,0.21167395086659818,0.0,1.461106776476854e-16,5.08443990562738e-17,0.9051276282901839,0.0,0.0,0.0,2.738562612481221,-3.1434193001959264e-16,9.223620493145054e-17,-6.416829234142551e-17,605.7870779762196,605.7870779762197,605.7870779762194,605.7870779762195
0.36800000000000005,1.2561691771462612e-17,-2.0,0.13942481974614937,3.2643089265586355e-15,-3.302427922227518e-15,-3.4726602105269627e-16,-1.7036918152829097e-23,-2.0,0.21549951438996437,0.0,1.5064350559547434e-16,5.182706047064498e-17,0.9164091511050909,0.0,0.0,0.0,2.6912205364096238,-3.180390894078857e-16,1.3658385575647002e-16,-7.061720714121678e-17,604.6432689381876,604.6432689381877,604.6432689381874,604.6432689381875
0.37200000000000005,1.2961632826950607e-17,-2.0,0.14316775878592877,3.2930932462628376e-15,-3.699441183768772e-15,-2.7158225070696295e-16,-1.7036918152829097e-23,-2.0,0.21934341316853212,0.0,1.5490051504389535e-16,5.283135990127069e-17,0.9275011535260196,0.0,0.0,0.0,2.6439098960531737,-3.3037953972203997e-16,1.7538615104913953e-16,-7.237212125455594e-17,603.4980537062148,603.4980537062149,603.4980537062145,603.4980537062147
0.37600000000000006,1.3347933719185939e-17,-2.0,0.1469537269795585,3.3236978435324536e-15,-4.0946676542472164e-15,-1.949395919520577e-16,-1.7036918152829097e-23,-2.0,0.223205288798883,0.0,1.5890309367211442e-16,5.3884708944904446e-17,0.9384006956527774,0.0,0.0,0.0,2.5965889818298975,-3.3677248965596794e-16,2.1993862077211007e-16,-7.658111368543268e-17,602.3504117428312,602.3504117428313,602.3504117428308,602.3504117428312
0.38000000000000006,1.3719152718163063e-17,-2.0,0.15078197534908636,3.3612968891978055e-15,-4.479234676235608e-15,-1.164599213424227e-16,-1.7036918152829097e-23,-2.0,0.2270847865312729,0.0,1.6260438911069175e-16,5.502121141950231e-17,0.9491112178296375,0.0,0.0,0.0,2.549269835075278,-3.493533274302988e-16,2.569890179741236e-16,-8.186061886896529e-17,601.2006220183757,601.2006220183758,601.2006220183753,601.2006220183756
0.38400000000000006,1.4073671822790475e-17,-2.0,0.1546517561404655,3.3689391811126793e-15,-4.8228348728836395e-15,-4.218276722048719e-17,-1.7036918152829097e-23,-2.0,0.23098155523855898,0.0,1.6583655739742644e-16,5.612855682473233e-17,0.9596345643693798,0.0,0.0,0.0,2.501969792737191,-3.1928959543180785e-16,2.6163052288594017e-16,-8.016591245163468e-17,600.0490946624835,600.0490946624838,600.0490946624833,600.0490946624834
0.38800000000000007,1.4409831555721453e-17,-2.0,0.1585623158535453,3.366938359738862e-15,-5.078521466418973e-15,2.2189391435156303e-17,-1.7036918152829097e-23,-2.0,0.23489524738536904,0.0,1.680772068121255e-16,5.699345557203061e-17,0.9699703535965526,0.0,0.0,0.0,2.4547203529933874,-3.109035809326123e-16,2.1093636648858903e-16,-7.164242552825082e-17,598.8965886937806,598.8965886937807,598.8965886937802,598.8965886937805
0.39200000000000007,1.472685426934439e-17,-2.0,0.16251287784786211,3.3564029162691574e-15,-5.2577238585739815e-15,7.934960686088907e-17,-1.7036918152829097e-23,-2.0,0.23882551899751153,0.0,1.689096188732334e-16,5.758060609888832e-17,0.9801157547030147,0.0,0.0,0.0,2.4075885530723133,-3.031511717121495e-16,1.591080288479361e-16,-6.586261250560527e-17,597.744738349995,597.744738349995,597.7447383499947,597.7447383499948
0.3960000000000001,1.5023728987954764e-17,-2.0,0.16650267668533852,3.2637928573537665e-15,-5.320510080648597e-15,1.2413814549699624e-16,-1.7036918152829097e-23,-2.0,0.2427720296316244,0.0,1.6804413261171331e-16,5.774200440619458e-17,0.990068947323064,0.0,0.0,0.0,2.3605725224663816,-2.0893275699588977e-16,5.917692021031268e-17,-5.376325971639462e-17,596.5935015830682,596.5935015830684,596.5935015830681,596.5935015830681
0.4000000000000001,1.5299899017053474e-17,-2.0,0.17053097899274347,3.05619427070846e-15,-5.235064732080953e-15,1.633928614020578e-16,-1.7036918152829097e-23,-2.0,0.24673444234506117,0.0,1.6509050185234218e-16,5.673614960438856e-17,0.9998334005321381,0.0,0.0,0.0,2.3136277459891272,-7.06025896998639e-17,-8.999049729734428e-17,-4.914670770570582e-17,595.441788789908,595.441788789908,595.4417887899077,595.4417887899077
0.4040000000000001,1.5555952379308675e-17,-2.0,0.17459706895473534,2.7782909737404036e-15,-5.032757589274196e-15,1.959064121899477e-16,-1.7036918152829097e-23,-2.0,0.25071242366601226,0.0,1.5979477903513464e-16,5.403647777414868e-17,1.0094150777568338,0.0,0.0,0.0,2.2667381809267506,2.3556955863724336e-17,-2.25299940213191e-16,-4.289529279834179e-17,594.2892024768095,594.2892024768095,594.2892024768094,594.2892024768092
0.4080000000000001,1.579269286525879e-17,-2.0,0.17870016917666673,2.427478910233167e-15,-4.72279595069557e-15,2.1386472320922027e-16,-1.7036918152829097e-23,-2.0,0.25470564356386,0.0,1.5236293801814986e-16,4.973246684356988e-17,1.0188109831906293,0.0,0.0,0.0,2.2200478870913907,1.2575895819829823e-16,-3.606986413900438e-16,-2.72412590011873e-17,593.1392889833252,593.1392889833252,593.1392889833252,593.1392889833251
0.412,1.6011489813735753e-17,-2.0,0.1828394946497605,2.02443401300318e-15,-4.332866090803424e-15,2.1389448440970834e-16,-1.7036918152829097e-23,-2.0,0.25871377541976515,0.0,1.432074420571986e-16,4.4108458936157884e-17,1.0280146779060668,0.0,0.0,0.0,2.1735934159333468,2.0904759138510688e-16,-4.783193155770298e-16,-7.050234387940998e-18,591.9929667116659,591.9929667116659,591.9929667116659,591.9929667116658
0.416,1.621448866096769e-17,-2.0,0.1870142773199081,1.621250145384185e-15,-3.937966092863099e-15,1.982410202131675e-16,-1.7036918152829097e-23,-2.0,0.2627364959974844,0.0,1.3303377980482728e-16,3.751436380417031e-17,1.0370233773718762,0.0,0.0,0.0,2.1273617502199795,2.353577161967193e-16,-5.240198156224865e-16,1.1254098119129252e-17,590.8499344146237,590.8499344146237,590.8499344146237,590.8499344146236
0.42,1.6403299185084846e-17,-2.0,0.19122374887636187,1.2367784100466943e-15,-3.553619447991895e-15,1.661677663462107e-16,-1.7036918152829097e-23,-2.0,0.2667734854144151,0.0,1.226925110138052e-16,3.0544464305742484e-17,1.0458397805676367,0.0,0.0,0.0,2.0813743137074625,2.3994577627647413e-16,-5.475167890553589e-16,3.1063950691105777e-17,589.7107424410509,589.7107424410509,589.7107424410511,589.7107424410508
0.424,1.6579387452252156e-17,-2.0,0.19546716903506264,8.750933038460185e-16,-3.1853769685495237e-15,1.2059722550132301e-16,-1.7036918152829097e-23,-2.0,0.27082442711286775,0.0,1.1276528012360375e-16,2.369833931828366e-17,1.0544665540665465,0.0,0.0,0.0,2.035595187255436,2.387647462928162e-16,-5.635351935254472e-16,4.813634652102327e-17,588.5745207296944,588.5745207296944,588.5745207296947,588.5745207296944
0.428,1.674400783022649e-17,-2.0,0.19974380078690943,5.214234382052948e-16,-2.824747192980784e-15,7.254909336677706e-17,-1.7036918152829097e-23,-2.0,0.2748890078315629,0.0,1.032959088291608e-16,1.7076607154745163e-17,1.0629077443177093,0.0,0.0,0.0,1.9900378421590728,2.5352704537512716e-16,-5.871933519071345e-16,5.289341870525114e-17,587.4416218367209,587.4416218367207,587.441621836721,587.4416218367209
0.432,1.689837939570514e-17,-2.0,0.2040529169175007,1.6764396579978754e-16,-2.463975061099963e-15,1.726693493841396e-17,-1.7036918152829097e-23,-2.0,0.27896691757735176,0.0,9.418016406543989e-17,1.0549657060532582e-17,1.071165538327787,0.0,0.0,0.0,1.944702462777144,2.7747579887637467e-16,-6.201063974289302e-16,6.331185137224336e-17,586.3120696214435,586.3120696214435,586.3120696214438,586.3120696214435
0.436,1.704373880665023e-17,-2.0,0.2083938166088986,-1.8032917990641944e-16,-2.0986293592373802e-15,-3.313931237752582e-17,-1.7036918152829097e-23,-2.0,0.28305784959715835,0.0,8.528222718818769e-17,3.992965477210123e-18,1.0792437200043943,0.0,0.0,0.0,1.8995552765836465,2.9477080505210077e-16,-6.595293213194346e-16,5.988487402738517e-17,585.1850395731818,585.1850395731818,585.1850395731822,585.1850395731818
0.44,1.7181413485135206e-17,-2.0,0.2127657923038585,-5.284037476838487e-16,-1.7331466584880153e-15,-8.471559914084072e-17,-1.7036918152829097e-23,-2.0,0.28716150035014176,0.0,7.656006017100427e-17,-2.6183762188075334e-18,1.087145069208448,0.0,0.0,0.0,1.8546289675312786,3.1881036154786947e-16,-6.963000461581177e-16,6.33238214007453e-17,584.0613645546952,584.0613645546952,584.0613645546955,584.0613645546953
0.444,1.7312665502146296e-17,-2.0,0.21716811201757533,-8.754680426067568e-16,-1.366052340188255e-15,-1.3841843832059633e-16,-1.7036918152829097e-23,-2.0,0.29127756948007677,0.0,6.801986483029649e-17,-9.288024546445504e-18,1.0948674986980547,0.0,0.0,0.0,1.8099923809749918,3.4180169323577283e-16,-7.35295252934871e-16,6.793177346415528e-17,582.9427908602314,582.9427908602314,582.9427908602316,582.9427908602314
0.448,1.7438734349013088e-17,-2.0,0.2216000467218386,-1.2193009985836193e-15,-9.943926564615158e-16,-1.956734496614408e-16,-1.7036918152829097e-23,-2.0,0.2954057597879513,0.0,5.965136762845279e-17,-1.602006870829351e-17,1.1024081020654886,0.0,0.0,0.0,1.7656596120246717,3.623726258262994e-16,-7.788087104465174e-16,7.429614707317632e-17,581.8297021446319,581.8297021446319,581.8297021446322,581.8297021446319
0.452,1.7560938449649687e-17,-2.0,0.226060872459335,-1.5632244565912145e-15,-6.226044343081618e-16,-2.53689483779685e-16,-1.7036918152829097e-23,-2.0,0.299545777204779,0.0,5.145247931172908e-17,-2.280712529105966e-17,1.1097667604321404,0.0,0.0,0.0,1.7216404177238478,3.8684165380511765e-16,-8.19599703951466e-16,7.75498776115618e-17,580.722375625341,580.7223756253411,580.7223756253414,580.7223756253411
0.456,1.7680509201845403e-17,-2.0,0.23054987654607964,-1.9050180392486272e-15,-2.473653758887515e-16,-3.115219049067948e-16,-1.7036918152829097e-23,-2.0,0.30369733076462535,0.0,4.343066117548696e-17,-2.9649604617874405e-17,1.1169453672878167,0.0,0.0,0.0,1.6779318522838498,4.089641677962654e-16,-8.645786561376964e-16,7.973542452463068e-17,579.620770012706,579.6207700127059,579.6207700127063,579.620770012706
0.46,1.7798712506378084e-17,-2.0,0.23506636733052738,-2.2446778694078767e-15,1.309525299512789e-16,-3.7227040650902047e-16,-1.7036918152829097e-23,-2.0,0.30786013257784606,0.0,3.558848704366765e-17,-3.654797081704985e-17,1.1239474055684373,0.0,0.0,0.0,1.6345108505571757,4.3117512532250855e-16,-9.110256141794116e-16,8.553840128470799e-17,578.5243350116857,578.5243350116857,578.5243350116862,578.5243350116857
0.464,1.791682243185371e-17,-2.0,0.23960963239725597,-2.5759178158417566e-15,5.112385721792219e-16,-4.295702880806275e-16,-1.7036918152829097e-23,-2.0,0.3120338978045353,0.0,2.789890430108713e-17,-4.3452514168438916e-17,1.130773778716776,0.0,0.0,0.0,1.591438549020359,4.461367800043705e-16,-9.577974834786957e-16,8.403038609859528e-17,577.4346482303654,577.4346482303654,577.4346482303658,577.4346482303654
0.468,1.8036551618212615e-17,-2.0,0.24417896303546271,-2.8651041765149963e-15,8.491447128016908e-16,-4.841699910955344e-16,-1.7036918152829097e-23,-2.0,0.31621834462818327,0.0,2.0627543660439858e-17,-5.016424510410358e-17,1.1374232393775414,0.0,0.0,0.0,1.5487271323240255,4.214787486942327e-16,-9.593737198470667e-16,8.325905775534444e-17,576.3520570747319,576.3520570747319,576.3520570747323,576.3520570747319
0.47200000000000003,1.8159172284885058e-17,-2.0,0.2487736563371895,-3.100393982979948e-15,1.1328271478763456e-15,-5.360315085120404e-16,-1.7036918152829097e-23,-2.0,0.3204131942295409,0.0,1.4244012692594147e-17,-5.627356837627019e-17,1.143895881592838,0.0,0.0,0.0,1.5063844536856372,3.803174656733962e-16,-9.407980573869444e-16,8.233626493508054e-17,575.2768012158541,575.2768012158541,575.2768012158546,575.2768012158541
0.47600000000000003,1.8285449951401682e-17,-2.0,0.253393015162345,-3.295810216091459e-15,1.3818511699561706e-15,-5.919974452689381e-16,-1.7036918152829097e-23,-2.0,0.32461817076068994,0.0,9.009762839565775e-18,-6.149912945453859e-17,1.1501931563972834,0.0,0.0,0.0,1.4644182969445223,3.520099607371204e-16,-9.367845822077866e-16,8.929789860828023e-17,574.209120078203,574.2091200782029,574.2091200782035,574.2091200782031
0.48000000000000004,1.8416148703864483e-17,-2.0,0.2580363481363679,-3.450230207723797e-15,1.6021169371038164e-15,-6.493818754501652e-16,-1.7036918152829097e-23,-2.0,0.3288330013193178,0.0,4.719047942413253e-18,-6.587052563200726e-17,1.1563165065546168,0.0,0.0,0.0,1.422836311008777,3.1980125659607216e-16,-9.381710911928983e-16,9.329439391191321e-17,573.1492511337913,573.1492511337912,573.1492511337917,573.1492511337913
0.48400000000000004,1.855209418234037e-17,-2.0,0.2627029580180913,-3.558464757321389e-15,1.783635007311808e-15,-7.079071356945419e-16,-1.7036918152829097e-23,-2.0,0.33305741592319466,0.0,1.2347927989698305e-18,-6.941937049709561e-17,1.1622662101593348,0.0,0.0,0.0,1.3816696123757595,2.7883734010562975e-16,-9.27532489315791e-16,9.702878859646952e-17,572.0980331115525,572.0980331115524,572.0980331115529,572.0980331115525
0.48800000000000004,1.8693799107701494e-17,-2.0,0.2673921490109083,-3.6308441240591245e-15,1.9348900796402023e-15,-7.608786024528159e-16,-1.7036918152829097e-23,-2.0,0.3372911474848517,0.0,-1.4292646700757757e-18,-7.210312118903543e-17,1.1680421134079353,0.0,0.0,0.0,1.340934709837482,2.4685369380282812e-16,-9.214334505349797e-16,9.299373634319514e-17,571.055936506248,571.0559365062479,571.0559365062484,571.055936506248
0.49200000000000005,1.8842066034402745e-17,-2.0,0.2721032523479533,-3.6577513162382526e-15,2.02483009973264e-15,-8.089608726922355e-16,-1.7036918152829097e-23,-2.0,0.34153393178645947,0.0,-3.142297621460139e-18,-7.400696461797289e-17,1.173646388868943,0.0,0.0,0.0,1.3005961836004873,2.0123864261096045e-16,-8.810386769382352e-16,8.95106799138613e-17,570.022102749954,570.0221027499539,570.0221027499543,570.022102749954
0.49600000000000005,1.8997351683405423e-17,-2.0,0.2768356044006251,-3.602952318699179e-15,2.0397591475562387e-15,-8.534665122665535e-16,-1.7036918152829097e-23,-2.0,0.3457855074549036,0.0,-3.619405337964178e-18,-7.486921648702517e-17,1.179083160016098,0.0,0.0,0.0,1.2606622238304566,1.1022124766776168e-16,-8.172965808931843e-16,8.736349859094147e-17,568.9967873562811,568.996787356281,568.9967873562813,568.9967873562812
0.5,1.9159722059782237e-17,-2.0,0.28158855451794773,-3.4727032297070664e-15,1.9807610251151134e-15,-8.944579867214835e-16,-1.7036918152829097e-23,-2.0,0.3500456159370581,0.0,-2.555105778750947e-18,-7.429898962722914e-17,1.1843551270705635,0.0,0.0,0.0,1.2211249888920273,2.0883781355899514e-17,-7.456760796931238e-16,8.514552601829421e-17,567.9798345788579,567.9798345788579,567.9798345788582,567.979834578858
0.504,1.932911017124158e-17,-2.0,0.2863614914998719,-3.2669803442750313e-15,1.8385724760233228e-15,-9.27005717056364e-16,-1.7036918152829097e-23,-2.0,0.35431400147525294,0.0,1.1621669417688478e-19,-7.210738089514124e-17,1.1894677935682774,0.0,0.0,0.0,1.1819225371209214,-7.373175328600118e-17,-6.567986109167297e-16,7.702758447582782e-17,566.969691925616,566.9696919256158,566.9696919256162,566.9696919256161
0.508,1.9504884486219103e-17,-2.0,0.29115376600785403,-2.9913032138078246e-15,1.6338615817938194e-15,-9.605092562573603e-16,-1.7036918152829097e-23,-2.0,0.3585904110829363,0.0,4.310981222336671e-18,-6.832735160008355e-17,1.1944223223566308,0.0,0.0,0.0,1.1431491793617758,-1.6720662784106458e-16,-5.7978543751375e-16,7.954535212608265e-17,565.9688324712555,565.9688324712554,565.9688324712557,565.9688324712556
0.512,1.9686075441597047e-17,-2.0,0.2959647280675243,-2.6796491228592688e-15,1.3994992679206345e-15,-9.955144292864062e-16,-1.7036918152829097e-23,-2.0,0.36287459452052856,0.0,9.658122257510025e-18,-6.31569200841694e-17,1.1992163153083157,0.0,0.0,0.0,1.1048243708963614,-2.259812226413248e-16,-5.3241786203014e-16,8.274231721917404e-17,564.9778090779796,564.9778090779794,564.9778090779797,564.9778090779796
0.516,1.987175491162348e-17,-2.0,0.3007937243081379,-2.3530745687892986e-15,1.1528468502429484e-15,-1.0341715429610053e-15,-1.7036918152829097e-23,-2.0,0.36716630427146696,0.0,1.55995579031516e-17,-5.704404719847989e-17,1.203847193860541,0.0,0.0,0.0,1.0669732304047208,-2.6284522882023144e-16,-5.02938245944767e-16,8.851528644207599e-17,563.9973248283997,563.9973248283997,563.9973248283999,563.9973248283999
0.52,2.0061085102703997e-17,-2.0,0.30564010997677993,-2.0137951807966385e-15,8.979689263915438e-16,-1.074854032361681e-15,-1.7036918152829097e-23,-2.0,0.3714652955184403,0.0,2.1702642635664156e-17,-5.042270876533682e-17,1.208315853813241,0.0,0.0,0.0,1.0295966420094147,-2.983702617157776e-16,-4.775874793564884e-16,9.254082984093561e-17,563.0274577441315,563.0274577441314,563.0274577441318,563.0274577441318
0.524,2.0253395565255124e-17,-2.0,0.3105032861537513,-1.6499849644367826e-15,6.208218791926579e-16,-1.1154740562166438e-15,-1.7036918152829097e-23,-2.0,0.37577132611981134,0.0,2.792079708780944e-17,-4.340422360050072e-17,1.2126272172305164,0.0,0.0,0.0,0.9926197256705063,-3.4881053982097486e-16,-4.3645105985917317e-16,9.421345310277309e-17,562.0663147642764,562.0663147642763,562.0663147642766,562.0663147642766
0.528,2.0447833717107508e-17,-2.0,0.31538265188153264,-1.2597910168908244e-15,3.1992279106033626e-16,-1.1465648451138012e-15,-1.7036918152829097e-23,-2.0,0.3800841565862256,0.0,3.4375321162965945e-17,-3.588178419329232e-17,1.2167871315878984,0.0,0.0,0.0,0.9560633345589822,-4.033459762543063e-16,-3.8927618357716135e-16,8.482766348881009e-17,561.1144841414642,561.1144841414641,561.1144841414643,561.1144841414645
0.532,2.0643449610451733e-17,-2.0,0.32027758982060983,-8.443172548137968e-16,-3.25544482716234e-18,-1.1706249283320763e-15,-1.7036918152829097e-23,-2.0,0.38440355005740573,0.0,4.114102734628608e-17,-2.776333567445604e-17,1.220795375550543,0.0,0.0,0.0,0.9199775374463246,-4.586689223349946e-16,-3.4021937713239215e-16,7.797142065912254e-17,560.1733203019496,560.1733203019495,560.1733203019497,560.1733203019497
0.536,2.0839187592918948e-17,-2.0,0.32518748882381693,-3.9727704068939734e-16,-3.431740443305689e-16,-1.1917349708107976e-15,-1.7036918152829097e-23,-2.0,0.3887292722791297,0.0,4.81746129746459e-17,-1.901012819797767e-17,1.2246504832920002,0.0,0.0,0.0,0.8843671489466403,-5.233517277965659e-16,-2.9392013097043517e-16,7.559501606444929e-17,559.2430029858011,559.243002985801,559.2430029858012,559.2430029858014
0.54,2.1034002848827328e-17,-2.0,0.33011174566062185,7.579331600294836e-17,-7.002041680497725e-16,-1.2101434265269187e-15,-1.7036918152829097e-23,-2.0,0.3930610915803909,0.0,5.5382483777726676e-17,-9.585828485744593e-18,1.2283532943926814,0.0,0.0,0.0,0.8492333250369526,-5.84040287138285e-16,-2.450971169735884e-16,7.338918059594575e-17,558.3236166873585,558.3236166873583,558.3236166873586,558.3236166873587
0.544,2.1226933959949952e-17,-2.0,0.3350497649289545,5.623321961032249e-16,-1.0869124599631496e-15,-1.2251066048867347e-15,-1.7036918152829097e-23,-2.0,0.39739877885074004,0.0,6.279531562107804e-17,4.239071019509166e-19,1.231905784513293,0.0,0.0,0.0,0.8145771861201694,-6.321705051441426e-16,-1.8030891079057965e-16,7.020494622088707e-17,557.4152448854429,557.4152448854427,557.4152448854429,557.415244885443
0.548,2.1416774934770974e-17,-2.0,0.3400009639195794,1.0697307808750368e-15,-1.498871556703782e-15,-1.2343981849893396e-15,-1.7036918152829097e-23,-2.0,0.40174210751780626,0.0,7.051648547960226e-17,1.0912789705532209e-17,1.2353104003111295,0.0,0.0,0.0,0.7803897681863583,-6.901923227546614e-16,-1.147509063484267e-16,6.427958743768078e-17,556.5177059887874,556.5177059887873,556.5177059887874,556.5177059887876
0.552,2.160215104069553e-17,-2.0,0.3449647802607145,1.5891219976215663e-15,-1.9227821319098797e-15,-1.2422563149240282e-15,-1.7036918152829097e-23,-2.0,0.4060908535249972,0.0,7.849661185190468e-17,2.1826408886138723e-17,1.2385708353100433,0.0,0.0,0.0,0.7466462247954389,-7.396404394402728e-16,-5.972868193952343e-17,6.307281039970561e-17,555.6303986203867,555.6303986203866,555.6303986203867,555.6303986203869
0.556,2.1781335211253687e-17,-2.0,0.34994063900033284,2.07615904566073e-15,-2.3142984004738345e-15,-1.2422609549596707e-15,-1.7036918152829097e-23,-2.0,0.4104447953093749,0.0,8.62899168222829e-17,3.2902232116257067e-17,1.2416887456537515,0.0,0.0,0.0,0.713387904839472,-7.384860483893686e-16,-5.0094423455855545e-17,5.430809828015266e-17,554.7544617572208,554.7544617572207,554.7544617572208,554.7544617572211
0.56,2.1952915324243856e-17,-2.0,0.3549279624800232,2.519368124092887e-15,-2.6530783485440645e-15,-1.238616997024073e-15,-1.7036918152829097e-23,-2.0,0.4148037137797089,0.0,9.325677256169917e-17,4.359514026617935e-17,1.2446631526960905,0.0,0.0,0.0,0.6806365554539038,-7.220608895165103e-16,-6.832718729081448e-17,5.0132875607634485e-17,553.8905234532215,553.8905234532212,553.8905234532214,553.8905234532216
0.5640000000000001,2.2116045687851965e-17,-2.0,0.3599261777273635,2.9294458843470037e-15,-2.958685867486155e-15,-1.2363069839031847e-15,-1.7036918152829097e-23,-2.0,0.4191673922947029,0.0,9.904684028949115e-17,5.351508661688531e-17,1.2474937674044173,0.0,0.0,0.0,0.6483990431445406,-7.154389148305377e-16,-7.242231207410823e-17,5.1627973227824144e-17,553.0388214896341,553.038821489634,553.0388214896341,553.0388214896343
0.5680000000000001,2.2269814482242308e-17,-2.0,0.36493473675679944,3.307115788854393e-15,-3.231845537263525e-15,-1.2331497280581208e-15,-1.7036918152829097e-23,-2.0,0.42353561664139433,0.0,1.0375897311075487e-16,6.267005866179137e-17,1.2501832013508019,0.0,0.0,0.0,0.6166409197577865,-7.076824408186426e-16,-7.614741564343581e-17,5.062971368908366e-17,552.1985002934681,552.198500293468,552.198500293468,552.1985002934683
