Time_s,X,Y,Z,Roll_deg,Pitch_deg,Yaw_deg,Ref_X,Ref_Y,Ref_Z,Ref_Yaw,vx,vy,vz,p,q,r,T_pert,tau_x,tau_y,tau_z,RPM_0,RPM_1,RPM_2,RPM_3
0.003999999999997783,-0.47603442179515776,-13.403519127543083,0.024999982234362353,179.99999578767287,-4.212328793941821e-06,18.621829472726358,-0.47601728455597314,-13.403180600854492,7.199999999992019e-05,0.0,0.0,0.0,0.0,0.0,0.0,0.0,-10.19,-1.0,0.1997041604505081,-0.2,701.6949093212206,465.35237576862903,0.0,0.0
0.008000000000002672,-0.47603442179515776,-13.403519127543083,0.024999982234362353,179.99999578767287,-4.212328793941821e-06,18.621829472726358,-0.47598321634141466,-13.402507621984531,0.00021513340800014265,0.0,0.0,0.0,0.0,0.0,0.0,0.0,-0.5041740490142987,-1.0,0.2117901320866752,-0.2,879.5176818653771,708.4446944305747,0.0,339.6918905042694
0.012000000000000455,-0.47603442179515776,-13.403519127543083,0.024999982234362353,179.99999578767287,-4.212328793941821e-06,18.621829472726358,-0.47593242154964266,-13.40150422858662,0.0004285414703013444,0.0,0.0,0.0,0.0,0.0,0.0,0.0,-0.357086753216906,-1.0,0.22402048397844615,-0.2,880.7640220757754,712.9537153627446,0.0,348.998131308859
0.015999999999998238,-0.47603442179515776,-13.403519127543083,0.024999982234362353,179.99999578767287,-4.212328793941821e-06,18.621829472726358,-0.47586510272819615,-13.400174421757256,0.0007113732083619225,0.0,0.0,0.0,0.0,0.0,0.0,0.0,-0.2094854310370795,-1.0,0.23639092848749815,-0.2,882.003437304325,717.4616989662754,0.0,358.1172781242321
0.020000000000003126,-0.47603442179515776,-13.403519127543083,0.024999982234362353,179.99999578767287,-4.212328793941821e-06,18.621829472726358,-0.47578146058890863,-13.398522166330658,0.0010627853561309408,0.0,0.0,0.0,0.0,0.0,0.0,0.0,-0.06138128003875054,-1.0,0.24890180830981762,-0.2,883.2357378925865,721.9684787826143,0.0,367.06290981685464
0.02400000000000091,-0.47603442179515776,-13.403519127543083,0.024999982234362353,179.99999578767287,-4.212328793941821e-06,18.621829472726358,-0.47568169402271154,-13.396551391171194,0.001481942297853216,0.0,0.0,0.0,0.0,0.0,0.0,0.0,0.08721461848229883,-1.0,0.26155346564325405,-0.2,884.4607370411553,726.4738947594703,0.0,375.8470635438412
0.027999999999998693,-0.47603442179515776,-13.403519127543083,0.024999982234362353,179.99999578767287,-4.212328793941821e-06,18.621829472726358,-0.47556600011432404,-13.39426598946356,0.0019680160063520243,0.0,0.0,0.0,0.0,0.0,0.0,0.0,0.23629129850372987,-1.0,0.27434624218288994,-0.2,885.6782507585991,730.9777930300811,0.0,384.480466747873
0.03200000000000358,-0.47603442179515776,-13.403519127543083,0.024999982234362353,179.99999578767287,-4.212328793941821e-06,18.621829472726358,-0.4754517113960175,-13.392008345689387,0.00252018598177364,0.0,0.0,0.0,0.0,0.0,0.0,0.0,0.3858379082872927,-1.0,0.08758123753621287,-0.2,906.0815573116885,711.7004831687741,0.0,346.4307624189871
0.036000000000001364,-0.47603442179515776,-13.403519127543083,0.024999982234362353,179.99999578767287,-4.212328793941821e-06,18.621829472726358,-0.47533881511990517,-13.389778208028654,0.003137639190793807,0.0,0.0,0.0,0.0,0.0,0.0,0.0,0.5358437093974021,-1.0,0.08856667600797065,-0.2,908.4056557199673,714.8945776313138,0.0,352.9461042909934
0.03999999999999915,-0.47603442179515776,-13.403519127543083,0.024999982234362353,179.99999578767287,-4.212328793941821e-06,18.621829472726358,-0.4752101614017619,-13.387236800004361,0.003819570006294788,0.0,0.0,0.0,0.0,0.0,0.0,0.0,0.6862980757295287,-1.0,0.28925374783164776,-0.2,891.6374250126801,741.6587876218858,0.0,404.4186601336537
0.044000000000004036,-0.47603442179515776,-13.403519127543083,0.024999982234362353,179.99999578767287,-4.212328793941821e-06,18.621829472726358,-0.4750830812016103,-13.384726475040146,0.004565180147490893,0.0,0.0,0.0,0.0,0.0,0.0,0.0,0.8371904925441185,-1.0,0.1026353242291905,-0.2,911.9151387440778,722.7111583345104,0.0,368.52152418650377
0.04800000000000182,-0.47603442179515776,-13.403519127543083,0.024999982234362353,179.99999578767287,-4.212328793941821e-06,18.621829472726358,-0.4749404229729375,-13.381908423822406,0.005373678620505952,0.0,0.0,0.0,0.0,0.0,0.0,0.0,0.9885105555078343,-1.0,0.30346691829080247,-0.2,895.212876751123,749.2296979989114,0.0,418.14092812241444
0.0519999999999996,-0.47603442179515776,-13.403519127543083,0.024999982234362353,179.99999578767287,-4.212328793941821e-06,18.621829472726358,-0.47478237878778173,-13.378786440516022,0.006244281659414418,0.0,0.0,0.0,0.0,0.0,0.0,0.0,1.1402479697448837,-1.0,0.316692594425381,-0.2,896.4175788603178,753.6987238604378,0.0,426.0967751067667
0.055999999999997385,-0.47603442179515776,-13.403519127543083,0.024999982234362353,179.99999578767287,-4.212328793941821e-06,18.621829472726358,-0.4746091389672115,-13.375364284697456,0.00717621266771617,0.0,0.0,0.0,0.0,0.0,0.0,0.0,1.2923925488930892,-1.0,0.33006073993701,-0.2,897.6136211883564,758.1654508341676,0.0,433.9487829757225
0.055999999999997385,-0.47603442179515776,-13.403519127543083,0.024999982234362353,179.99999578767287,-4.212328793941821e-06,18.621829472726358,-0.4737961945650762,-13.359305491708746,0.013349829815335886,0.0,0.0,0.0,0.0,0.0,0.0,0.0,-0.37272048354289633,-1.0,0.03268714852589448,-0.2,899.0326416487054,689.1111426912502,0.0,297.2723707120706
0.060000000000002274,-0.47603442179515776,-13.403519127543083,0.024999982234362353,179.99999578767287,-4.212328793941821e-06,18.621829472726358,-0.47363563732739433,-13.356133865905063,0.014641255969833837,0.0,0.0,0.0,0.0,0.0,0.0,0.0,2.2482034643887556,-1.0,1.0,-0.2,847.4755818627383,847.4755818627382,0.0,575.9440574058568
0.060000000000002274,-0.47603442179515776,-13.403519127543083,0.024999982234362353,179.99999578767287,-4.212328793941821e-06,18.621829472726358,-0.4728831772163115,-13.341269871363245,0.02249778176559394,0.0,0.0,0.0,0.0,0.0,0.0,0.0,-0.08122594783199318,-1.0,0.04331784333944056,-0.2,902.7471394457012,696.5850670300666,0.0,314.2092471854011
0.06400000000000006,-0.47603442179515776,-13.403519127543083,0.024999982234362353,179.99999578767287,-4.212328793941821e-06,18.621829472726358,-0.47273460454316646,-13.338334987015006,0.024121421342691646,0.0,0.0,0.0,0.0,0.0,0.0,0.0,3.2139671784466493,-1.0,1.0,-0.2,863.978158091411,863.978158091411,0.0,599.962459714407
0.06400000000000006,-0.47603442179515776,-13.403519127543083,0.024999982234362353,179.99999578767287,-4.212328793941821e-06,18.621829472726358,-0.47203928281491114,-13.32459969630475,0.03353081807584667,0.0,0.0,0.0,0.0,0.0,0.0,0.0,0.27061321243257397,-1.0,0.05402901859309323,-0.2,907.4116991561633,705.241780439289,0.0,332.9604545358389
0.06799999999999784,-0.47603442179515776,-13.403519127543083,0.024999982234362353,179.99999578767287,-4.212328793941821e-06,18.621829472726358,-0.47188489382722665,-13.321549917271339,0.03546090776086628,0.0,0.0,0.0,0.0,0.0,0.0,0.0,4.187795987961355,-1.0,1.0,-0.2,880.3053527846093,880.3053527846095,0.0,623.2449033476084
0.06799999999999784,-0.47603442179515776,-13.403519127543083,0.024999982234362353,179.99999578767287,-4.212328793941821e-06,18.621829472726358,-0.47073456918066464,-13.298826560888752,0.04630041446347868,0.0,0.0,0.0,0.0,0.0,0.0,0.0,0.6781050346568782,-1.0,0.06991529391158766,-0.2,912.4556562828533,715.556095258282,0.0,354.2840962685366
0.07200000000000273,-0.47603442179515776,-13.403519127543083,0.024999982234362353,179.99999578767287,-4.212328793941821e-06,18.621829472726358,-0.4705074558251978,-13.294340194599947,0.04851263417299696,0.0,0.0,0.0,0.0,0.0,0.0,0.0,5.167926397726082,-1.0,1.0,-0.2,896.4379836595386,896.4379836595386,0.0,645.831056821452
0.07200000000000273,-0.47603442179515776,-13.403519127543083,0.024999982234362353,179.99999578767287,-4.212328793941821e-06,18.621829472726358,-0.4694449973238781,-13.273352534082237,0.060666405436964485,0.0,0.0,0.0,0.0,0.0,0.0,0.0,1.1368205965525051,-1.0,0.08674338294824376,-0.2,918.1995305763907,726.8668376075403,0.0,376.6060209570747
0.07600000000000051,-0.47603442179515776,-13.403519127543083,0.024999982234362353,179.99999578767287,-4.212328793941821e-06,18.621829472726358,-0.46923529274329845,-13.269210058361304,0.06313780664812735,0.0,0.0,0.0,0.0,0.0,0.0,0.0,6.1527125294705165,-1.0,1.0,-0.2,912.3599935268982,912.3599935268982,0.0,667.7555340062228
0.07600000000000051,-0.47603442179515776,-13.403519127543083,0.024999982234362353,179.99999578767287,-4.212328793941821e-06,18.621829472726358,-0.46782736945110437,-13.241398133420386,0.07649656831461592,0.0,0.0,0.0,0.0,0.0,0.0,0.0,1.642580948964064,-1.0,0.10784166305664836,-0.2,924.2539559946916,739.4335292277882,0.0,400.32316889457763
0.0799999999999983,-0.47603442179515776,-13.403519127543083,0.024999982234362353,179.99999578767287,-4.212328793941821e-06,18.621829472726358,-0.4675323220232668,-13.23556980671926,0.07920550574345321,0.0,0.0,0.0,0.0,0.0,0.0,0.0,7.140619849801596,-1.0,1.0,-0.2,928.0580450666937,928.0580450666937,0.0,689.0489318042278
0.0799999999999983,-0.47603442179515776,-13.403519127543083,0.024999982234362353,179.99999578767287,-4.212328793941821e-06,18.621829472726358,-0.4657248200226083,-13.199864658397908,0.09366622670382643,0.0,0.0,0.0,0.0,0.0,0.0,0.0,2.1914446594085595,-1.0,0.13501209117550905,-0.2,930.3840751745782,753.3229165849631,0.0,425.43167731095133
0.08400000000000318,-0.47603442179515776,-13.403519127543083,0.024999982234362353,179.99999578767287,-4.212328793941821e-06,18.621829472726358,-0.46535089153375686,-13.192478125961898,0.09659229318143846,0.0,0.0,0.0,0.0,0.0,0.0,0.0,8.130219202357855,-1.0,1.0,-0.2,943.5211683276085,943.5211683276085,0.0,709.7386071574729
0.08400000000000318,-0.47603442179515776,-13.403519127543083,0.024999982234362353,179.99999578767287,-4.212328793941821e-06,18.621829472726358,-0.463174611833777,-13.149488193199325,0.11205787256233489,0.0,0.0,0.0,0.0,0.0,0.0,0.0,2.7796959387745046,-1.0,0.1682985862232253,-0.2,936.5263473308294,768.3975004076407,0.0,451.5876593090696
0.08800000000000097,-0.47603442179515776,-13.403519127543083,0.024999982234362353,179.99999578767287,-4.212328793941821e-06,18.621829472726358,-0.46274504191821986,-13.141002527599081,0.11518183696458603,0.0,0.0,0.0,0.0,0.0,0.0,0.0,9.120181130152254,-1.0,1.0,-0.2,958.7404542042422,958.7404542042422,0.0,729.8492679555764
0.08800000000000097,-0.47603442179515776,-13.403519127543083,0.024999982234362353,179.99999578767287,-4.212328793941821e-06,18.621829472726358,-0.46073802375698925,-13.101356164217865,0.13156080600190642,0.0,0.0,0.0,0.0,0.0,0.0,0.0,3.4038333248474983,-1.0,0.20264561124168123,-0.2,943.088219817442,783.9682727861374,0.0,477.6012438664851
0.09199999999999875,-0.47603442179515776,-13.403519127543083,0.024999982234362353,179.99999578767287,-4.212328793941821e-06,18.621829472726358,-0.4603419876386597,-13.09353292068042,0.13486455409466303,0.0,0.0,0.0,0.0,0.0,0.0,0.0,10.109270474705804,-1.0,1.0,-0.2,973.7087878853871,973.7087878853872,0.0,749.4034287436668
0.09199999999999875,-0.47603442179515776,-13.403519127543083,0.024999982234362353,179.99999578767287,-4.212328793941821e-06,18.621829472726358,-0.4584947410732505,-13.057042663640587,0.15207079203194243,0.0,0.0,0.0,0.0,0.0,0.0,0.0,4.060558897492628,-1.0,0.23722627069536292,-0.2,950.0852327620128,799.8569104933704,0.0,503.25716355709596
0.09600000000000364,-0.47603442179515776,-13.403519127543083,0.024999982234362353,179.99999578767287,-4.212328793941821e-06,18.621829472726358,-0.45811321934124655,-13.049506135313615,0.15553727009983995,0.0,0.0,0.0,0.0,0.0,0.0,0.0,10.19,-1.0,1.0,-0.2,974.9203598982722,974.9203598982722,0.0,750.9769660593531
0.09600000000000364,-0.47603442179515776,-13.403519127543083,0.024999982234362353,179.99999578767287,-4.212328793941821e-06,18.621829472726358,-0.45633619628303856,-13.0144030638699,0.17348973347584856,0.0,0.0,0.0,0.0,0.0,0.0,0.0,4.746245852279745,-1.0,0.27297857941691905,-0.2,957.3680421942935,816.0789003850633,0.0,528.6600675871294
0.10000000000000142,-0.47603442179515776,-13.403519127543083,0.024999982234362353,179.99999578767287,-4.212328793941821e-06,18.621829472726358,-0.4559686284236707,-13.007142178442326,0.17710289460854073,0.0,0.0,0.0,0.0,0.0,0.0,0.0,10.19,-1.0,1.0,-0.2,974.9203598982722,974.9203598982722,0.0,750.9769660593531
0.10000000000000142,-0.47603442179515776,-13.403519127543083,0.024999982234362353,179.99999578767287,-4.212328793941821e-06,18.621829472726358,-0.45383068771905943,-12.964909588972112,0.1957253593270556,0.0,0.0,0.0,0.0,0.0,0.0,0.0,5.458408892816536,-1.0,0.31405244172220353,-0.2,964.5218660987653,833.0004736343925,0.0,554.424462377569
0.1039999999999992,-0.47603442179515776,-13.403519127543083,0.024999982234362353,179.99999578767287,-4.212328793941821e-06,18.621829472726358,-0.45340902997025523,-12.95658021923619,0.19947011224249628,0.0,0.0,0.0,0.0,0.0,0.0,0.0,10.19,-1.0,1.0,-0.2,974.9203598982722,974.9203598982722,0.0,750.9769660593531
0.1039999999999992,-0.47603442179515776,-13.403519127543083,0.024999982234362353,179.99999578767287,-4.212328793941821e-06,18.621829472726358,-0.45144760140351675,-12.917834426494817,0.21869092784405897,0.0,0.0,0.0,0.0,0.0,0.0,0.0,6.194297771918154,-1.0,0.3562088986759362,-0.2,971.8840396829651,850.1030634392317,0.0,579.8033406908766
0.10799999999999699,-0.47603442179515776,-13.403519127543083,0.024999982234362353,179.99999578767287,-4.212328793941821e-06,18.621829472726358,-0.45106090824426354,-12.910195742498363,0.22255308813352323,0.0,0.0,0.0,0.0,0.0,0.0,0.0,10.19,-1.0,1.0,-0.2,974.9203598982722,974.9203598982722,0.0,750.9769660593531
0.10799999999999699,-0.47603442179515776,-13.403519127543083,0.024999982234362353,179.99999578767287,-4.212328793941821e-06,18.621829472726358,-0.4492659265579682,-12.874737918761552,0.24230494371469508,0.0,0.0,0.0,0.0,0.0,0.0,0.0,6.951327839587713,-1.0,0.398620215550198,-0.2,979.4840938995825,867.2501558609582,0.0,604.6648065237389
0.11200000000000188,-0.47603442179515776,-13.403519127543083,0.024999982234362353,179.99999578767287,-4.212328793941821e-06,18.621829472726358,-0.4488950646033997,-12.867411962226074,0.24627118739956577,0.0,0.0,0.0,0.0,0.0,0.0,0.0,10.19,-1.0,1.0,-0.2,974.9203598982722,974.9203598982722,0.0,750.9769660593531
0.11200000000000188,-0.47603442179515776,-13.403519127543083,0.024999982234362353,179.99999578767287,-4.212328793941821e-06,18.621829472726358,-0.44674800785878677,-12.824999295743362,0.26649088864977566,0.0,0.0,0.0,0.0,0.0,0.0,0.0,7.727071555374727,-1.0,0.44637426378243855,-0.2,986.836449491009,884.8945757289093,0.0,629.7103346475907
0.11599999999999966,-0.47603442179515776,-13.403519127543083,0.024999982234362353,179.99999578767287,-4.212328793941821e-06,18.621829472726358,-0.4463248037569532,-12.816639379560328,0.2705487079448235,0.0,0.0,0.0,0.0,0.0,0.0,0.0,10.19,-1.0,1.0,-0.2,974.9203598982722,974.9203598982722,0.0,750.9769660593531
0.11599999999999966,-0.47603442179515776,-13.403519127543083,0.024999982234362353,179.99999578767287,-4.212328793941821e-06,18.621829472726358,-0.4443624831345687,-12.77787596527323,0.2911769647944085,0.0,0.0,0.0,0.0,0.0,0.0,0.0,8.519250404158596,-1.0,0.4952312747772286,-0.2,994.2805622369207,902.5656183631575,0.0,654.309858445372
0.11999999999999744,-0.47603442179515776,-13.403519127543083,0.024999982234362353,179.99999578767287,-4.212328793941821e-06,18.621829472726358,-0.44395873153019294,-12.769900311075354,0.29531462597715163,0.0,0.0,0.0,0.0,0.0,0.0,0.0,10.19,-1.0,1.0,-0.2,974.9203598982722,974.9203598982722,0.0,750.9769660593531
0.11999999999999744,-0.47603442179515776,-13.403519127543083,0.024999982234362353,179.99999578767287,-4.212328793941821e-06,18.621829472726358,-0.4416615361312485,-12.724521826065349,0.31629585037267555,0.0,0.0,0.0,0.0,0.0,0.0,0.0,9.325727196976619,-1.0,0.5494604847232363,-0.2,1001.4159302947814,920.6274415356845,0.0,679.0077919406185
0.12400000000000233,-0.47603442179515776,-13.403519127543083,0.024999982234362353,179.99999578767287,-4.212328793941821e-06,18.621829472726358,-0.44119171050511574,-12.715240954641622,0.3205023536626228,0.0,0.0,0.0,0.0,0.0,0.0,0.0,10.19,-1.0,1.0,-0.2,974.9203598982722,974.9203598982722,0.0,750.9769660593531
0.12400000000000233,-0.47603442179515776,-13.403519127543083,0.024999982234362353,179.99999578767287,-4.212328793941821e-06,18.621829472726358,-0.43858645752284,-12.66377714209098,0.3417844670070544,0.0,0.0,0.0,0.0,0.0,0.0,0.0,10.144498739324527,-1.0,0.6099187365108379,-0.2,1008.1468278150596,939.104922475769,0.0,703.8570528351294
0.1280000000000001,-0.47603442179515776,-13.403519127543083,0.024999982234362353,179.99999578767287,-4.212328793941821e-06,18.621829472726358,-0.43807300766025636,-12.653634523442456,0.34604950836309945,0.0,0.0,0.0,0.0,0.0,0.0,0.0,10.19,-1.0,1.0,-0.2,974.9203598982722,974.9203598982722,0.0,750.9769660593531
0.1280000000000001,-0.47603442179515776,-13.403519127543083,0.024999982234362353,179.99999578767287,-4.212328793941821e-06,18.621829472726358,-0.4356939585788335,-12.606639111938053,0.3675837581789956,0.0,0.0,0.0,0.0,0.0,0.0,0.0,10.19,-1.0,0.6715461437608969,-0.2,1003.5291296618952,945.4462978976608,0.0,712.2958638205941
0.1319999999999979,-0.47603442179515776,-13.403519127543083,0.024999982234362353,179.99999578767287,-4.212328793941821e-06,18.621829472726358,-0.43520817349783575,-12.59704297961676,0.37189769292731983,0.0,0.0,0.0,0.0,0.0,0.0,0.0,10.19,-1.0,1.0,-0.2,974.9203598982722,974.9203598982722,0.0,750.9769660593531
0.1319999999999979,-0.47603442179515776,-13.403519127543083,0.024999982234362353,179.99999578767287,-4.212328793941821e-06,18.621829472726358,-0.4325332962609971,-12.544203819024997,0.3936384783208204,0.0,0.0,0.0,0.0,0.0,0.0,0.0,10.19,-1.0,0.7386093811728588,-0.2,997.7544797421768,951.5384461191104,0.0,720.3624850381267
0.13600000000000279,-0.47603442179515776,-13.403519127543083,0.024999982234362353,179.99999578767287,-4.212328793941821e-06,18.621829472726358,-0.43198916932033177,-12.533455209554566,0.39799228652936186,0.0,0.0,0.0,0.0,0.0,0.0,0.0,10.19,-1.0,1.0,-0.2,974.9203598982722,974.9203598982722,0.0,750.9769660593531
0.13600000000000279,-0.47603442179515776,-13.403519127543083,0.024999982234362353,179.99999578767287,-4.212328793941821e-06,18.621829472726358,-0.42904298244681927,-12.475256635355004,0.4198969920516054,0.0,0.0,0.0,0.0,0.0,0.0,0.0,10.19,-1.0,0.811962831091504,-0.2,991.3996797475254,958.1576547128647,0.0,729.0835251823974
0.14000000000000057,-0.47603442179515776,-13.403519127543083,0.024999982234362353,179.99999578767287,-4.212328793941821e-06,18.621829472726358,-0.42846250761243004,-12.463790014542896,0.42428224557108446,0.0,0.0,0.0,0.0,0.0,0.0,0.0,10.19,-1.0,1.0,-0.2,974.9203598982722,974.9203598982722,0.0,750.9769660593531
0.14000000000000057,-0.47603442179515776,-13.403519127543083,0.024999982234362353,179.99999578767287,-4.212328793941821e-06,18.621829472726358,-0.4257770906135637,-12.410742652927658,0.44631108309163336,0.0,0.0,0.0,0.0,0.0,0.0,0.0,10.19,-1.0,0.8865442434973554,-0.2,984.896460952204,964.8411151542915,0.0,737.8448840370928
0.14399999999999835,-0.47603442179515776,-13.403519127543083,0.024999982234362353,179.99999578767287,-4.212328793941821e-06,18.621829472726358,-0.42523112423932596,-12.399957707536988,0.4507199141867001,0.0,0.0,0.0,0.0,0.0,0.0,0.0,10.19,-1.0,1.0,-0.2,974.9203598982722,974.9203598982722,0.0,750.9769660593531
0.14399999999999835,-0.47603442179515776,-13.403519127543083,0.024999982234362353,179.99999578767287,-4.212328793941821e-06,18.621829472726358,-0.4222823742685916,-12.341708502264025,0.47283577241075714,0.0,0.0,0.0,0.0,0.0,0.0,0.0,10.19,-1.0,0.9666180224799481,-0.2,977.8661857611642,971.9656058900775,0.0,747.1370921328962
0.14800000000000324,-0.47603442179515776,-13.403519127543083,0.024999982234362353,179.99999578767287,-4.212328793941821e-06,18.621829472726358,-0.4216844991089001,-12.329898157795991,0.4772608439080294,0.0,0.0,0.0,0.0,0.0,0.0,0.0,10.19,-1.0,1.0,-0.2,974.9203598982722,974.9203598982722,0.0,750.9769660593531
0.14800000000000324,-0.47603442179515776,-13.403519127543083,0.024999982234362353,179.99999578767287,-4.212328793941821e-06,18.621829472726358,-0.4184949698091554,-12.266892630454285,0.49942914518566656,0.0,0.0,0.0,0.0,0.0,0.0,0.0,10.19,-1.0,1.0,-0.2,974.9203598982722,974.9203598982722,0.0,750.9769660593531
0.15200000000000102,-0.47603442179515776,-13.403519127543083,0.024999982234362353,179.99999578767287,-4.212328793941821e-06,18.621829472726358,-0.41786679023979767,-12.254483656805466,0.5038636220688986,0.0,0.0,0.0,0.0,0.0,0.0,0.0,10.19,-1.0,1.0,-0.2,974.9203598982722,974.9203598982722,0.0,750.9769660593531
0.15200000000000102,-0.47603442179515776,-13.403519127543083,0.024999982234362353,179.99999578767287,-4.212328793941821e-06,18.621829472726358,-0.4149666971322146,-12.197195612579646,0.5260521861602383,0.0,0.0,0.0,0.0,0.0,0.0,0.0,10.19,-1.0,1.0,-0.2,974.9203598982722,974.9203598982722,0.0,750.9769660593531
0.1559999999999988,-0.47603442179515776,-13.403519127543083,0.024999982234362353,179.99999578767287,-4.212328793941821e-06,18.621829472726358,-0.4143958371722444,-12.18591892268717,0.5304897085459828,0.0,0.0,0.0,0.0,0.0,0.0,0.0,10.19,-1.0,1.0,-0.2,974.9203598982722,974.9203598982722,0.0,750.9769660593531
0.1559999999999988,-0.47603442179515776,-13.403519127543083,0.024999982234362353,179.99999578767287,-4.212328793941821e-06,18.621829472726358,-0.41176827008654343,-12.134014320376869,0.5526686230213022,0.0,0.0,0.0,0.0,0.0,0.0,0.0,10.19,-1.0,1.0,-0.2,974.9203598982722,974.9203598982722,0.0,750.9769660593531
0.1600000000000037,-0.47603442179515776,-13.403519127543083,0.024999982234362353,179.99999578767287,-4.212328793941821e-06,18.621829472726358,-0.41123423917268515,-12.123465146444806,0.5571032804512019,0.0,0.0,0.0,0.0,0.0,0.0,0.0,10.19,-1.0,1.0,-0.2,974.9203598982722,974.9203598982722,0.0,750.9769660593531
0.1600000000000037,-0.47603442179515776,-13.403519127543083,0.024999982234362353,179.99999578767287,-4.212328793941821e-06,18.621829472726358,-0.4083541830622988,-12.066572910332374,0.5792447774192993,0.0,0.0,0.0,0.0,0.0,0.0,0.0,10.19,-1.0,1.0,-0.2,974.9203598982722,974.9203598982722,0.0,750.9769660593531
0.16400000000000148,-0.47603442179515776,-13.403519127543083,0.024999982234362353,179.99999578767287,-4.212328793941821e-06,18.621829472726358,-0.40778752046348116,-12.055379134540383,0.5836710844082057,0.0,0.0,0.0,0.0,0.0,0.0,0.0,10.19,-1.0,1.0,-0.2,974.9203598982722,974.9203598982722,0.0,750.9769660593531
0.16400000000000148,-0.47603442179515776,-13.403519127543083,0.024999982234362353,179.99999578767287,-4.212328793941821e-06,18.621829472726358,-0.40518562846023526,-12.0039817143117,0.6057494232801103,0.0,0.0,0.0,0.0,0.0,0.0,0.0,10.19,-1.0,1.0,-0.2,974.9203598982722,974.9203598982722,0.0,750.9769660593531
0.16799999999999926,-0.47603442179515776,-13.403519127543083,0.024999982234362353,179.99999578767287,-4.212328793941821e-06,18.621829472726358,-0.4046740451569542,-11.993875967421394,0.610162296061958,0.0,0.0,0.0,0.0,0.0,0.0,0.0,10.19,-1.0,1.0,-0.2,974.9203598982722,974.9203598982722,0.0,750.9769660593531
0.16799999999999926,-0.47603442179515776,-13.403519127543083,0.024999982234362353,179.99999578767287,-4.212328793941821e-06,18.621829472726358,-0.4023338279705063,-11.947647635881038,0.6321536520701985,0.0,0.0,0.0,0.0,0.0,0.0,0.0,10.19,-1.0,1.0,-0.2,974.9203598982722,974.9203598982722,0.0,750.9769660593531
0.17199999999999704,-0.47603442179515776,-13.403519127543083,0.024999982234362353,179.99999578767287,-4.212328793941821e-06,18.621829472726358,-0.40185691703665755,-11.938226802253778,0.6365483864859498,0.0,0.0,0.0,0.0,0.0,0.0,0.0,10.19,-1.0,1.0,-0.2,974.9203598982722,974.9203598982722,0.0,750.9769660593531
0.17199999999999704,-0.47603442179515776,-13.403519127543083,0.024999982234362353,179.99999578767287,-4.212328793941821e-06,18.621829472726358,-0.3992537644222341,-11.886804480083601,0.6584307446921552,0.0,0.0,0.0,0.0,0.0,0.0,0.0,10.19,-1.0,1.0,-0.2,974.9203598982722,974.9203598982722,0.0,750.9769660593531
0.17600000000000193,-0.47603442179515776,-13.403519127543083,0.024999982234362353,179.99999578767287,-4.212328793941821e-06,18.621829472726358,-0.39872500833010416,-11.876359504261478,0.6628029951668979,0.0,0.0,0.0,0.0,0.0,0.0,0.0,10.19,-1.0,1.0,-0.2,974.9203598982722,974.9203598982722,0.0,750.9769660593531
0.17600000000000193,-0.47603442179515776,-13.403519127543083,0.024999982234362353,179.99999578767287,-4.212328793941821e-06,18.621829472726358,-0.39588100218959943,-11.820179394343723,0.6845560497025129,0.0,0.0,0.0,0.0,0.0,0.0,0.0,10.19,-1.0,1.0,-0.2,974.9203598982722,974.9203598982722,0.0,750.9769660593531
0.17999999999999972,-0.47603442179515776,-13.403519127543083,0.024999982234362353,179.99999578767287,-4.212328793941821e-06,18.621829472726358,-0.3953219120993418,-11.809135204854377,0.6889018092609588,0.0,0.0,0.0,0.0,0.0,0.0,0.0,10.19,-1.0,1.0,-0.2,974.9203598982722,974.9203598982722,0.0,750.9769660593531
0.17999999999999972,-0.47603442179515776,-13.403519127543083,0.024999982234362353,179.99999578767287,-4.212328793941821e-06,18.621829472726358,-0.3927668299338557,-11.758662459784837,0.7105068675573306,0.0,0.0,0.0,0.0,0.0,0.0,0.0,10.19,-1.0,1.0,-0.2,974.9203598982722,974.9203598982722,0.0,750.9769660593531
0.1839999999999975,-0.47603442179515776,-13.403519127543083,0.024999982234362353,179.99999578767287,-4.212328793941821e-06,18.621829472726358,-0.3922478060920783,-11.748409733510549,0.7148224488294592,0.0,0.0,0.0,0.0,0.0,0.0,0.0,10.19,-1.0,1.0,-0.2,974.9203598982722,974.9203598982722,0.0,750.9769660593531
0.1839999999999975,-0.47603442179515776,-13.403519127543083,0.024999982234362353,179.99999578767287,-4.212328793941821e-06,18.621829472726358,-0.3894553710102404,-11.69324835126121,0.7362623406045284,0.0,0.0,0.0,0.0,0.0,0.0,0.0,10.19,-1.0,1.0,-0.2,974.9203598982722,974.9203598982722,0.0,750.9769660593531
0.1880000000000024,-0.47603442179515776,-13.403519127543083,0.024999982234362353,179.99999578767287,-4.212328793941821e-06,18.621829472726358,-0.38888956544471215,-11.682071505188082,0.7405443577750256,0.0,0.0,0.0,0.0,0.0,0.0,0.0,10.19,-1.0,1.0,-0.2,974.9203598982722,974.9203598982722,0.0,750.9769660593531
0.1880000000000024,-0.47603442179515776,-13.403519127543083,0.024999982234362353,179.99999578767287,-4.212328793941821e-06,18.621829472726358,-0.3858802786778324,-11.622626464289773,0.7618033485543401,0.0,0.0,0.0,0.0,0.0,0.0,0.0,10.19,-1.0,1.0,-0.2,974.9203598982722,974.9203598982722,0.0,750.9769660593531
0.19200000000000017,-0.47603442179515776,-13.403519127543083,0.024999982234362353,179.99999578767287,-4.212328793941821e-06,18.621829472726358,-0.38528888916184956,-11.610944236344151,0.7660487002117823,0.0,0.0,0.0,0.0,0.0,0.0,0.0,10.19,-1.0,1.0,-0.2,974.9203598982722,974.9203598982722,0.0,750.9769660593531
0.19200000000000017,-0.47603442179515776,-13.403519127543083,0.024999982234362353,179.99999578767287,-4.212328793941821e-06,18.621829472726358,-0.3825910294160984,-11.557651082401776,0.7871124091715812,0.0,0.0,0.0,0.0,0.0,0.0,0.0,10.19,-1.0,1.0,-0.2,974.9203598982722,974.9203598982722,0.0,750.9769660593531
0.19599999999999795,-0.47603442179515776,-13.403519127543083,0.024999982234362353,179.99999578767287,-4.212328793941821e-06,18.621829472726358,-0.38206129629246394,-11.547186806432393,0.791318262015305,0.0,0.0,0.0,0.0,0.0,0.0,0.0,10.19,-1.0,1.0,-0.2,974.9203598982722,974.9203598982722,0.0,750.9769660593531
0.19599999999999795,-0.47603442179515776,-13.403519127543083,0.024999982234362353,179.99999578767287,-4.212328793941821e-06,18.621829472726358,-0.3796561264243329,-11.499675408465267,0.8121735839450038,0.0,0.0,0.0,0.0,0.0,0.0,0.0,10.19,-1.0,1.0,-0.2,974.9203598982722,974.9203598982722,0.0,750.9769660593531
0.20000000000000284,-0.47603442179515776,-13.403519127543083,0.024999982234362353,179.99999578767287,-4.212328793941821e-06,18.621829472726358,-0.3791671972378383,-11.490017167912246,0.8163373573092954,0.0,0.0,0.0,0.0,0.0,0.0,0.0,10.19,-1.0,1.0,-0.2,974.9203598982722,974.9203598982722,0.0,750.9769660593531
0.20000000000000284,-0.47603442179515776,-13.403519127543083,0.024999982234362353,179.99999578767287,-4.212328793941821e-06,18.621829472726358,-0.3765279795838026,-11.437882421861982,0.8369723884998634,0.0,0.0,0.0,0.0,0.0,0.0,0.0,10.19,-1.0,1.0,-0.2,974.9203598982722,974.9203598982722,0.0,750.9769660593531
0.20400000000000063,-0.47603442179515776,-13.403519127543083,0.024999982234362353,179.99999578767287,-4.212328793941821e-06,18.621829472726358,-0.3759929151681004,-11.427312832275268,0.8410917396571315,0.0,0.0,0.0,0.0,0.0,0.0,0.0,10.19,-1.0,1.0,-0.2,974.9203598982722,974.9203598982722,0.0,750.9769660593531
0.20400000000000063,-0.47603442179515776,-13.403519127543083,0.024999982234362353,179.99999578767287,-4.212328793941821e-06,18.621829472726358,-0.37313971879064745,-11.37095117966864,0.8614957075306102,0.0,0.0,0.0,0.0,0.0,0.0,0.0,10.19,-1.0,1.0,-0.2,974.9203598982722,974.9203598982722,0.0,750.9769660593531
0.2079999999999984,-0.47603442179515776,-13.403519127543083,0.024999982234362353,179.99999578767287,-4.212328793941821e-06,18.621829472726358,-0.3725796313957712,-11.359887289559701,0.8655685177369363,0.0,0.0,0.0,0.0,0.0,0.0,0.0,10.19,-1.0,1.0,-0.2,974.9203598982722,974.9203598982722,0.0,750.9769660593531
0.2079999999999984,-0.47603442179515776,-13.403519127543083,0.024999982234362353,179.99999578767287,-4.212328793941821e-06,18.621829472726358,-0.3700403299512109,-11.30972627470184,0.8857317140407162,0.0,0.0,0.0,0.0,0.0,0.0,0.0,10.19,-1.0,1.0,-0.2,974.9203598982722,974.9203598982722,0.0,750.9769660593531
0.2120000000000033,-0.47603442179515776,-13.403519127543083,0.024999982234362353,179.99999578767287,-4.212328793941821e-06,18.621829472726358,-0.3695423797730715,-11.299889834708617,0.8897560752886425,0.0,0.0,0.0,0.0,0.0,0.0,0.0,10.19,-1.0,1.0,-0.2,974.9203598982722,974.9203598982722,0.0,750.9769660593531
0.2120000000000033,-0.47603442179515776,-13.403519127543083,0.024999982234362353,179.99999578767287,-4.212328793941821e-06,18.621829472726358,-0.3672978567736394,-11.255551833104077,0.9096697926861135,0.0,0.0,0.0,0.0,0.0,0.0,0.0,10.19,-1.0,1.0,-0.2,974.9203598982722,974.9203598982722,0.0,750.9769660593531
0.21600000000000108,-0.47603442179515776,-13.403519127543083,0.024999982234362353,179.99999578767287,-4.212328793941821e-06,18.621829472726358,-0.36684111630610805,-11.246529444121032,0.9136439951313148,0.0,0.0,0.0,0.0,0.0,0.0,0.0,10.19,-1.0,1.0,-0.2,974.9203598982722,974.9203598982722,0.0,750.9769660593531
0.21600000000000108,-0.47603442179515776,-13.403519127543083,0.024999982234362353,179.99999578767287,-4.212328793941821e-06,18.621829472726358,-0.36436427910403385,-11.197602339400992,0.9333004670281533,0.0,0.0,0.0,0.0,0.0,0.0,0.0,10.19,-1.0,1.0,-0.2,974.9203598982722,974.9203598982722,0.0,750.9769660593531
0.21999999999999886,-0.47603442179515776,-13.403519127543083,0.024999982234362353,179.99999578767287,-4.212328793941821e-06,18.621829472726358,-0.36386173895885654,-11.1876752298241,0.9372229870581534,0.0,0.0,0.0,0.0,0.0,0.0,0.0,10.19,-1.0,1.0,-0.2,974.9203598982722,974.9203598982722,0.0,750.9769660593531
0.21999999999999886,-0.47603442179515776,-13.403519127543083,0.024999982234362353,179.99999578767287,-4.212328793941821e-06,18.621829472726358,-0.3611723247114588,-11.134548907105838,0.9566153305108118,0.0,0.0,0.0,0.0,0.0,0.0,0.0,10.19,-1.0,1.0,-0.2,974.9203598982722,974.9203598982722,0.0,750.9769660593531
0.22400000000000375,-0.47603442179515776,-13.403519127543083,0.024999982234362353,179.99999578767287,-4.212328793941821e-06,18.621829472726358,-0.36062789425248276,-11.12379430197604,0.9604848194251634,0.0,0.0,0.0,0.0,0.0,0.0,0.0,10.19,-1.0,1.0,-0.2,974.9203598982722,974.9203598982722,0.0,750.9769660593531
0.22400000000000375,-0.47603442179515776,-13.403519127543083,0.024999982234362353,179.99999578767287,-4.212328793941821e-06,18.621829472726358,-0.35774450599047114,-11.066836242994274,0.9796069809851111,0.0,0.0,0.0,0.0,0.0,0.0,0.0,10.19,-1.0,1.0,-0.2,974.9203598982722,974.9203598982722,0.0,750.9769660593531
0.22800000000000153,-0.47603442179515776,-13.403519127543083,0.024999982234362353,179.99999578767287,-4.212328793941821e-06,18.621829472726358,-0.35717900690686694,-11.055665451123327,0.9834222542580392,0.0,0.0,0.0,0.0,0.0,0.0,0.0,10.19,-1.0,1.0,-0.2,974.9203598982722,974.9203598982722,0.0,750.9769660593531
0.22800000000000153,-0.47603442179515776,-13.403519127543083,0.024999982234362353,179.99999578767287,-4.212328793941821e-06,18.621829472726358,-0.35462813108732505,-11.005275797638623,1.002268958611979,0.0,0.0,0.0,0.0,0.0,0.0,0.0,10.19,-1.0,1.0,-0.2,974.9203598982722,974.9203598982722,0.0,750.9769660593531
0.23199999999999932,-0.47603442179515776,-13.403519127543083,0.024999982234362353,179.99999578767287,-4.212328793941821e-06,18.621829472726358,-0.35412844865184934,-10.995405138869927,1.0060289857098055,0.0,0.0,0.0,0.0,0.0,0.0,0.0,10.19,-1.0,1.0,-0.2,974.9203598982722,974.9203598982722,0.0,750.9769660593531
0.23199999999999932,-0.47603442179515776,-13.403519127543083,0.024999982234362353,179.99999578767287,-4.212328793941821e-06,18.621829472726358,-0.3518896565809411,-10.951180345246838,1.0245956869824604,0.0,0.0,0.0,0.0,0.0,0.0,0.0,10.19,-1.0,1.0,-0.2,974.9203598982722,974.9203598982722,0.0,750.9769660593531
0.2359999999999971,-0.47603442179515776,-13.403519127543083,0.024999982234362353,179.99999578767287,-4.212328793941821e-06,18.621829472726358,-0.351434603240093,-10.942191283534491,1.0282995817092035,0.0,0.0,0.0,0.0,0.0,0.0,0.0,10.19,-1.0,1.0,-0.2,974.9203598982722,974.9203598982722,0.0,750.9769660593531
0.2359999999999971,-0.47603442179515776,-13.403519127543083,0.024999982234362353,179.99999578767287,-4.212328793941821e-06,18.621829472726358,-0.3489795613951896,-10.89369472133126,1.046582417301368,0.0,0.0,0.0,0.0,0.0,0.0,0.0,10.19,-1.0,1.0,-0.2,974.9203598982722,974.9203598982722,0.0,750.9769660593531
0.240000000000002,-0.47603442179515776,-13.403519127543083,0.024999982234362353,179.99999578767287,-4.212328793941821e-06,18.621829472726358,-0.34848188186242585,-10.883863627629921,1.0502294286473612,0.0,0.0,0.0,0.0,0.0,0.0,0.0,10.19,-1.0,1.0,-0.2,974.9203598982722,974.9203598982722,0.0,750.9769660593531
0.240000000000002,-0.47603442179515776,-13.403519127543083,0.024999982234362353,179.99999578767287,-4.212328793941821e-06,18.621829472726358,-0.34582915436476286,-10.831462009968819,1.068225175487726,0.0,0.0,0.0,0.0,0.0,0.0,0.0,10.19,-1.0,1.0,-0.2,974.9203598982722,974.9203598982722,0.0,750.9769660593531
0.24399999999999977,-0.47603442179515776,-13.403519127543083,0.024999982234362353,179.99999578767287,-4.212328793941821e-06,18.621829472726358,-0.3453096628008524,-10.821200044375223,1.0718146789570626,0.0,0.0,0.0,0.0,0.0,0.0,0.0,10.19,-1.0,1.0,-0.2,974.9203598982722,974.9203598982722,0.0,750.9769660593531
0.24399999999999977,-0.47603442179515776,-13.403519127543083,0.024999982234362353,179.99999578767287,-4.212328793941821e-06,18.621829472726358,-0.3429857047335669,-10.775292893260149,1.0895207120518924,0.0,0.0,0.0,0.0,0.0,0.0,0.0,10.19,-1.0,1.0,-0.2,974.9203598982722,974.9203598982722,0.0,750.9769660593531
0.24799999999999756,-0.47603442179515776,-13.403519127543083,0.024999982234362353,179.99999578767287,-4.212328793941821e-06,18.621829472726358,-0.34253128037328573,-10.766316256344249,1.0930522014457948,0.0,0.0,0.0,0.0,0.0,0.0,0.0,10.19,-1.0,1.0,-0.2,974.9203598982722,974.9203598982722,0.0,750.9769660593531
0.24799999999999756,-0.47603442179515776,-13.403519127543083,0.024999982234362353,179.99999578767287,-4.212328793941821e-06,18.621829472726358,-0.34051563870724283,-10.726499545423575,1.110466454615845,0.0,0.0,0.0,0.0,0.0,0.0,0.0,10.19,-1.0,1.0,-0.2,974.9203598982722,974.9203598982722,0.0,750.9769660593531
0.25200000000000244,-0.47603442179515776,-13.403519127543083,0.024999982234362353,179.99999578767287,-4.212328793941821e-06,18.621829472726358,-0.34012222659022345,-10.718728136050597,1.1139395342498848,0.0,0.0,0.0,0.0,0.0,0.0,0.0,10.19,-1.0,1.0,-0.2,974.9203598982722,974.9203598982722,0.0,750.9769660593531
0.25200000000000244,-0.47603442179515776,-13.403519127543083,0.024999982234362353,179.99999578767287,-4.212328793941821e-06,18.621829472726358,-0.33839551061591905,-10.68461882388999,1.1310604629490277,0.0,0.0,0.0,0.0,0.0,0.0,0.0,10.19,-1.0,1.0,-0.2,974.9203598982722,974.9203598982722,0.0,750.9769660593531
0.2560000000000002,-0.47603442179515776,-13.403519127543083,0.024999982234362353,179.99999578767287,-4.212328793941821e-06,18.621829472726358,-0.3380421293010145,-10.677638177529397,1.1344748402833102,0.0,0.0,0.0,0.0,0.0,0.0,0.0,10.19,-1.0,1.0,-0.2,974.9203598982722,974.9203598982722,0.0,750.9769660593531
0.2560000000000002,-0.47603442179515776,-13.403519127543083,0.024999982234362353,179.99999578767287,-4.212328793941821e-06,18.621829472726358,-0.33607699920459144,-10.638819265274819,1.1513013863981922,0.0,0.0,0.0,0.0,0.0,0.0,0.0,10.19,-1.0,1.0,-0.2,974.9203598982722,974.9203598982722,0.0,750.9769660593531
0.259999999999998,-0.47603442179515776,-13.403519127543083,0.024999982234362353,179.99999578767287,-4.212328793941821e-06,18.621829472726358,-0.3356765907255671,-10.630909650719769,1.1546568650605809,0.0,0.0,0.0,0.0,0.0,0.0,0.0,10.19,-1.0,1.0,-0.2,974.9203598982722,974.9203598982722,0.0,750.9769660593531
0.259999999999998,-0.47603442179515776,-13.403519127543083,0.024999982234362353,179.99999578767287,-4.212328793941821e-06,18.621829472726358,-0.33349256194249866,-10.587766643625365,1.171188423595261,0.0,0.0,0.0,0.0,0.0,0.0,0.0,10.19,-1.0,1.0,-0.2,974.9203598982722,974.9203598982722,0.0,750.9769660593531
0.2640000000000029,-0.47603442179515776,-13.403519127543083,0.024999982234362353,179.99999578767287,-4.212328793941821e-06,18.621829472726358,-0.33306612936191854,-10.579342952512922,1.1744848967784685,0.0,0.0,0.0,0.0,0.0,0.0,0.0,10.19,-1.0,1.0,-0.2,974.9203598982722,974.9203598982722,0.0,750.9769660593531
0.2640000000000029,-0.47603442179515776,-13.403519127543083,0.024999982234362353,179.99999578767287,-4.212328793941821e-06,18.621829472726358,-0.3311905676963842,-10.542293362842015,1.1907212843324237,0.0,0.0,0.0,0.0,0.0,0.0,0.0,10.19,-1.0,1.0,-0.2,974.9203598982722,974.9203598982722,0.0,750.9769660593531
0.2680000000000007,-0.47603442179515776,-13.403519127543083,0.024999982234362353,179.99999578767287,-4.212328793941821e-06,18.621829472726358,-0.3308251710900224,-10.535075368050578,1.1939587285468476,0.0,0.0,0.0,0.0,0.0,0.0,0.0,10.19,-1.0,1.0,-0.2,974.9203598982722,974.9203598982722,0.0,750.9769660593531
0.2680000000000007,-0.47603442179515776,-13.403519127543083,0.024999982234362353,179.99999578767287,-4.212328793941821e-06,18.621829472726358,-0.3292384953657555,-10.503732391914342,1.2099001534989557,0.0,0.0,0.0,0.0,0.0,0.0,0.0,10.19,-1.0,1.0,-0.2,974.9203598982722,974.9203598982722,0.0,750.9769660593531
0.27199999999999847,-0.47603442179515776,-13.403519127543083,0.024999982234362353,179.99999578767287,-4.212328793941821e-06,18.621829472726358,-0.32891311565680736,-10.497304885463716,1.2130786226639645,0.0,0.0,0.0,0.0,0.0,0.0,0.0,10.19,-1.0,1.0,-0.2,974.9203598982722,974.9203598982722,0.0,750.9769660593531
0.27199999999999847,-0.47603442179515776,-13.403519127543083,0.024999982234362353,179.99999578767287,-4.212328793941821e-06,18.621829472726358,-0.3270878092206592,-10.461248030748843,1.2287256569791167,0.0,0.0,0.0,0.0,0.0,0.0,0.0,10.19,-1.0,1.0,-0.2,974.9203598982722,974.9203598982722,0.0,750.9769660593531
0.27600000000000335,-0.47603442179515776,-13.403519127543083,0.024999982234362353,179.99999578767287,-4.212328793941821e-06,18.621829472726358,-0.32671535350774394,-10.453890591328069,1.2318452768361434,0.0,0.0,0.0,0.0,0.0,0.0,0.0,10.19,-1.0,1.0,-0.2,974.9203598982722,974.9203598982722,0.0,750.9769660593531
0.27600000000000335,-0.47603442179515776,-13.403519127543083,0.024999982234362353,179.99999578767287,-4.212328793941821e-06,18.621829472726358,-0.32467076783888726,-10.413502124518272,1.2471988294149983,0.0,0.0,0.0,0.0,0.0,0.0,0.0,10.19,-1.0,1.0,-0.2,974.9203598982722,974.9203598982722,0.0,750.9769660593531
0.28000000000000114,-0.47603442179515776,-13.403519127543083,0.024999982234362353,179.99999578767287,-4.212328793941821e-06,18.621829472726358,-0.3242722068022638,-10.40562900408877,1.2502597922467193,0.0,0.0,0.0,0.0,0.0,0.0,0.0,10.19,-1.0,1.0,-0.2,974.9203598982722,974.9203598982722,0.0,750.9769660593531
0.28000000000000114,-0.47603442179515776,-13.403519127543083,0.024999982234362353,179.99999578767287,-4.212328793941821e-06,18.621829472726358,-0.32253555592362626,-10.371323439181197,1.2653210837427944,0.0,0.0,0.0,0.0,0.0,0.0,0.0,10.19,-1.0,1.0,-0.2,974.9203598982722,974.9203598982722,0.0,750.9769660593531
0.2839999999999989,-0.47603442179515776,-13.403519127543083,0.024999982234362353,179.99999578767287,-4.212328793941821e-06,18.621829472726358,-0.32219791966917904,-10.364653818600244,1.2683236433834024,0.0,0.0,0.0,0.0,0.0,0.0,0.0,10.19,-1.0,1.0,-0.2,974.9203598982722,974.9203598982722,0.0,750.9769660593531
0.2839999999999989,-0.47603442179515776,-13.403519127543083,0.024999982234362353,179.99999578767287,-4.212328793941821e-06,18.621829472726358,-0.32074948212518956,-10.336041580647802,1.2830941824152229,0.0,0.0,0.0,0.0,0.0,0.0,0.0,10.19,-1.0,1.0,-0.2,974.9203598982722,974.9203598982722,0.0,750.9769660593531
0.2880000000000038,-0.47603442179515776,-13.403519127543083,0.024999982234362353,179.99999578767287,-4.212328793941821e-06,18.621829472726358,-0.32045172388514037,-10.330159704931487,1.2860386495373473,0.0,0.0,0.0,0.0,0.0,0.0,0.0,10.19,-1.0,1.0,-0.2,974.9203598982722,974.9203598982722,0.0,750.9769660593531
0.2880000000000038,-0.47603442179515776,-13.403519127543083,0.024999982234362353,179.99999578767287,-4.212328793941821e-06,18.621829472726358,-0.3187638536054142,-10.29681774533041,1.3005202102267313,0.0,0.0,0.0,0.0,0.0,0.0,0.0,10.19,-1.0,1.0,-0.2,974.9203598982722,974.9203598982722,0.0,750.9769660593531
0.2920000000000016,-0.47603442179515776,-13.403519127543083,0.024999982234362353,179.99999578767287,-4.212328793941821e-06,18.621829472726358,-0.3184188549394107,-10.29000268867441,1.3034069478913837,0.0,0.0,0.0,0.0,0.0,0.0,0.0,10.19,-1.0,1.0,-0.2,974.9203598982722,974.9203598982722,0.0,750.9769660593531
0.2920000000000016,-0.47603442179515776,-13.403519127543083,0.024999982234362353,179.99999578767287,-4.212328793941821e-06,18.621829472726358,-0.31651078423974793,-10.25231091997138,1.3176015486621557,0.0,0.0,0.0,0.0,0.0,0.0,0.0,10.19,-1.0,1.0,-0.2,974.9203598982722,974.9203598982722,0.0,750.9769660593531
0.2959999999999994,-0.47603442179515776,-13.403519127543083,0.024999982234362353,179.99999578767287,-4.212328793941821e-06,18.621829472726358,-0.3161223550812622,-10.244637943282548,1.320430968118707,0.0,0.0,0.0,0.0,0.0,0.0,0.0,10.19,-1.0,1.0,-0.2,974.9203598982722,974.9203598982722,0.0,750.9769660593531
0.2959999999999994,-0.47603442179515776,-13.403519127543083,0.024999982234362353,179.99999578767287,-4.212328793941821e-06,18.621829472726358,-0.31444065889642053,-10.211417945910847,1.334340851693198,0.0,0.0,0.0,0.0,0.0,0.0,0.0,10.19,-1.0,1.0,-0.2,974.9203598982722,974.9203598982722,0.0,750.9769660593531
0.29999999999999716,-0.47603442179515776,-13.403519127543083,0.024999982234362353,179.99999578767287,-4.212328793941821e-06,18.621829472726358,-0.31411417310576034,-10.204968590072742,1.337113408416855,0.0,0.0,0.0,0.0,0.0,0.0,0.0,10.19,-1.0,1.0,-0.2,974.9203598982722,974.9203598982722,0.0,750.9769660593531
0.29999999999999716,-0.47603442179515776,-13.403519127543083,0.024999982234362353,179.99999578767287,-4.212328793941821e-06,18.621829472726358,-0.3127254181134771,-10.17753531311735,1.3507410229504746,0.0,0.0,0.0,0.0,0.0,0.0,0.0,10.19,-1.0,1.0,-0.2,974.9203598982722,974.9203598982722,0.0,750.9769660593531
0.30400000000000205,-0.47603442179515776,-13.403519127543083,0.024999982234362353,179.99999578767287,-4.212328793941821e-06,18.621829472726358,-0.31245687925113413,-10.172230633008278,1.353457212905495,0.0,0.0,0.0,0.0,0.0,0.0,0.0,10.19,-1.0,1.0,-0.2,974.9203598982722,974.9203598982722,0.0,750.9769660593531
0.30400000000000205,-0.47603442179515776,-13.403519127543083,0.024999982234362353,179.99999578767287,-4.212328793941821e-06,18.621829472726358,-0.3113419663864135,-10.150206796140749,1.36680519420246,0.0,0.0,0.0,0.0,0.0,0.0,0.0,10.19,-1.0,1.0,-0.2,974.9203598982722,974.9203598982722,0.0,750.9769660593531
0.30799999999999983,-0.47603442179515776,-13.403519127543083,0.024999982234362353,179.99999578767287,-4.212328793941821e-06,18.621829472726358,-0.3111104512935549,-10.145633478531067,1.3694655503197475,0.0,0.0,0.0,0.0,0.0,0.0,0.0,10.19,-1.0,1.0,-0.2,974.9203598982722,974.9203598982722,0.0,750.9769660593531
0.30799999999999983,-0.47603442179515776,-13.403519127543083,0.024999982234362353,179.99999578767287,-4.212328793941821e-06,18.621829472726358,-0.30974233095095477,-10.118607815634872,1.382536705075718,0.0,0.0,0.0,0.0,0.0,0.0,0.0,10.19,-1.0,1.0,-0.2,974.9203598982722,974.9203598982722,0.0,750.9769660593531
0.3119999999999976,-0.47603442179515776,-13.403519127543083,0.024999982234362353,179.99999578767287,-4.212328793941821e-06,18.621829472726358,-0.3094608396473429,-10.113047274765224,1.3851417939341137,0.0,0.0,0.0,0.0,0.0,0.0,0.0,10.19,-1.0,1.0,-0.2,974.9203598982722,974.9203598982722,0.0,750.9769660593531
0.3119999999999976,-0.47603442179515776,-13.403519127543083,0.024999982234362353,179.99999578767287,-4.212328793941821e-06,18.621829472726358,-0.3078593157646838,-10.081410990130575,1.397939083954039,0.0,0.0,0.0,0.0,0.0,0.0,0.0,10.19,-1.0,1.0,-0.2,974.9203598982722,974.9203598982722,0.0,750.9769660593531
0.3160000000000025,-0.47603442179515776,-13.403519127543083,0.024999982234362353,179.99999578767287,-4.212328793941821e-06,18.621829472726358,-0.3075489089492871,-10.075279256179709,1.400489502654957,0.0,0.0,0.0,0.0,0.0,0.0,0.0,10.19,-1.0,1.0,-0.2,974.9203598982722,974.9203598982722,0.0,750.9769660593531
0.3160000000000025,-0.47603442179515776,-13.403519127543083,0.024999982234362353,179.99999578767287,-4.212328793941821e-06,18.621829472726358,-0.30624163387848563,-10.049455522494897,1.4130160299968677,0.0,0.0,0.0,0.0,0.0,0.0,0.0,10.19,-1.0,1.0,-0.2,974.9203598982722,974.9203598982722,0.0,750.9769660593531
0.3200000000000003,-0.47603442179515776,-13.403519127543083,0.024999982234362353,179.99999578767287,-4.212328793941821e-06,18.621829472726358,-0.3059894288648604,-10.044473499008562,1.415512403222548,0.0,0.0,0.0,0.0,0.0,0.0,0.0,10.19,-1.0,1.0,-0.2,974.9203598982722,974.9203598982722,0.0,750.9769660593531
0.3200000000000003,-0.47603442179515776,-13.403519127543083,0.024999982234362353,179.99999578767287,-4.212328793941821e-06,18.621829472726358,-0.3045286748148428,-10.01561796247367,1.4277713962203513,0.0,0.0,0.0,0.0,0.0,0.0,0.0,10.19,-1.0,1.0,-0.2,974.9203598982722,974.9203598982722,0.0,750.9769660593531
0.32399999999999807,-0.47603442179515776,-13.403519127543083,0.024999982234362353,179.99999578767287,-4.212328793941821e-06,18.621829472726358,-0.30422906678226613,-10.00969954620773,1.430214373466452,0.0,0.0,0.0,0.0,0.0,0.0,0.0,10.19,-1.0,1.0,-0.2,974.9203598982722,974.9203598982722,0.0,750.9769660593531
0.32399999999999807,-0.47603442179515776,-13.403519127543083,0.024999982234362353,179.99999578767287,-4.212328793941821e-06,18.621829472726358,-0.30254710286905107,-9.976474260166206,1.442209173587012,0.0,0.0,0.0,0.0,0.0,0.0,0.0,10.19,-1.0,1.0,-0.2,974.9203598982722,974.9203598982722,0.0,750.9769660593531
0.32800000000000296,-0.47603442179515776,-13.403519127543083,0.024999982234362353,179.99999578767287,-4.212328793941821e-06,18.621829472726358,-0.30220385510409603,-9.969693790571027,1.4445994265605884,0.0,0.0,0.0,0.0,0.0,0.0,0.0,10.19,-1.0,1.0,-0.2,974.9203598982722,974.9203598982722,0.0,750.9769660593531
0.32800000000000296,-0.47603442179515776,-13.403519127543083,0.024999982234362353,179.99999578767287,-4.212328793941821e-06,18.621829472726358,-0.30031860713921577,-9.93245285906221,1.456333476052479,0.0,0.0,0.0,0.0,0.0,0.0,0.0,10.19,-1.0,1.0,-0.2,974.9203598982722,974.9203598982722,0.0,750.9769660593531
0.33200000000000074,-0.47603442179515776,-13.403519127543083,0.024999982234362353,179.99999578767287,-4.212328793941821e-06,18.621829472726358,-0.2999524079106832,-9.925219009381737,1.4586716962269375,0.0,0.0,0.0,0.0,0.0,0.0,0.0,10.19,-1.0,1.0,-0.2,974.9203598982722,974.9203598982722,0.0,750.9769660593531
0.33200000000000074,-0.47603442179515776,-13.403519127543083,0.024999982234362353,179.99999578767287,-4.212328793941821e-06,18.621829472726358,-0.2983897453490754,-9.894350385989839,1.470148526520294,0.0,0.0,0.0,0.0,0.0,0.0,0.0,10.19,-1.0,1.0,-0.2,974.9203598982722,974.9203598982722,0.0,750.9769660593531
0.3359999999999985,-0.47603442179515776,-13.403519127543083,0.024999982234362353,179.99999578767287,-4.212328793941821e-06,18.621829472726358,-0.2980873584352539,-9.888377076082298,1.4724354228393053,0.0,0.0,0.0,0.0,0.0,0.0,0.0,10.19,-1.0,1.0,-0.2,974.9203598982722,974.9203598982722,0.0,750.9769660593531
0.3359999999999985,-0.47603442179515776,-13.403519127543083,0.024999982234362353,179.99999578767287,-4.212328793941821e-06,18.621829472726358,-0.29682629229731605,-9.86346614736316,1.4836586436581087,0.0,0.0,0.0,0.0,0.0,0.0,0.0,10.19,-1.0,1.0,-0.2,974.9203598982722,974.9203598982722,0.0,750.9769660593531
0.3400000000000034,-0.47603442179515776,-13.403519127543083,0.024999982234362353,179.99999578767287,-4.212328793941821e-06,18.621829472726358,-0.29658355712112117,-9.85867118975554,1.4858949403807353,0.0,0.0,0.0,0.0,0.0,0.0,0.0,10.19,-1.0,1.0,-0.2,974.9203598982722,974.9203598982722,0.0,750.9769660593531
0.3400000000000034,-0.47603442179515776,-13.403519127543083,0.024999982234362353,179.99999578767287,-4.212328793941821e-06,18.621829472726358,-0.2951757765915976,-9.83086208492897,1.4968682295307247,0.0,0.0,0.0,0.0,0.0,0.0,0.0,10.19,-1.0,1.0,-0.2,974.9203598982722,974.9203598982722,0.0,750.9769660593531
0.3440000000000012,-0.47603442179515776,-13.403519127543083,0.024999982234362353,179.99999578767287,-4.212328793941821e-06,18.621829472726358,-0.2948869728310066,-9.825157094780186,1.4990546642104983,0.0,0.0,0.0,0.0,0.0,0.0,0.0,10.19,-1.0,1.0,-0.2,974.9203598982722,974.9203598982722,0.0,750.9769660593531
0.3440000000000012,-0.47603442179515776,-13.403519127543083,0.024999982234362353,179.99999578767287,-4.212328793941821e-06,18.621829472726358,-0.29326419688068034,-9.793100999695582,1.5097817580076505,0.0,0.0,0.0,0.0,0.0,0.0,0.0,10.19,-1.0,1.0,-0.2,974.9203598982722,974.9203598982722,0.0,750.9769660593531
0.347999999999999,-0.47603442179515776,-13.403519127543083,0.024999982234362353,179.99999578767287,-4.212328793941821e-06,18.621829472726358,-0.29293297884180836,-9.786558163670879,1.5119190795986783,0.0,0.0,0.0,0.0,0.0,0.0,0.0,10.19,-1.0,1.0,-0.2,974.9203598982722,974.9203598982722,0.0,750.9769660593531
0.347999999999999,-0.47603442179515776,-13.403519127543083,0.024999982234362353,179.99999578767287,-4.212328793941821e-06,18.621829472726358,-0.2911126143781515,-9.750598932007453,1.522403763904876,0.0,0.0,0.0,0.0,0.0,0.0,0.0,10.19,-1.0,1.0,-0.2,974.9203598982722,974.9203598982722,0.0,750.9769660593531
0.35200000000000387,-0.47603442179515776,-13.403519127543083,0.024999982234362353,179.99999578767287,-4.212328793941821e-06,18.621829472726358,-0.2907595675451995,-9.74362489295779,1.5244927309882825,0.0,0.0,0.0,0.0,0.0,0.0,0.0,10.19,-1.0,1.0,-0.2,974.9203598982722,974.9203598982722,0.0,750.9769660593531
0.35200000000000387,-0.47603442179515776,-13.403519127543083,0.024999982234362353,179.99999578767287,-4.212328793941821e-06,18.621829472726358,-0.2892669947991521,-9.714140814235545,1.534738832822392,0.0,0.0,0.0,0.0,0.0,0.0,0.0,10.19,-1.0,1.0,-0.2,974.9203598982722,974.9203598982722,0.0,750.9769660593531
0.35600000000000165,-0.47603442179515776,-13.403519127543083,0.024999982234362353,179.99999578767287,-4.212328793941821e-06,18.621829472726358,-0.2889616488127205,-9.708109051210721,1.5367802119468295,0.0,0.0,0.0,0.0,0.0,0.0,0.0,10.19,-1.0,1.0,-0.2,974.9203598982722,974.9203598982722,0.0,750.9769660593531
0.35600000000000165,-0.47603442179515776,-13.403519127543083,0.024999982234362353,179.99999578767287,-4.212328793941821e-06,18.621829472726358,-0.2872664571925599,-9.674622466847941,1.546791591640938,0.0,0.0,0.0,0.0,0.0,0.0,0.0,10.19,-1.0,1.0,-0.2,974.9203598982722,974.9203598982722,0.0,750.9769660593531
0.35999999999999943,-0.47603442179515776,-13.403519127543083,0.024999982234362353,179.99999578767287,-4.212328793941821e-06,18.621829472726358,-0.2869211457359574,-9.667801231369053,1.5487861557711937,0.0,0.0,0.0,0.0,0.0,0.0,0.0,10.19,-1.0,1.0,-0.2,974.9203598982722,974.9203598982722,0.0,750.9769660593531
0.35999999999999943,-0.47603442179515776,-13.403519127543083,0.024999982234362353,179.99999578767287,-4.212328793941821e-06,18.621829472726358,-0.2850399528587625,-9.630640403510029,1.5585666996432066,0.0,0.0,0.0,0.0,0.0,0.0,0.0,10.19,-1.0,1.0,-0.2,974.9203598982722,974.9203598982722,0.0,750.9769660593531
0.3639999999999972,-0.47603442179515776,-13.403519127543083,0.024999982234362353,179.99999578767287,-4.212328793941821e-06,18.621829472726358,-0.2846751049471107,-9.623433247559154,1.5605152267111282,0.0,0.0,0.0,0.0,0.0,0.0,0.0,10.19,-1.0,1.0,-0.2,974.9203598982722,974.9203598982722,0.0,750.9769660593531
0.3639999999999972,-0.47603442179515776,-13.403519127543083,0.024999982234362353,179.99999578767287,-4.212328793941821e-06,18.621829472726358,-0.2831325431475095,-9.592961691882012,1.5700688402263243,0.0,0.0,0.0,0.0,0.0,0.0,0.0,10.19,-1.0,1.0,-0.2,974.9203598982722,974.9203598982722,0.0,750.9769660593531
0.3680000000000021,-0.47603442179515776,-13.403519127543083,0.024999982234362353,179.99999578767287,-4.212328793941821e-06,18.621829472726358,-0.2828175401643546,-9.586739165859294,1.5719721117786811,0.0,0.0,0.0,0.0,0.0,0.0,0.0,10.19,-1.0,1.0,-0.2,974.9203598982722,974.9203598982722,0.0,750.9769660593531
0.3680000000000021,-0.47603442179515776,-13.403519127543083,0.024999982234362353,179.99999578767287,-4.212328793941821e-06,18.621829472726358,-0.2810824903573805,-9.552465228303278,1.5813027131741468,0.0,0.0,0.0,0.0,0.0,0.0,0.0,10.19,-1.0,1.0,-0.2,974.9203598982722,974.9203598982722,0.0,750.9769660593531
0.3719999999999999,-0.47603442179515776,-13.403519127543083,0.024999982234362353,179.99999578767287,-4.212328793941821e-06,18.621829472726358,-0.2807295255458697,-9.545492809493995,1.5831615131122156,0.0,0.0,0.0,0.0,0.0,0.0,0.0,10.19,-1.0,1.0,-0.2,974.9203598982722,974.9203598982722,0.0,750.9769660593531
0.3719999999999999,-0.47603442179515776,-13.403519127543083,0.024999982234362353,179.99999578767287,-4.212328793941821e-06,18.621829472726358,-0.278817934358777,-9.5077314975618,1.5922730274593426,0.0,0.0,0.0,0.0,0.0,0.0,0.0,10.19,-1.0,1.0,-0.2,974.9203598982722,974.9203598982722,0.0,750.9769660593531
0.37599999999999767,-0.47603442179515776,-13.403519127543083,0.024999982234362353,179.99999578767287,-4.212328793941821e-06,18.621829472726358,-0.27844730373375537,-9.500410110678681,1.5940881408653453,0.0,0.0,0.0,0.0,0.0,0.0,0.0,10.19,-1.0,1.0,-0.2,974.9203598982722,974.9203598982722,0.0,750.9769660593531
0.37599999999999767,-0.47603442179515776,-13.403519127543083,0.024999982234362353,179.99999578767287,-4.212328793941821e-06,18.621829472726358,-0.27688316820240805,-9.469512390443182,1.6029844945467842,0.0,0.0,0.0,0.0,0.0,0.0,0.0,10.19,-1.0,1.0,-0.2,974.9203598982722,974.9203598982722,0.0,750.9769660593531
0.38000000000000256,-0.47603442179515776,-13.403519127543083,0.024999982234362353,179.99999578767287,-4.212328793941821e-06,18.621829472726358,-0.2765641272273581,-9.463210098478584,1.6047567065924349,0.0,0.0,0.0,0.0,0.0,0.0,0.0,10.19,-1.0,1.0,-0.2,974.9203598982722,974.9203598982722,0.0,750.9769660593531
0.38000000000000256,-0.47603442179515776,-13.403519127543083,0.024999982234362353,179.99999578767287,-4.212328793941821e-06,18.621829472726358,-0.27481572693012074,-9.428672437156377,1.6134418221710503,0.0,0.0,0.0,0.0,0.0,0.0,0.0,10.19,-1.0,1.0,-0.2,974.9203598982722,974.9203598982722,0.0,750.9769660593531
0.38400000000000034,-0.47603442179515776,-13.403519127543083,0.024999982234362353,179.99999578767287,-4.212328793941821e-06,18.621829472726358,-0.27447748690440193,-9.421990889759966,1.6151719171037855,0.0,0.0,0.0,0.0,0.0,0.0,0.0,10.19,-1.0,1.0,-0.2,974.9203598982722,974.9203598982722,0.0,750.9769660593531
0.38400000000000034,-0.47603442179515776,-13.403519127543083,0.024999982234362353,179.99999578767287,-4.212328793941821e-06,18.621829472726358,-0.27306916002492443,-9.394170992410825,1.6236497085622523,0.0,0.0,0.0,0.0,0.0,0.0,0.0,10.19,-1.0,1.0,-0.2,974.9203598982722,974.9203598982722,0.0,750.9769660593531
0.3879999999999981,-0.47603442179515776,-13.403519127543083,0.024999982234362353,179.99999578767287,-4.212328793941821e-06,18.621829472726358,-0.2727981813829636,-9.388818117227501,1.6253384687649362,0.0,0.0,0.0,0.0,0.0,0.0,0.0,10.19,-1.0,1.0,-0.2,974.9203598982722,974.9203598982722,0.0,750.9769660593531
0.3879999999999981,-0.47603442179515776,-13.403519127543083,0.024999982234362353,179.99999578767287,-4.212328793941821e-06,18.621829472726358,-0.2717074943821177,-9.367272834775154,1.6336128370956664,0.0,0.0,0.0,0.0,0.0,0.0,0.0,10.19,-1.0,1.0,-0.2,974.9203598982722,974.9203598982722,0.0,750.9769660593531
0.392000000000003,-0.47603442179515776,-13.403519127543083,0.024999982234362353,179.99999578767287,-4.212328793941821e-06,18.621829472726358,-0.2714821931609525,-9.362822265140512,1.6352610422156852,0.0,0.0,0.0,0.0,0.0,0.0,0.0,10.19,-1.0,1.0,-0.2,974.9203598982722,974.9203598982722,0.0,750.9769660593531
0.392000000000003,-0.47603442179515776,-13.403519127543083,0.024999982234362353,179.99999578767287,-4.212328793941821e-06,18.621829472726358,-0.2701789434476326,-9.337078047819096,1.6433358713417703,0.0,0.0,0.0,0.0,0.0,0.0,0.0,10.19,-1.0,1.0,-0.2,974.9203598982722,974.9203598982722,0.0,750.9769660593531
0.3960000000000008,-0.47603442179515776,-13.403519127543083,0.024999982234362353,179.99999578767287,-4.212328793941821e-06,18.621829472726358,-0.2699288321015012,-9.332137382355258,1.6449442974857156,0.0,0.0,0.0,0.0,0.0,0.0,0.0,10.19,-1.0,1.0,-0.2,974.9203598982722,974.9203598982722,0.0,750.9769660593531
0.3960000000000008,-0.47603442179515776,-13.403519127543083,0.024999982234362353,179.99999578767287,-4.212328793941821e-06,18.621829472726358,-0.2689388038054074,-9.312580498245872,1.6528234504945252,0.0,0.0,0.0,0.0,0.0,0.0,0.0,10.19,-1.0,1.0,-0.2,974.9203598982722,974.9203598982722,0.0,750.9769660593531
0.3999999999999986,-0.47603442179515776,-13.403519127543083,0.024999982234362353,179.99999578767287,-4.212328793941821e-06,18.621829472726358,-0.2687334924171624,-9.308524805047922,1.6543928694848473,0.0,0.0,0.0,0.0,0.0,0.0,0.0,10.19,-1.0,1.0,-0.2,974.9203598982722,974.9203598982722,0.0,750.9769660593531
0.3999999999999986,-0.47603442179515776,-13.403519127543083,0.024999982234362353,179.99999578767287,-4.212328793941821e-06,18.621829472726358,-0.26752666874923486,-9.284685374693005,1.662080185156829,0.0,0.0,0.0,0.0,0.0,0.0,0.0,10.19,-1.0,1.0,-0.2,974.9203598982722,974.9203598982722,0.0,750.9769660593531
0.40400000000000347,-0.47603442179515776,-13.403519127543083,0.024999982234362353,179.99999578767287,-4.212328793941821e-06,18.621829472726358,-0.2672785694323771,-9.279784454581378,1.6636113638469487,0.0,0.0,0.0,0.0,0.0,0.0,0.0,10.19,-1.0,1.0,-0.2,974.9203598982722,974.9203598982722,0.0,750.9769660593531
0.40400000000000347,-0.47603442179515776,-13.403519127543083,0.024999982234362353,179.99999578767287,-4.212328793941821e-06,18.621829472726358,-0.2663003829102735,-9.260461491262427,1.6711106534630407,0.0,0.0,0.0,0.0,0.0,0.0,0.0,10.19,-1.0,1.0,-0.2,974.9203598982722,974.9203598982722,0.0,750.9769660593531
0.40800000000000125,-0.47603442179515776,-13.403519127543083,0.024999982234362353,179.99999578767287,-4.212328793941821e-06,18.621829472726358,-0.2661146436789058,-9.25679242378551,1.6726043531076549,0.0,0.0,0.0,0.0,0.0,0.0,0.0,10.19,-1.0,1.0,-0.2,974.9203598982722,974.9203598982722,0.0,750.9769660593531
