Time_s,X,Y,Z,Roll_deg,Pitch_deg,Yaw_deg,Ref_X,Ref_Y,Ref_Z,Ref_Yaw,vx,vy,vz,p,q,r,T_pert,tau_x,tau_y,tau_z,RPM_0,RPM_1,RPM_2,RPM_3
0.0040000000000048885,0.0035537964555524813,-3.933852107203756,1.9975902067008882,2.3299029012256645,-2.244015475467637,-0.014865304341146477,0.004315271860110651,-3.9334751945867787,7.200000000017598e-05,0.0,-0.1895155501211297,-0.09364632085376424,0.005530374894552587,0.043377316569873245,0.028499327547686054,6.990677258680241e-06,-10.19,-1.0,1.0,0.01736502611872992,0.0,0.0,0.0,604.3835899055659
0.007999999999995566,0.0027871535036287963,-3.9342372159786425,1.9975670483409016,2.339688222299876,-2.237030836539629,-0.014578691524834883,0.004314963019208487,-3.9334799557192373,0.00021513340799976353,0.0,-0.19077448569499023,-0.09509115996624659,0.00558679880695709,0.04301777240713357,0.029641678088396545,7.003526428179841e-06,-10.19,-0.5269349750357221,0.8406419318937917,0.0002766459347694517,0.0,206.01238717738138,0.0,474.406179967723
0.012000000000000455,0.0020155247047179063,-3.9346281442031676,1.9975437076807618,2.349388219158705,-2.2297815497103066,-0.01428004303332575,0.004314502545728457,-3.9334870544397003,0.0004285414703013443,0.0,-0.192027003791364,-0.09654060461535277,0.0056423990509955595,0.04265202801679349,0.030791792312256927,7.015998384169192e-06,-10.19,-0.5390212406107728,0.8582361614424393,0.0002518349030642738,0.0,208.4121363506397,0.0,479.7192729148274
0.016000000000005343,0.0012389370878707069,-3.9350249098901102,1.997520184992599,2.35900145796349,-2.222265852520157,-0.01396920768373207,0.00431389227583854,-3.933496462441558,0.0007113732083625481,0.0,-0.1932729349016417,-0.09799459146894411,0.005697145441082772,0.04228005477567366,0.0319496407164801,7.028087738183572e-06,-10.19,-0.5512530962027034,0.8759685397334398,0.00022633219268750548,0.0,210.78452380053605,0.0,485.0232666178481
0.01999999999999602,0.0004574183700242923,-3.9354275307905353,1.9974964805738653,2.3685264984534604,-2.214481989823589,-0.013646035108748142,0.004313134029065375,-3.9335081516747454,0.001062785356130196,0.0,-0.1945121085451908,-0.09945305632301531,0.005751007611482304,0.041901825818382796,0.03311519373338699,7.039789320811286e-06,-10.19,-0.5636314046787277,0.8938387977574436,0.0002001316975078825,0.0,213.13003182864327,0.0,490.31854934452184
0.02400000000000091,-0.0003290030401895375,-3.9358360243902384,1.9974725947473013,2.3779618939922362,-2.2064282140036235,-0.013310375814496345,0.004312229608428439,-3.933522094343674,0.0014819422978532156,0.0,-0.1957443532747452,-0.10091593409854391,0.005803955023744022,0.041517309677387156,0.03428841756106761,7.0510971571684925e-06,-10.19,-0.5761570256655912,0.9118466501573622,0.00017322740196515395,0.0,215.4491059261031,0.0,495.60548905710783
0.027999999999991587,-0.0011202980386616841,-3.9362504079061726,1.9974485278608907,2.3873061916151506,-2.1981027851878165,-0.012962081239067884,0.004311180800573245,-3.9335382629051794,0.0019680160063510416,0.0,-0.19696949668190822,-0.10238315883782796,0.0058559569746289,0.04112647877685799,0.035469280057339556,7.0620058521127595e-06,-10.19,-0.5888308154562185,0.9299917954294749,0.0001456133843038527,0.0,217.74215740493443,0.0,500.8844345728747
0.031999999999996476,-0.0019164368220496403,-3.936670698282861,1.9974242802878015,2.396557932077337,-2.1895039714654367,-0.012601003811750361,0.00430998937590349,-3.9335566300664824,0.00252018598177254,0.0,-0.19818736540279563,-0.10385466370096086,0.005906982603859698,0.04072930390693665,0.036657746931064175,7.072509690287704e-06,-10.19,-0.6016536265935272,0.948273915005685,0.00011728381986451767,0.0,220.0095654799721,0.0,506.15571639920233
0.036000000000001364,-0.0027173888840484315,-3.9370969121888004,1.9973998524263157,2.4057156499026635,-2.1806300491058805,-0.012226997012935831,0.0043086570887122385,-3.933577168783167,0.0031376391907938037,0.0,-0.19939778512379455,-0.10533038096228331,0.005957000902357963,0.040325757200992775,0.037853783733339294,7.082603117823501e-06,-10.19,-0.614626308290721,0.9666926740704155,8.82329843594376e-05,0.0,222.2516795059902,0.0,511.4196479435152
0.03999999999999204,-0.0035231029018375263,-3.9375290419148543,1.9973745742180204,2.4144983854850106,-2.1712285304817187,-0.011483289487009234,0.004307185677312094,-3.9335998522571756,0.0038195700062934592,0.0,-0.20060120098433312,-0.106810501544614,0.005938718566031114,0.039451614023838635,0.039520830925755694,0.0006101014734614505,-10.19,-0.6271425261865097,0.9847205467964553,-0.00035814024290632397,0.0,226.18914145768076,0.0,515.7496150178166
0.04399999999999693,-0.004332983311582668,-3.937966405723901,1.9973293602547642,2.4164530582366495,-2.153420050380678,-0.009055855196012765,0.004305576864164363,-3.9336246539348148,0.0045651801474894515,0.0,-0.20181397843648202,-0.10830438322113829,0.003932750929999317,0.02693291514820757,0.05549242450080497,0.003526677359301658,-10.19,-0.6243857595841816,0.9873172781909926,-0.0023547366913528826,0.0,236.07969755209453,0.0,512.1723694900559
0.04800000000000182,-0.005146164819192158,-3.938407918658671,1.9972352578384522,2.4054520428419766,-2.1141723155447756,-0.004411636514715962,0.004303832356007294,-3.9336515475047804,0.005373678620505947,0.0,-0.2030598521087888,-0.10982188327243544,-0.0029916256463631665,-0.007891107798915234,0.10852970966146627,0.008734458438786431,-10.19,-0.6088765280913733,0.9706597179862103,-0.005043337444417955,0.0,245.8662105079325,0.0,501.8594606821657
0.0519999999999925,-0.005962060404739629,-3.938852834281911,1.9970727159485444,2.3778378160885074,-2.0442005411665267,0.00290165633402776,0.0043019538439833,-3.9336805068961964,0.006244281659412756,0.0,-0.20433968878689845,-0.1113596063230295,-0.01620475853562603,-0.0671858219547313,0.2103769876549213,0.014585012867286567,-10.19,-0.5913629895134309,0.9443664619807975,-0.00835163670595578,0.0,254.92041526688274,0.0,488.125692519846
0.055999999999997385,-0.006780247019665969,-3.93930063185638,1.9968284848821414,2.331250958210412,-1.9374285615429998,0.013087319321140435,0.004299943003765204,-3.933711506276667,0.007176212667716163,0.0,-0.20561107660784242,-0.11289250869202497,-0.03416745838472142,-0.14112659641179354,0.34970934603409687,0.020651093938791894,-10.19,-0.5720533056846792,0.9104175817677636,-0.01200752914708634,0.0,262.95297177403216,0.0,471.5997482446168
0.060000000000002274,-0.007600385111896106,-3.9397509220525686,1.9964931863735518,2.2643723835316223,-1.7902894539745278,0.026136775957726267,0.004297801495681589,-3.9337445200503462,0.008168702160264054,0.0,-0.20681249619577313,-0.11438975419903481,-0.05544367676818077,-0.22445203606799433,0.5132176063338226,0.02667084259299681,-10.19,-0.5510678597618535,0.8704937836985958,-0.01577206274750095,0.0,269.74402999495857,0.0,452.8012386723342
0.06399999999999295,-0.008422176994457267,-3.9402033922285264,1.9960599112642317,2.176851273506331,-1.601026732186193,0.041881903823244956,0.0042955309648411415,-3.9337795228560193,0.009220987705619809,0.0,-0.20787310002960627,-0.11581646984262221,-0.07914546530603543,-0.31258061790806285,0.6906406210291219,0.03244582400602657,-10.19,-0.5288982280498491,0.8260161459821561,-0.019458710382379382,0.0,275.05703732805375,0.0,432.2096238902819
0.06799999999999784,-0.009245345085724211,-3.940657776694342,1.995523375035862,2.069026365995914,-1.3691286267430847,0.060035436141094876,0.004293133041256037,-3.9338164895652015,0.010332313868877747,0.0,-0.20871689711278427,-0.11713599201373684,-0.10470302672782897,-0.4017842383260174,0.8746064255407464,0.03781392206880177,-10.19,-0.5060235283215331,0.7780654312763878,-0.02292157714912927,0.0,278.68416009987754,0.0,410.20775330413426
0.07200000000000273,-0.010069618907832641,-3.9411138369520686,1.9948793371915472,1.9417709864296633,-1.0949636323476004,0.08021718410591833,0.004290609339964468,-3.9338553952802493,0.011501932154877468,0.0,-0.20926590608374993,-0.11831180034266661,-0.1317431945397012,-0.4891680191102112,1.059952787941874,0.042693900885588595,-10.19,-0.48288165459911525,0.7274659002397125,-0.02604048746469524,0.0,280.4179331016593,0.0,387.1199507317523
0.0759999999999934,-0.010894729114307597,-3.941571350143838,1.9941242165440696,1.7963668095080283,-0.7795321064308005,0.10198051146740555,0.004287961461152168,-3.9338962153324863,0.012729100951883211,0.0,-0.20944235517770773,-0.1193090110131653,-0.16002103597903491,-0.5725408376410908,1.2430419128271224,0.047018704553058614,-10.19,-0.45987994903092083,0.674883414707497,-0.028722350026455762,65.8606971572388,280.06933315742543,0.0,363.2280632868855
0.0799999999999983,-0.011720406146296592,-3.9420301036762173,1.9932548553626674,1.634376267027261,-0.4243071588960793,0.12476446941215227,0.0042851909902730054,-3.9339389252803447,0.014013085475695082,0.0,-0.20917016031605756,-0.1200954980162519,-0.18937450267704442,-0.6502613304161404,1.4212360542119344,0.05062419190356114,-10.19,-0.437368207134959,0.6208909127841518,-0.030815399777602025,116.56941678945394,277.19983319291947,0.0,339.0060911875058
0.08400000000000318,-0.012546377706231357,-3.942489895215996,1.9922684539432847,1.457431225645189,-0.031320734468570456,0.14784104255874228,0.004282299498168742,-3.9339835009075186,0.015353157714144241,0.0,-0.20837566333193477,-0.12064274184976094,-0.21968401462920095,-0.7213690288051036,1.5922226011112477,0.05312659076267382,-10.19,-0.41552802653038506,0.5661802745973622,-0.03210151343881282,146.98203808255772,271.15714234198276,0.0,315.2500516649855
0.08799999999999386,-0.0133723712649499,-3.942950531382851,1.9911624415962141,1.2671456222536706,0.3969041107048844,0.17061737038038294,0.004279288541187806,-3.9340299182211336,0.016748596372049302,0.0,-0.2069892905285145,-0.12092599551349839,-0.2508544290890541,-0.7855250739509407,1.7537851983380413,0.05443339267266054,-10.19,-0.39442982885187516,0.5114604063757118,-0.03270869902641618,168.84152347247178,262.37794813132416,0.0,291.90295586580083
0.09199999999999875,-0.014198122720023885,-3.9434118311208497,1.9899344608455327,1.0650018543879305,0.8576914511195131,0.19259242056302023,0.004276159661303148,-3.934078153449929,0.01819868681659516,0.0,-0.204947719387958,-0.12092402284799979,-0.28280376465190027,-0.8429077034537416,1.904289282616586,0.05488367306993808,-10.19,-0.3740648327664098,0.45715429799351526,-0.03271986069128728,185.40977494614478,251.02523294606306,0.0,268.9222767724525
0.09600000000000364,-0.015023380648609783,-3.943873626850604,1.9885823300007706,0.8522962924768883,1.3483004747441174,0.21328209890732772,0.0042729143862292995,-3.9341281830424553,0.019702721023081224,0.0,-0.20219494806171037,-0.12061866312842243,-0.31545838494482425,-0.8940505342253473,2.04304019487594,0.05475417487868204,-10.19,-0.35432978386099157,0.40355046438107756,-0.032134154891272526,197.8449886304263,236.8683295818797,0.0,246.47845343244705
0.09999999999999432,-0.015847909335814345,-3.944335763732169,1.9871039547870337,0.6301412991374109,1.8658786418018571,0.23226133484859487,0.004269554229538444,-3.934179983665281,0.021259997521127054,0.0,-0.19868186812024757,-0.11999429298334889,-0.3487544374010516,-0.9396794197328759,2.169673641429239,0.05417414847135131,-10.19,-0.3350911119821868,0.3509879016462003,-0.031000562363481952,206.91331673806062,219.7543357757187,0.0,224.61192257700225
0.1039999999999992,-0.01667149248457306,-3.9447981013485034,1.985497341748315,0.3994278626542992,2.4075596635751717,0.24913729957033143,0.004266080690775604,-3.934233532201221,0.022869821341291192,0.0,-0.1943661981062796,-0.11903721458939957,-0.38263850262256927,-0.9805971111678913,2.283896385256727,0.053214283291580025,-10.19,-0.316187594191934,0.29971150594804374,-0.029339172391337036,212.9670495817223,199.18950980133536,0.0,203.45405459045716
0.10800000000000409,-0.017493941000357154,-3.9452605129783933,1.9837604136470268,0.1608510969100564,2.9702872955040642,0.2635721473940343,0.004262495255573049,-3.934288805747571,0.024531503962045224,0.0,-0.189212876166482,-0.11773507056392019,-0.4170740408337659,-1.017650156651356,2.3853122402671616,0.05196450683237493,-10.19,-0.29744679659685813,0.25022573077266785,-0.02719793632336484,216.19244854553585,174.54047770234834,0.0,183.16741950172556
0.11199999999999477,-0.018315095108934372,-3.9457228881975746,1.9818911188477553,-0.08511782794921996,3.5510187105502595,0.27528970670357267,0.0042587993957637375,-3.934345781614357,0.026244363257201458,0.0,-0.1831944527318527,-0.1160761734929588,-0.452033984523429,-1.0517090489860612,2.473570928120349,0.05051365017491384,-10.19,-0.27868899112459733,0.2027535117274929,-0.02463485576405368,216.80033099994037,144.3299355968848,0.0,163.77482989294543
0.11599999999999966,-0.019134826576313983,-3.9461851336976492,1.9798874589603164,-0.33822506760913845,4.146816487161536,0.2840766444666758,0.004254994569493877,-3.934404437322604,0.028007723443744716,0.0,-0.17629116336346562,-0.11404883440383973,-0.4874831178765267,-1.0836813712022226,2.5487538819340436,0.04899544772023377,-10.19,-0.25970883865618366,0.15741498857045522,-0.02171180591807347,214.94558111796306,104.62268324317657,0.0,145.19450224670769
0.12000000000000455,-0.01995305025307553,-3.9466471747356153,1.9777473250043944,-0.5984278536524491,4.754711457215249,0.28976548134870816,0.004251082221334753,-3.9344647506026087,0.02982091503000563,0.0,-0.16849055524194162,-0.1116407276287696,-0.5233936258649561,-1.1144794941794136,2.611056628916874,0.047505108177434044,-10.19,-0.24030191566670445,0.11459630788676467,-0.018473386418457714,210.51504810711367,31.496005710043654,0.0,127.58464552872326
0.12399999999999523,-0.020769715412877313,-3.9471089545830935,1.9754687028014595,-0.8658595480150774,5.371956909920133,0.29231611918066275,0.0042470637823935845,-3.934526699392231,0.03168327476428369,0.0,-0.1597870604338693,-0.10883833015895653,-0.5597374119506519,-1.1449605423072111,2.6608638009554406,0.046260009462259014,-10.19,-0.22026839443892882,0.07416583899597762,-0.015061305080721647,203.9475547879925,0.0,0.0,109.97838538641757
0.1280000000000001,-0.021584851475846788,-3.9475704461578327,1.973049138571713,-1.1410149615279888,5.995541067398113,0.29175237358258227,0.00424294067042353,-3.9345902618352,0.03359414558386558,0.0,-0.1501821404367099,-0.10562604046701718,-0.5965229005557213,-1.1762432282431363,2.6981316636649675,0.045481196048021415,-10.19,-0.19932170451532238,0.037175089091075364,-0.01154835766964444,194.77715231914817,0.0,0.0,92.37104371196828
0.132000000000005,-0.022398529301102553,-3.9480316411465535,1.9704862816308508,-1.4243437479974084,6.622751122360427,0.2879977779244388,0.00423871428993298,-3.9346554162794276,0.03555287656437161,0.0,-0.13968432712951445,-0.10198526669558197,-0.6337552037307591,-1.2090491943953516,2.723060811353485,0.04513285184596023,-10.19,-0.17737286253633655,0.003092527199405115,-0.007818159180574182,182.23806160330378,0.0,0.0,75.46617264748528
0.13599999999999568,-0.023210826362989836,-3.9484925373073843,1.9677781899777274,-1.715954228472912,7.251491159241775,0.28093769298798404,0.004234386032293894,-3.934722141275338,0.0375588228695481,0.0,-0.12830771111401104,-0.09789580847741,-0.6713799131508098,-1.242982137364729,2.7370156821579843,0.044841608772785424,-10.19,-0.154651598106395,-0.028989296415008803,-0.00382275526495178,165.89343329416585,0.0,0.0,59.61805359307523
0.14000000000000057,-0.024021820472117292,-3.948953135158776,1.9649232807709138,-2.0156605785891917,7.880238190278801,0.2704753689306193,0.0042299572758492995,-3.934790415574212,0.03961134570144635,0.0,-0.11606841733395312,-0.09333928936753755,-0.7092826552340897,-1.2767500262281408,2.74248405789521,0.04443097053406975,-10.19,-0.131454761379608,-0.05966332609030556,0.0004218946794260006,145.08757952776796,0.0,0.0,45.05241888327703
0.14399999999999125,-0.024831603520726442,-3.949413440441246,1.9619201396364354,-2.323003348160417,8.507929273783608,0.2565371870872326,0.004225429386020126,-3.934860218126538,0.0417098122509091,0.0,-0.1029820720472517,-0.0883015827743017,-0.7473660422035502,-1.309045424565637,2.7418324238344027,0.043914679326263834,-10.19,-0.10814005778579172,-0.08920065101336344,0.0048929801606387765,118.1104866483173,0.0,0.0,33.08472191929943
0.14799999999999613,-0.02564027705743165,-3.949873463844018,1.9587675109486302,-2.637382359147271,9.133894176883803,0.23908495685201075,0.004220803715410989,-3.9349315280803845,0.04385359564854477,0.0,-0.08906276278925489,-0.08277308900619514,-0.785561256975633,-1.3388973497256624,2.737022094196515,0.043377798069088695,-10.19,-0.08489929193875384,-0.11802454561991943,0.009552381282938808,79.97091893087116,0.0,109.79999309842277,25.285973161854823
0.15200000000000102,-0.026447969951698628,-3.9503332253020584,1.955464153557749,-2.9579796541922048,9.757851411839885,0.21823571128335192,0.004216081603915406,-3.9350043247797735,0.046042074915965604,0.0,-0.07432220157095136,-0.07674863828897704,-0.8238229023016472,-1.3655286027008176,2.729786484350707,0.0431581801647118,-10.19,-0.062077403032937684,-0.14632612334543982,0.01422058581722925,0.0,0.0,171.46097820223457,19.038000767858993
0.1559999999999917,-0.027254840602398606,-3.950792753776464,1.9520088280060375,-3.283672922086115,10.37990181576315,0.19439295219978173,0.0042112643788200475,-3.9350785877630776,0.04827463491747246,0.0,-0.05876888534509014,-0.07022754585037631,-0.8621248964592112,-1.3880365364395693,2.7217673356667116,0.04405803401027542,-10.19,-0.04008697654786142,-0.1744803771049377,0.01855838435488382,0.0,0.0,214.40401369776237,0.0
0.1599999999999966,-0.02806106171432902,-3.951252082235634,1.9484003677581505,-3.612991711903536,11.000337165663376,0.16761384420085804,0.004206353354908178,-3.935154296761423,0.05055066631211219,0.0,-0.04240695086623352,-0.06321577913712148,-0.9004412289408945,-1.405131291244761,2.7142824976933375,0.04618335920310557,-10.19,-0.01935737265519555,-0.20286581438681162,0.022953993437166684,0.0,0.0,249.9350576998639,0.0
0.16400000000000148,-0.028866716888460493,-3.9517112195640802,1.9446381739491123,-3.9445086915758565,11.619038134087276,0.13787172733746103,0.004201349834562474,-3.9352314316971047,0.05286956550602914,0.0,-0.02523857695670424,-0.0557273997193022,-0.938690475884178,-1.4158831196849195,2.707311026403579,0.048885857858735414,-10.19,0.0003870492413310944,-0.2322111594715568,0.027503191025797707,0.0,0.0,281.5002166446569,0.0
0.16799999999999216,-0.02967178030503679,-3.952170140604296,1.9407222302691538,-4.276843945213667,12.235501864875307,0.10523581199393142,0.004196255107866892,-3.935309972682017,0.05523073460525247,0.0,-0.00726964180510431,-0.047783433458239696,-0.9767281617196868,-1.4201749123333973,2.6995139301200757,0.051686250800118794,-10.19,0.019241282869261855,-0.26236806085789677,0.032095287011712506,0.0,0.0,309.9710856900913,0.0
0.17199999999999704,-0.030476119000960908,-3.9526287824886026,1.93665300826196,-4.6085628858108425,12.848884092160732,0.06983200441514445,0.004191070452707756,-3.935389900016094,0.057633581368847754,0.0,0.01148531924667808,-0.039409644534623714,-1.0143960884039438,-1.4181395697681425,2.689201129563057,0.054659938226102545,-10.19,0.037118922241985874,-0.29296616289996735,0.0366614116882551,0.0,0.0,335.83037584145586,0.0
0.17600000000000193,-0.03127950030821467,-3.953087044087553,1.9324313664600807,-4.938117712254456,13.458046841407299,0.0318523783151538,0.004185797134874231,-3.9354711941857614,0.060077519162350754,0.0,0.03100232210647057,-0.03063679834968076,-1.0515599510272804,-1.4095807205786302,2.674925309530729,0.05786515612258265,-10.19,0.05382782363600408,-0.32360666421372386,0.041119294108520686,0.0,0.0,359.2910480304152,0.0
0.1799999999999926,-0.03208160265234323,-3.9535447878676386,1.928058454564904,-5.263839707324143,14.061618508548188,-0.008454124933227822,0.004180436408157873,-3.935553835862402,0.06256196691163303,0.0,0.051248170069025434,-0.021501718252067488,-1.0881126970287687,-1.3941110412542586,2.6554573940742676,0.061318067247491705,-10.19,0.06913106542759823,-0.3538964277362579,0.045394796515906784,0.0,0.0,380.47605826478133,0.0
0.1839999999999975,-0.03288202980360513,-3.9540018440398286,1.9235356200885294,-5.583953883299633,14.65806832002979,-0.05074751825536813,0.004174989514451398,-3.935637805900832,0.06508634905712396,0.0,0.0721811211373897,-0.01204756553477439,-1.1239742435616498,-1.371338440269802,2.629837592172164,0.06507471173364493,-10.19,0.08277179047799646,-0.383464686283296,0.0493715032459796,0.0,0.0,399.3457301222955,0.0
0.1880000000000024,-0.033680300987263184,-3.954458005600141,1.918864423239237,-5.896515102039411,15.245670670714235,-0.09461552239554345,0.00416945768384688,-3.9357230853377887,0.06765009550830307,0.0,0.09375129425249618,-0.002324076138463478,-1.1590813227725612,-1.3408128643349475,2.5972322987488723,0.06918828083169774,-10.19,0.09451330240941602,-0.4121578853707172,0.05295114334790175,0.0,0.0,415.91840861841416,0.0
0.19199999999999307,-0.034475874935761916,-3.95491303777204,1.9140465273827965,-6.199493083544512,15.822607082402799,-0.13959250416405813,0.004163842134733018,-3.9358096553904294,0.07025264159862049,0.0,0.11590108307173386,0.007612349677781444,-1.1933876481740469,-1.3021120318469455,2.5569592701253585,0.07368897114963302,-10.19,0.10404212018779568,-0.43954116563782736,0.05605457140559683,0.0,0.0,430.141529354499,0.0
0.19599999999999795,-0.03526816901505318,-3.9553666860966223,1.9090836231807788,-6.490823964416741,16.387041040230457,-0.1851407041912989,0.004158144073891652,-3.9358974974548446,0.07289342804076582,0.0,0.13856620606895237,0.017699266803219225,-1.2268713894049348,-1.255029267100341,2.50863466819255,0.0785845300073034,-10.19,0.11110616043811433,-0.4652979945735187,0.058578489659163874,0.0,0.0,441.91746569532313,0.0
0.20000000000000284,-0.0360565545768703,-3.9558186750288034,1.903977445682206,-6.768382701632168,16.937092023541233,-0.23067597018312797,0.004152364696593722,-3.9359865931045785,0.07557190088219606,0.0,0.16167697917750062,0.027869171432316854,-1.259528235921135,-1.1994864865399564,2.4520593725322626,0.0838839277588325,-10.19,0.11552167177636818,-0.4893409622484101,0.06044666158554399,0.0,0.0,451.2316218260578,0.0
0.20399999999999352,-0.036840388201343596,-3.956268721929329,1.8987296726018703,-7.030082348884376,17.470941681613613,-0.27557039588131316,0.004146505186694311,-3.9360769240891633,0.07828751146108773,0.0,0.18515949672182305,0.03805045500715888,-1.2913703095785865,-1.1355410287347294,2.3872079563084796,0.08960374906105437,-10.19,0.1170373146199469,-0.5112888093916775,0.06158398755992349,0.0,0.0,457.9653249750179,0.0
0.2079999999999984,-0.03761901228487084,-3.956716538409229,1.893341933496795,-7.273864371009239,17.98682045396298,-0.3191724289612149,0.00414056671672695,-3.936168472332666,0.08103971636262976,0.0,0.20893664107496063,0.048168254848637265,-1.32242591747329,-1.063400904575634,2.3142319025876774,0.09571634700495081,-10.19,0.11552753148823994,-0.5310792988300291,0.06193701664641613,0.0,0.0,462.0906506980477,0.0
0.2120000000000033,-0.038391785266250554,-3.9571618444266985,1.8878157275129286,-7.497788997207505,18.483095198704962,-0.36082011902296135,0.004134550447997396,-3.936261219932243,0.08382797737556436,0.0,0.23292972056281322,0.058145934039313174,-1.3527404161775036,-0.9834585333818749,2.2334854305311262,0.10220891602378504,-10.19,0.1108231996500549,-0.5484090944655757,0.06146675718829738,0.0,0.0,463.51254483998554,0.0
0.21599999999999397,-0.0391580879397639,-3.9576043722658554,1.8821524219115828,-7.700042920441918,18.9582696738204,-0.39985890706639654,0.00412845753067649,-3.9363551491567073,0.0866517614491482,0.0,0.257059723843776,0.06790625438744607,-1.3823738219790802,-0.8962650772499432,2.145494570760417,0.10903733424861943,-10.19,0.10287707716375032,-0.5632370403423952,0.060154525256780784,0.0,0.0,462.2025344451721,0.0
0.21999999999999886,-0.039917348415358,-3.9580438784302605,1.8763531966084352,-7.879008588860712,19.41104430837903,-0.4356620596961866,0.004122289103892309,-3.9364502424451087,0.0895105406504469,0.0,0.28124893918164834,0.07737290900544472,-1.411400117671389,-0.8025367139174187,2.050959931531587,0.11616034808671005,-10.19,0.09163452233310931,-0.575377284197262,0.05800576512327513,0.0,0.0,458.10281441762004,0.0
0.22400000000000375,-0.04066905653900352,-3.958480150855036,1.8704190233391738,-8.033296921755007,19.840339145783357,-0.4676480791080194,0.0041160462958217976,-3.936546482405321,0.09240379212186672,0.0,0.30542232467052116,0.08647185340366174,-1.4399058335945196,-0.7031487157007688,1.950748386131729,0.12351561933476055,-10.19,0.07713567753163351,-0.5847847292322302,0.05504735753167726,0.0,0.0,451.1908438576741,0.0
0.22799999999999443,-0.04141277877350793,-3.9589130160321626,1.8643506442958366,-8.161780283275023,20.245318273565836,-0.4952937576421695,0.004109730223781505,-3.9366438518126436,0.09533099803910274,0.0,0.32950903722707237,0.0951327971745997,-1.4679874626082707,-0.599110850455177,1.8458668049122617,0.13104522536932123,-10.19,0.059468381599935255,-0.591438792569747,0.051323249930976075,0.0,0.0,441.4386375468934,0.0
0.23199999999999932,-0.04214816841349568,-3.959342343762451,1.8581485639438966,-8.263615517494987,20.625398406653215,-0.5181581944223804,0.004103341994317618,-3.936742333608414,0.0982916455694129,0.0,0.3534435129493344,0.10329029602459794,-1.4957475349263505,-0.4915183985269481,1.737411836860901,0.13867137449477793,-10.19,0.03878559288828465,-0.5953858357453992,0.046907802055963704,0.0,0.0,428.8509496845575,0.0
0.2360000000000042,-0.04287499382939421,-3.959768059068878,1.851812991689323,-8.338318331325393,20.98031335864779,-0.535897682556812,0.004096882703295501,-3.936841910898625,0.10128522683011897,0.0,0.37716686368867,0.11088513751268017,-1.5232968641845244,-0.38161563209044325,1.6266324556297302,0.1463093768520824,-10.19,0.015257897469730428,-0.5965444120818475,0.04189611324761441,111.69717386972175,0.0,413.3975911089367,0.0
0.23999999999999488,-0.04359313922314103,-3.960190141770522,1.8453438628329428,-8.385799894251083,21.31007566495669,-0.5483991777084086,0.0040903534359883545,-3.9369425669525606,0.10431123884751993,0.0,0.4006279725197097,0.11786578643430509,-1.5507508370302947,-0.2707615029003142,1.5148862086619266,0.1536567799613106,-10.19,-0.010744176121542319,-0.5951047749321781,0.036543162344563604,162.76848700802458,0.0,395.4542628014571,0.0
0.24399999999999977,-0.044302608234965284,-3.960608626362005,1.8387408870536885,-8.406418656615063,21.614929126532658,-0.55577610361717,0.004083755267165175,-3.937044285201439,0.10736918351612432,0.0,0.4237824130443196,0.12418975508100623,-1.578218247844686,-0.16041296475444708,1.4034545053235734,0.16021767685123017,-10.19,-0.0387667307424645,-0.5911850572344426,0.031108492226876817,201.44744908421757,0.0,375.4272822074315,0.0
0.24800000000000466,-0.045003484262690734,-3.96102358656335,1.8320036470929242,-8.400974231534516,21.89527858262236,-0.5580871599337961,0.004077089261178255,-3.937147049237064,0.11045856755809899,0.0,0.44659192538124975,0.12982519513265636,-1.6057884425084326,-0.05226251452215323,1.2933275653298717,0.16576245829323816,-10.19,-0.06815436314412852,-0.5853368063711466,0.025532476286224015,234.1577148462467,0.0,353.10236042310135,0.0
0.25199999999999534,-0.045695892539551565,-3.96143512058386,1.8251316725413764,-8.3707898232594,22.151591832951596,-0.555442716822654,0.0040703564720498,-3.9372508428104886,0.11357890248312681,0.0,0.4690243113562783,0.1347535513926961,-1.6335248937682203,0.051697704465146745,1.1851022475692665,0.17049441694554585,-10.19,-0.0981208714354824,-0.5780193877205806,0.019877530585293374,262.81067452329404,0.0,328.5113463510922,0.0
0.2560000000000002,-0.046379993614070344,-3.9618433481970396,1.818124448773086,-8.317795444070962,22.384381139220842,-0.5480662556815905,0.004063557943557869,-3.937355649830691,0.11672970454857598,0.0,0.49105277113722823,0.13897262181379466,-1.66147223384992,0.14921600326796164,1.079113753348754,0.1743857233895174,-10.19,-0.12787199299869453,-0.5693399871583225,0.014279973126074604,287.97976612905114,0.0,301.7705153044093,0.0
0.2600000000000051,-0.0470559633973266,-3.9622484016795347,1.810981457743215,-8.244410134992783,22.594174619829516,-0.5361629291694404,0.0040566947093218725,-3.9374614543632576,0.11991049471987612,0.0,0.5126539418255801,0.14249893616890175,-1.6896618182437706,0.2380323910690111,0.975533084286211,0.177438213261028,-10.19,-0.15663460837527693,-0.5595371074442105,0.008727239551220138,310.4019308358788,0.0,272.52496545720476,0.0
0.2639999999999958,-0.04772396324652656,-3.962650412066746,1.8037022410695671,-8.153387168928608,22.7814292753626,-0.5200263420463431,0.004049767792887197,-3.9375682406290755,0.12312079863129936,0.0,0.5338062014628369,0.14536711913107364,-1.7181106593913575,0.3162664668739319,0.8743384975619497,0.17960603455229943,-10.19,-0.18371937180913256,-0.5488815071529998,0.003330764095439913,330.2191199126812,0.0,240.6285166085227,0.0
0.2680000000000007,-0.04838415793895047,-3.9630495151046454,1.7962863525365733,-8.047803922830127,22.94659324642446,-0.49997124672894866,0.004042778207809169,-3.937675993003041,0.1263601465470462,0.0,0.5544885785569205,0.14762819380887507,-1.7468252564419786,0.38253021477139615,0.7753736730010697,0.18086546165957854,-10.19,-0.20864210945204842,-0.5371790589324255,-0.0018729886152745352,347.612901547561,0.0,205.13107554186425,0.0
0.27199999999999136,-0.049036708066184966,-3.9634458464071733,1.7887333709997049,-7.930962732152519,23.09008114886899,-0.4764038861739127,0.004035726957736621,-3.937784696012771,0.12962807332251677,0.0,0.5746800927681861,0.14934762186168016,-1.7758135668380597,0.4356825064933485,0.6785513892159123,0.18107951584880794,-10.19,-0.23088935505614372,-0.5244896446998533,-0.0067644919794898825,362.5229647173291,0.0,164.67290558282232,0.0
0.27599999999999625,-0.049681818111771095,-3.9638395588389983,1.7810427830707931,-7.806555357964027,23.21241168864269,-0.44978348694939047,0.00402861503649444,-3.937894334337328,0.13292411836605367,0.0,0.59436115603804,0.15060609271816822,-1.80509234047474,0.4745504547530743,0.5839890722856149,0.18014006156242987,-10.19,-0.24999289272646508,-0.5103893207667995,-0.011265416319632054,374.8496490084387,0.0,114.7523987509963,0.0
0.28000000000000114,-0.05031971439595553,-3.964230811499314,1.7732140298488641,-7.67845037699741,23.314155948901966,-0.4206055242435126,0.004021443428165852,-3.9380048928059543,0.13624782560080706,0.0,0.6135148429979306,0.1514998610036006,-1.8346848294716698,0.4980234967317121,0.49197153322839127,0.17792797711067043,-10.19,-0.2653873573012302,-0.4951778799504316,-0.01531477333750951,384.63692358190985,0.0,22.18486521022051,0.0
0.2839999999999918,-0.050950702743023324,-3.9646197882430183,1.765246361866719,-7.55084819819582,23.39608091572301,-0.3895578390367223,0.004014213107173818,-3.9381163563968156,0.1395987434270099,0.0,0.6321288849489846,0.15214111446849762,-1.864625440791372,0.5051076298433987,0.4030420003907519,0.17419690148175518,-10.19,-0.27664676649963554,-0.47841557827604686,-0.01866768211492762,391.31318602821324,0.0,0.0,0.0
0.2879999999999967,-0.05157520298774653,-3.9650067071650894,1.7571387439486077,-7.428166536604556,23.459291768818574,-0.3572243013036325,0.004006925038361805,-3.9382287102357565,0.1429764246845468,0.0,0.650199887598774,0.15265906281262592,-1.8949677987787408,0.4948074195636217,0.3181696292135247,0.1689306549967159,-10.19,-0.2833637363477213,-0.4600634819196919,-0.021417482794393185,395.15478267943683,0.0,0.0,0.0
0.2920000000000016,-0.05219346220607912,-3.9653917183646885,1.748890539128817,-7.314073752541621,23.50447210231407,-0.32395906287043674,0.003999580177074154,-3.9383419395950616,0.14638042661570475,0.0,0.6677296355348938,0.15319325001440406,-1.9257103199823784,0.46753072585227373,0.23739288113649928,0.16249053915894535,-10.19,-0.28494833604594016,-0.4429325734563442,-0.023808636688339824,397.28960804612126,0.0,0.0,0.0
0.29599999999999227,-0.052805520573843454,-3.9657748939464526,1.7405015996798396,-7.211394605866069,23.531770509856614,-0.28996895429003156,0.003992179469235607,-3.9384560298922295,0.14981031082831844,0.0,0.6847127665641887,0.1538781111401042,-1.956761962802823,0.4257586337196656,0.15911565895749874,0.15543987123644798,-10.19,-0.28195834611059056,-0.42696974172167895,-0.025998760771229378,398.2163658918609,0.0,0.0,0.0
0.29999999999999716,-0.05341129371343621,-3.966156257091134,1.7319720791966708,-7.122298836515138,23.541005487182648,-0.25537589456425064,0.003984723851430204,-3.9385709666887556,0.1532656432592031,0.0,0.701127747751656,0.15483106605944938,-1.9880124497206537,0.3726339514482757,0.08128742117902041,0.1480263146673462,-10.19,-0.27523273685668703,-0.41099900521829774,-0.028078602638752812,398.0789207066954,0.0,0.0,0.0
0.30400000000000205,-0.054010640589705394,-3.966535804763356,1.7233022773737625,-7.04845556994878,23.53183718421724,-0.22024943664301855,0.003977214250979814,-3.9386867356889224,0.15674599413775994,0.0,0.7169400390190322,0.15615280810413656,-2.019397575975966,0.31074461188270586,0.0025852087557767466,0.14035934443836953,-10.19,-0.26542258189140533,-0.3941244900585823,-0.030104369827969005,396.9524498368349,0.0,0.0,0.0
0.3079999999999927,-0.05460340429450179,-3.96691352075804,1.7144925477552113,-6.991148133555726,23.50386991214437,-0.18462379162621115,0.00396965158602182,-3.938803322738602,0.16025093794997272,0.0,0.7321075832698746,0.15793068438251967,-2.0508946939333716,0.2420866549134355,-0.07762679359415905,0.1325117171269332,-10.19,-0.25298374503749627,-0.3758195833852559,-0.03211452837861878,394.9020824211192,0.0,0.0,0.0
0.3119999999999976,-0.05518943723146206,-3.9672893833037572,1.7055432410719997,-6.951356242868552,23.456715243921124,-0.1485075619521269,0.003962036765586198,-3.9389207138240674,0.16378005340268514,0.0,0.7465846368150388,0.16024144958783032,-2.0825063718577166,0.16821485339700187,-0.15955714226767465,0.12453500418670463,-10.19,-0.23824876601365463,-0.35577553317664473,-0.03413762328847292,391.98510833407073,0.0,0.0,0.0
0.3160000000000025,-0.05576861689232834,-3.967663369527191,1.6964546696213503,-6.9298120214157795,23.39003215375428,-0.111885573839352,0.0039543706896722425,-3.9390388950708095,0.16733292338804265,0.0,0.7603242101186086,0.16315331890252333,-2.11424991477037,0.09036412425934179,-0.24315140792889373,0.11647386459131018,-10.19,-0.22147447362582612,-0.33381931478921745,-0.03620110994778456,388.2652260102692,0.0,0.0,0.0
0.3199999999999932,-0.056340860588132785,-3.9680354594212615,1.6872270729960785,-6.927028249288152,23.303564976558167,-0.0747252044404586,0.003946654249324453,-3.9391578527423676,0.17090913494832122,0.0,0.7732798729919983,0.1667272605019516,-2.146152104684769,0.009564847656812037,-0.3281683255147959,0.10836763917034778,-10.19,-0.20289902355557968,-0.309823936211617,-0.03832603001777578,383.7941564540908,0.0,0.0,0.0
0.32399999999999807,-0.0569061258652271,-3.9684056359380535,1.6778606168114132,-6.943342239619658,23.197144219351806,-0.03698217102435824,0.003938888326707835,-3.9392775732391687,0.17450827924103096,0.0,0.7854069946052695,0.1710178323334763,-2.178243903198692,-0.07330960185848098,-0.41426084648991746,0.10024284381740137,-10.19,-0.18268215267434232,-0.2838229624257768,-0.04052738127109007,378.6254833381464,0.0,0.0,0.0
0.32800000000000296,-0.05746439758013792,-3.968773881532451,1.6683554227847774,-6.9789753313197505,23.070653583306708,0.001406851702312407,0.003931073795182855,-3.9393980430973716,0.1781299515041756,0.0,0.7966630243728073,0.17607422949445783,-2.2105524860816055,-0.15759080060654146,-0.5011108071338903,0.09211437949977529,-10.19,-0.1608846534428591,-0.2559716766000423,-0.04282926750116916,372.8392232536282,0.0,0.0,0.0
0.33199999999999363,-0.058015694559428156,-3.969140180151703,1.6587115516169326,-7.034035867168711,22.92404847986412,0.040518482679333376,0.003923211519379575,-3.9395192489877244,0.18177375102189544,0.0,0.8070073537989002,0.18194143558948622,-2.2431009422112353,-0.24275897780654407,-0.5884304933447465,0.08398813389712888,-10.19,-0.13763220124284897,-0.22623257779787817,-0.045249863228043356,366.4721810545503,94.31559251307985,0.0,0.0
0.3359999999999985,-0.05856006698804673,-3.9695045168579868,1.6489290075180323,-7.108536689748042,22.757351117324113,0.08044519886850787,0.00391530235527121,-3.93964117771443,0.18543928109037877,0.0,0.8164011875643548,0.18866106043112588,-2.275909546398007,-0.32837872270719803,-0.6759370742596229,0.0758776299256485,-10.19,-0.11301178062763632,-0.19466925131593987,-0.04781088979638941,359.58479819136073,152.50768438879138,0.0,0.0
0.3400000000000034,-0.059097641889888225,-3.969866891066885,1.6390076571826253,-7.202375081392919,22.570737075068987,0.12107605843212112,0.003907347150247355,-3.939763816214017,0.18912614898392113,0.0,0.824807712745303,0.19627085591685403,-2.309005264914837,-0.4138615278277385,-0.7631456726472322,0.06745637059990478,-10.19,-0.08729869083509884,-0.1608921801384896,-0.050278576187578465,351.5113081165165,194.98954103911805,0.0,0.0
0.3439999999999941,-0.059628596266167795,-3.9702273079820025,1.6289473478553589,-7.3151786701705115,22.36461103594857,0.16238029823028932,0.0038993467431864054,-3.939887151554225,0.19283396592136443,0.0,0.8321921922644611,0.20480230112282008,-2.3424095045923967,-0.4983544541058508,-0.849285837955648,0.0585404386142826,-10.19,-0.06071327911821317,-0.12541489182639326,-0.052742077328948894,342.59043754145137,230.69224649523898,0.0,0.0
0.347999999999999,-0.06015308878249817,-3.9705857566966527,1.6187480317390657,-7.446196876330887,22.13971840478595,0.2044322122779101,0.0038913019645274043,-3.9400111709328947,0.19656234703279835,0.0,0.8385277463776892,0.2142762140006893,-2.3761161084597826,-0.5806704174293158,-0.9332369719653233,0.04929378424399371,-10.19,-0.0334589834323397,-0.08940163696927839,-0.055322900366751394,333.44121004222757,262.37183867815605,0.0,0.0
0.35200000000000387,-0.06067122260494495,-3.970942197641704,1.6084098281701384,-7.59434090420513,21.897142681379474,0.2472961610434415,0.003883213636341588,-3.940135861676867,0.200310911326402,0.0,0.8438027807111705,0.22469894349737135,-2.410083921966102,-0.6593870067074761,-1.0136191916534627,0.04014564089363175,-10.19,-0.005809415930892653,-0.053731350325108396,-0.05801254429728709,324.3266442588805,290.9759033506268,0.0,0.0
0.35599999999999454,-0.0611830388167039,-3.971296559299899,1.5979330346407727,-7.7582222697141425,21.638272484118758,0.2910153049405599,0.0038750825724031216,-3.9402612112408906,0.2040792816556613,0.0,0.8480240249571123,0.2360606027604059,-2.4442508657728603,-0.7330656719430823,-1.0890145365866468,0.031247455955213464,-10.19,0.02188582271906725,-0.018943704339766554,-0.06078894364288174,315.4287781654825,317.03204678812375,0.0,0.0
0.35999999999999943,-0.061688520061664316,-3.9716487391692077,1.5873181114744122,-7.936290810643401,21.364675944988093,0.3355638671951315,0.003866909578259282,-3.940387207206542,0.20786708468684323,0.0,0.8512142577167866,0.24833620660012415,-2.4785477979807644,-0.8005429419120201,-1.1582677226567075,0.0225800110940476,-10.19,0.04937058498501194,0.014659145002510532,-0.06357340087597829,306.68880998296595,340.7725762129609,0.0,0.0
0.3640000000000043,-0.06218759645192891,-3.971998601092724,1.5765656892755409,-8.126653162124162,21.078280036937947,0.3808562864369619,0.003858695451300351,-3.940513837281146,0.21167395086660235,0.0,0.8534114737439431,0.2614855459495527,-2.5129021590974463,-0.8606136285788404,-1.2201764213296293,0.014114789971565619,-10.19,0.07620669040731223,0.0465806806241949,-0.06629507756220457,298.1736006208075,362.25172111087414,0.0,0.0
0.367999999999995,-0.06268014972394724,-3.9723459764864524,1.5656765522437888,-8.327223190316186,20.78122202320181,0.4267326389770861,0.003850440980828709,-3.940641089296712,0.2154995143899596,0.0,0.8546694344063182,0.27545264826726,-2.5472400530440273,-0.9120857319589856,-1.273548103696622,0.0057694767998987175,-10.19,0.10206421054968706,0.07645556201044579,-0.06886364526016392,289.8248202464564,381.47801796178277,0.0,0.0
0.3719999999999999,-0.06316601817064683,-3.9726906634678634,1.5546516343627172,-8.535680144243637,20.47588420634308,0.47298520037448427,0.003842146948127388,-3.9407689512088773,0.21934341316853204,0.0,0.8550594644119887,0.29016397909117636,-2.5814865302502175,-0.9538377308855737,-1.3172580823257944,-0.0024240680045588435,-10.19,0.12657372484078905,0.10387365442885083,-0.07121673891711723,281.6933762968892,398.46596011127684,0.0,0.0
0.3760000000000048,-0.0636450175927648,-3.9730324367093157,1.543491954984777,-8.7496865330346,20.16467420681955,0.5193556522690654,0.0038338141265283504,-3.940897411095853,0.22320528879888765,0.0,0.8546675094012859,0.30553187577585367,-2.6155735450648874,-0.9851776860773699,-1.3506079276237046,-0.01048660337435482,-10.19,0.14947890583965368,0.12885298309006676,-0.07328675326606686,273.64791685627375,413.29238884309666,0.0,0.0
0.37999999999999545,-0.0641169520058391,-3.973371050783952,1.5321985948434778,-8.966877600785239,19.850036669388235,0.5655217378492426,0.0038254432814799756,-3.941026457157385,0.22708478653126848,0.0,0.853590541976638,0.3214580589621431,-2.6494443435523483,-1.0058247364755242,-1.3733081384813726,-0.018447167560857142,-10.19,0.17057645067746585,0.15129207266515068,-0.07498839893227441,265.50163971578814,425.93836379794914,0.0,0.0
0.38400000000000034,-0.06458161762663586,-3.9737062407334527,1.520772690196672,-9.184798531635094,19.53451120953578,0.6111156020545384,0.0038170351706140184,-3.9411560777137216,0.23098155523855934,0.0,0.8519345551892018,0.3378353200767953,-2.6830500950091074,-1.0155134850319192,-1.3850846934098302,-0.026328492495329543,-10.19,0.18961618736463035,0.1709478743704062,-0.07625516278088304,257.17385023533103,436.35675954295726,0.0,0.0
0.38800000000000523,-0.06503882446289709,-3.9740377352722316,1.5092153621191435,-9.401080916489732,19.220550728027884,0.6557364907075726,0.0038085905438123104,-3.9412862612045845,0.23489524738537423,0.0,0.8498135479532094,0.35454862363888984,-2.7163530621750356,-1.0141417902360779,-1.3858267675725442,-0.034139294518205424,-9.717864011563286,0.20639878214637325,0.18798950339447595,-0.07703346818045703,274.8448699366164,459.85442676372605,0.0,0.0
0.3919999999999959,-0.06548839150162923,-3.974365255533912,1.4975277312815714,-9.613444992922032,18.910524984446624,0.6989085276386501,0.0038001101432726756,-3.941416996188153,0.23882551899750754,0.0,0.8473469849315431,0.37147769062590774,-2.749326378538356,-1.0019528526728492,-1.3757691347981864,-0.04195447766589629,-8.93166913208617,0.22088944933007548,0.2022965597591304,-0.07721903658228876,306.4445929634332,489.65278461682846,0.0,0.0
0.3960000000000008,-0.06593003214292505,-3.9746884564199956,1.485711281738883,-9.819806866839668,18.606614123746436,0.740030932156851,0.0037915947035743287,-3.9415482713400567,0.24277202963162522,0.0,0.844654565899074,0.38850078427622675,-2.781910119669587,-0.9794236164458805,-1.3553879743177206,-0.05005591365084942,-8.144432251424792,0.2338531407576495,0.21259417753089188,-0.07664631759812565,334.4777277095229,515.5035878811975,0.0,0.0
0.3999999999999915,-0.06636326667428036,-3.9750068735951123,1.4737681615710423,-10.018287009414765,18.310782398454943,0.7784482063786247,0.0037830449517430634,-3.9416800754523686,0.2467344423450527,0.0,0.8418525779008983,0.4054971816177841,-2.813975870063898,-0.947261836100027,-1.3254030174719122,-0.058809965432016734,-7.3575514961456,0.24606064563162058,0.21786794750912392,-0.07522657981543039,359.55499052466774,537.7483911157461,0.0,0.0
0.40399999999999636,-0.06678745195867644,-3.9753199299480126,1.4617011148227557,-10.207163358645372,18.02481756884118,0.8135048263689675,0.0037744616073154807,-3.941812397432617,0.25071242366600865,0.0,0.8390524144389605,0.42234953052956303,-2.845351562196582,-0.9062665633598567,-1.286633052052384,-0.06841936546782916,-6.5723079910771744,0.2575937025296563,0.21836087005696148,-0.07293268709516496,382.0714364753284,556.791605193376,0.0,0.0
0.40800000000000125,-0.067201837926774,-3.975626960880973,1.4495133150712523,-10.384854660568653,17.750350145737094,0.844550116265042,0.0037658453824031654,-3.9419452263027948,0.2547056435638613,0.0,0.8363620140597281,0.43894463583436316,-2.875883517743452,-0.8571632092416361,-1.2398204601222746,-0.07893578731601228,-5.789664043807463,0.268301377967192,0.21463841162952424,-0.06974315021255689,402.28456046664866,572.9560541409493,0.0,0.0
0.41199999999999193,-0.06760561023963818,-3.9759272368740333,1.4372082315194001,-10.549924107464074,17.48885142321788,0.8709467924657903,0.003757196981756062,-3.942078551198383,0.25871377541975715,0.0,0.8338865580276211,0.45517367496867944,-2.905461459117581,-0.800627232255245,-1.1856511501697,-0.09037367820132891,-5.010323852804461,0.27805787245468006,0.20716171420689433,-0.06564661455858425,420.4087406602696,586.4938331969739,180.51980359556458,90.29371130094265
0.4159999999999968,-0.06799792877072716,-3.9762199881744746,1.424789523555359,-10.700996972545747,17.2416736919199,0.8923817159445208,0.0037485171028253496,-3.9422123613673814,0.26273649599748133,0.0,0.8317271935652325,0.47093172958343965,-2.934012424971646,-0.7373506584583323,-1.1248367065961336,-0.10222878653898529,-4.234787013623624,0.2866078090334774,0.19634026538515964,-0.06099523880284835,437.39346790314437,598.1318195222361,259.0522210753578,189.72937847385936
0.4200000000000017,-0.0683779732747684,-3.9765044392626145,1.4122610966823401,-10.836687208771096,17.00996049708674,0.9089139121021829,0.003739806435826104,-3.9423466461693426,0.266773485414417,0.0,0.8299738256044528,0.48611141967696037,-2.9614816857856114,-0.66793381955036,-1.058297186573748,-0.11343876381128368,-3.4636726613418674,0.29347978471175773,0.18281062740798137,-0.056210564955661665,454.1645522396522,608.6209797967244,319.2499983991309,252.54366929146315
0.4239999999999924,-0.06874484969976342,-3.9767797509820375,1.3996273708372833,-10.955688344291373,16.794409798636483,0.9203316403518295,0.0037310656637991905,-3.942481395074418,0.27082442711286014,0.0,0.8287004903305583,0.5006021611812697,-2.9877918481802768,-0.5926887282331548,-0.9873552976515072,-0.12361441733609706,-2.698152302509172,0.2993544214226043,0.1659135502140111,-0.050978377024885654,470.0940322846707,617.5302085860218,371.2087138626623,302.993984116547
0.42799999999999727,-0.06909749841071118,-3.9770449576802838,1.3868934494768361,-11.056700042900772,16.59535553371212,0.926486085350706,0.0037222954626726723,-3.94261659766241,0.27488900783156023,0.0,0.8279662132261263,0.5142949922912374,-3.0128170197653614,-0.5117059078899697,-0.913622463279836,-0.13333936174177455,-1.9397569768689777,0.30493841244287523,0.14486777528775133,-0.045363129838867935,485.3532864958957,624.9752393829393,418.124285298535,345.91817333099533
0.43200000000000216,-0.06943457787159411,-3.9772988846495494,1.3740655327114193,-11.138455298737169,16.41274992790331,0.9272813063135571,0.0037134965013230162,-3.9427522436218303,0.2789669175773541,0.0,0.8278160232355807,0.5270856021132293,-3.036359285867795,-0.4250968801889776,-0.8387693621171568,-0.14295808920847158,-1.1908779495151833,0.31125364733568933,0.11857237135420606,-0.03942011095860596,500.0484273691196,631.0217728734607,461.74821380129515,383.14955592889476
0.43599999999999284,-0.06975450394118707,-3.977540172771002,1.3611507369456302,-11.199738537210429,16.246207430622178,0.9227173902232623,0.0037046694416355396,-3.9428883227489666,0.28305784959715113,0.0,0.828278241053033,0.5388731133998105,-3.058186830839646,-0.333098630260457,-0.7644120607399355,-0.15244217267981747,-0.4535753814853294,0.31816741958346084,0.08761325789879032,-0.033257182220277105,514.2849993280876,635.8788038914219,502.5586023271933,416.05814854292396
0.4399999999999977,-0.0700554777944756,-3.9777673006681256,1.3481569893741256,-11.239381735807857,16.09500945610532,0.912924299973838,0.0036958149385643824,-3.943024824946959,0.2871615003501396,0.0,0.8293635871783319,0.5495614774920012,-3.078086915139894,-0.23602771958812774,-0.692113867280823,-0.16175666628834634,0.27027549529644546,0.3255570557386631,0.05248990577726984,-0.02702568865885313,528.2485914687683,639.7975530806807,540.7868638255112,445.3510012924335
0.4440000000000026,-0.0703355179189116,-3.977978614350878,1.335092909976756,-11.256255295825516,15.958095440304637,0.8981665187867267,0.003686933640192291,-3.9431617402248773,0.29127756948007966,0.0,0.8310640538930789,0.5590598144541757,-3.0958849500116368,-0.13421517098313407,-0.623432358532713,-0.17071703334202065,0.9790131089521381,0.33318895331284837,0.013802263427079884,-0.020887742917810148,542.1305856722522,643.0369407105824,576.522944224441,471.4888153544156
0.4479999999999933,-0.07059249376431066,-3.9781723619941136,1.3219676854672886,-11.249256125711543,15.83405557851273,0.8788399138346628,0.003678026187789649,-3.943299058696812,0.29540575978794453,0.0,0.8333507900548891,0.5672819912090553,-3.1114414525180463,-0.0279526400313454,-0.5599610293935197,-0.17913577299566427,1.6712096357591335,0.34073550166478567,-0.027774682393762348,-0.01500733615927781,556.115268947775,645.853319745433,609.7833071012943,494.8011810453144
0.4519999999999982,-0.07082415828569893,-3.978346730969005,1.308790946127411,-11.217297301487491,15.721129024371427,0.8554626563259695,0.003669093215873047,-3.9434367705809708,0.29954577720477726,0.0,0.83617286162609,0.5741464325177361,-3.124653860914443,0.08252347305733981,-0.5033133229816276,-0.18684463313788396,2.345669160062279,0.347804878037936,-0.07152680064394143,-0.00954327545290323,570.370231413107,648.4919186633384,640.5509517506177,515.5408426277387
0.45600000000000307,-0.07102814392072217,-3.9784998596836347,1.2955727834503807,-11.159288771103666,15.617160200971616,0.8286996584620014,0.0036601353522636723,-3.943574866198779,0.3036973307646287,0.0,0.8394559306754619,0.579575576213043,-3.135441888691983,0.19703323097465036,-0.45518946330562826,-0.19365951406684023,3.001145823757227,0.3542472155429195,-0.11706511751645383,-0.004687972470817817,585.1099599661595,651.2286520049755,668.8103082224644,533.7310865134345
0.45999999999999375,-0.07120200919312551,-3.9786298881244684,1.2823235772285182,-11.07416099399812,15.519627427937063,0.79925876996971,0.0036511532181449607,-3.9437133359739898,0.3078601325778396,0.0,0.8431007404896904,0.5834958862749785,-3.143752947123681,0.31543622671771565,-0.41728626293859306,-0.19952169710140938,3.6367299975981346,0.35947958067440156,-0.1634213547001091,-0.0005186520979660325,600.3388520093033,654.200609752125,694.5543375726672,549.7156529278249
0.46399999999999864,-0.07134334330447524,-3.978735051727044,1.269053605652002,-10.960866787400178,15.425801142158756,0.7679173348340592,0.003642147428119789,-3.9438521704318035,0.31203389780453394,0.0,0.8469862784773857,0.5858384799124071,-3.149592245329838,0.4375937292605124,-0.3910248006097794,-0.20439640704046594,4.252294173919747,0.36237529715004946,-0.20907243941905357,0.0028546257472349887,616.1254382491496,657.6066968579593,717.5928474097755,563.905447006968
0.4680000000000035,-0.07144972893412004,-3.9788136687976596,1.2557732060589413,-10.81839198105663,15.332669026202339,0.7354938867398328,0.003633118590267506,-3.943991360197988,0.31621834462818704,0.0,0.8509730614123763,0.5865394780014367,-3.1530157117923143,0.5633404339563237,-0.37753645015353665,-0.20827253336610946,4.847387841140751,0.36298222921774054,-0.25395719228161373,0.0053519574201279195,632.5181493441862,661.5548486633136,738.0697829265029,576.2968850412893
0.4719999999999942,-0.07151876691314243,-3.9788641725783376,1.242492707837685,-10.645782811907765,15.236979829074551,0.7028185743073792,0.0036240673062002335,-3.9441308959980104,0.32041319422953485,0.0,0.854904346984911,0.5855398199945603,-3.15407765202864,0.6924651550385306,-0.3779574312126225,-0.21115188505915414,5.421694778577084,0.360870841937982,-0.29735445621415063,0.006926238750965406,649.4915683511376,666.1308393842432,755.999083851669,587.0915461605208
0.4759999999999991,-0.07154810064470457,-3.9788851411329813,1.2292223761207148,-10.44217780401815,15.135290232672515,0.6707025433907806,0.003614994171118713,-3.9442707686561773,0.32461817076068905,0.0,0.8586075822949079,0.5827865934003044,-3.152844317549765,0.8246734631446297,-0.3932672219992851,-0.21309347827276598,5.9750132933485816,0.35564941307542,-0.3385617523545912,0.0075655969849663,666.9730671311904,671.3734838761324,771.4182823010526,596.511075450993
0.480000000000004,-0.0715354407362361,-3.978875324956401,1.2159723648175178,-10.206842104157214,15.02401361791222,0.6399074048010197,0.00360589977386801,-3.9444109690947746,0.3288330013193221,0.0,0.8618977807550163,0.5782344892801067,-3.1493973899253254,0.9595635139171798,-0.42421600863216957,-0.21418872754310767,6.507239062418474,0.34697157541930873,-0.3768949408591436,0.007294549581611739,684.8463047451463,677.2749350631211,784.3888324158364,604.8011122469646
0.48399999999999466,-0.07147859009374366,-3.9788336721655146,1.2027526779880422,-9.939205387001723,14.89947295439213,0.6111151265812035,0.003596784696992489,-3.9445514883332207,0.33305741592318905,0.0,0.8645810598965852,0.5718472693872251,-3.143830204376766,1.0966149539665195,-0.4713163998977638,-0.21455607212125577,7.018349701683505,0.33454596126638303,-0.41169275703535746,0.00617476548124838,702.955434400483,683.7818423399776,794.9978260878577,612.2331928501843
0.48799999999999955,-0.07137549038883313,-3.9787593651240516,1.1895730559673614,-9.638889503185261,14.757991406024928,0.5849005398819268,0.0035876495167903497,-3.9446923174872257,0.3372911474848513,0.0,0.8664586775277117,0.5635992885525414,-3.136252631373878,1.235196849244908,-0.5347713241866018,-0.21432283829221827,7.508558716196962,0.31796707676124464,-0.4421199210349254,0.004303253887095345,721.1127346884768,690.8068838783399,803.3200010341984,619.1592178271367
0.49200000000000443,-0.07122432120058066,-3.978651888520499,1.1764426585416934,-9.305714341068501,14.59606804112096,0.5616733811606529,0.0035784948033680316,-3.9448334477679534,0.34153393178646424,0.0,0.8673339939965381,0.5534761506492436,-3.1268173016526513,1.374633066379564,-0.6142537762964122,-0.2136389458621059,7.978731019442094,0.29644847320437323,-0.46688943802459804,0.0018490871338291207,739.0643770466345,698.1930050854107,809.4117084790937,626.1485411656953
0.4959999999999951,-0.07102332714358865,-3.978510912020628,1.163370832458471,-8.939827449985954,14.410119154751774,0.5417204808324955,0.0035693211206938927,-3.944974870481192,0.34578550745489844,0.0,0.8670142672350434,0.5414760222218609,-3.1156341051529237,1.514011475034843,-0.7094686231643712,-0.2126596229811311,8.428192360553002,0.2714678257720101,-0.4875057097728597,-0.0010611947452849706,756.6621843995399,705.7477933726483,813.7689374278125,632.9603088418845
0.5,-0.07077096709807658,-3.9783363871435244,1.1503666087340572,-8.541676357301766,14.196733633478969,0.5251458563384511,0.003560129026651466,-3.9451165770265355,0.3500456159370581,0.0,0.8653122539141822,0.5276119852628165,-3.1027848066362083,1.6522341397277924,-0.8200358761367388,-0.21156466369674032,8.857282752656246,0.2420908817249955,-0.5021522053265226,-0.004226044054743781,773.6004123274814,713.3212135704481,816.3608592643899,640.2661853978435
0.5040000000000049,-0.07046586695759689,-3.9781285120705183,1.1374389919154053,-8.112119054938834,13.952643336738147,0.5118775056455053,0.003550919073092589,-3.9452585588965614,0.35431400147525816,0.0,0.8620474693956182,0.5119153357617163,-3.088330059615865,1.7879742794946751,-0.9453802638673935,-0.21050409428588898,9.265765216119448,0.20898720158397344,-0.5111497859746844,-0.007444349353726683,789.6463349893345,720.6945542852054,817.5293110055554,648.1960396477089
0.5079999999999956,-0.07010690919497724,-3.9778877794151426,1.1245966928787163,-7.652371983911516,13.674865181075255,0.5016685504183988,0.0035416918058898197,-3.9454008076760263,0.3585904110829316,0.0,0.8570525585131599,0.49443664340150734,-3.0723427443707036,1.9198125633980911,-1.0845084837698973,-0.20960351701015173,9.653945907020674,0.17185255082429524,-0.5134349741184183,-0.010509101654368401,804.5424774697207,727.7099765323252,817.3731702588551,657.2014452394162
0.5120000000000005,-0.06969328783091397,-3.977614996224017,1.111847992339619,-7.163973830410594,13.360786424343184,0.49407234294807983,0.003532447764988439,-3.945543315041062,0.36287459452052906,0.0,0.8501777223792486,0.4752454782605885,-3.054912629328325,2.0464104745345413,-1.2360666647092913,-0.2089558518898676,10.022417354742387,0.13064478250690867,-0.5083860963827388,-0.013177014705906634,818.0294313159426,734.1547233262035,816.1046884517804,667.6706603634053
0.5160000000000053,-0.06922449886558049,-3.9773112634229992,1.099200865412418,-6.6487845521145115,13.008100250009353,0.48847665061570783,0.003523187484458335,-3.9456860727583756,0.3671663042714727,0.0,0.841293916616153,0.4544280809735889,-3.036132297654362,2.166528606606757,-1.398542553303688,-0.20864215788436608,10.19,0.08579435230891391,-0.4960311594112361,-0.015236500761643623,826.7026993909675,736.2396010177739,810.7436701660589,675.8538634102296
0.519999999999996,-0.06870037825891331,-3.976977980179291,1.0866629017375211,-6.108979577413514,12.614901903233951,0.48410766346358,0.003513911492545185,-3.945829072684462,0.371465295518436,0.0,0.8302936743430929,0.4320859122929252,-3.016078061415738,2.278930111232551,-1.5703648326140986,-0.2087432664976842,10.19,0.03746982954941436,-0.4759786214207017,-0.016473811360444186,831.0060184877481,734.4647211007942,802.035234939136,682.8615520730289
0.5240000000000009,-0.06812109483457103,-3.9766168242801,1.074241418156005,-5.547370474800115,12.179815301521224,0.4800430336628729,0.003504620311721228,-3.9459723067648187,0.37577132611981223,0.0,0.8170933421735367,0.4083394456785122,-2.9948020075393007,2.3817841806302615,-1.7496213530435951,-0.20929379727794695,10.19,-0.013491995413497437,-0.4484990907121217,-0.01668374129384419,833.6673983717211,731.9669079041057,793.3217107988386,692.4114560639649
0.5279999999999916,-0.06748729803654689,-3.9762298000816925,1.0619428062619611,-4.967121147759034,11.701981345674906,0.4752677571322367,0.00349531445873597,-3.946115767033167,0.3800841565862164,0.0,0.8016376592184601,0.3833320875573012,-2.9723990061652517,2.473118417526723,-1.934129761284261,-0.2102992718889499,10.19,-0.06731630716867679,-0.4120805283890287,-0.015720200085321073,834.409697637476,728.7076604814607,784.5823243219825,704.8021176852942
0.5319999999999965,-0.06680012137719704,-3.975819204008341,1.0497724924772296,-4.371433832961668,11.180957789371968,0.46871942108924536,0.0034859944446659873,-3.9462594456106825,0.38440355005740184,0.0,0.7838992830584953,0.3572248117933839,-2.949017881802758,2.551664207059199,-2.1218281901330136,-0.21168215514220007,10.19,-0.12365336623071163,-0.36667974451703256,-0.013486077929036104,833.0908848983846,724.6009475520185,775.9646322710747,719.9734581624152
0.5360000000000014,-0.06606114909881201,-3.975387579042535,1.0377350757817185,-3.764018045273419,10.617027499129346,0.45930808869709433,0.003476660774964836,-3.946403334705226,0.38872927227913107,0.0,0.7638779009715728,0.3301887615688544,-2.924818314919225,2.616177354971721,-2.3103573615842037,-0.2133276663415636,10.19,-0.18144930874676424,-0.3130592670616575,-0.009905472506486476,829.5872604150334,719.5707431103252,767.7669888178616,737.6358319565796
0.539999999999992,-0.06527238108683099,-3.9749376665013334,1.0258344516755364,-3.149076521445159,10.011291111098133,0.4459617415091257,0.0034673139495122332,-3.946547426610585,0.39306109158038216,0.0,0.7416051141992902,0.30240999878877867,-2.8999123716568107,2.6647299892991794,-2.4967169097864703,-0.21508403899856035,10.19,-0.23956454928391002,-0.25217984831531937,-0.004954359142015283,823.8255956431786,713.5883414398514,760.2699492334488,757.4051213880462
