Time_s,X,Y,Z,Roll_deg,Pitch_deg,Yaw_deg,Ref_X,Ref_Y,Ref_Z,Ref_Yaw,vx,vy,vz,p,q,r,T_pert,tau_x,tau_y,tau_z,RPM_0,RPM_1,RPM_2,RPM_3
0.0040000000000000036,3.540239794309915e-22,6.0,0.010006999594037988,1.030927412343402e-18,1.9273866450044995e-18,-5.1486728461073835e-21,2.3110657071748654e-22,6.0,0.010074639714689831,1.7916199615202707e-22,2.453515573794988e-19,1200.0,2.0013999188075973,0.0,0.0,0.0,0.13727673356390743,-1.2038473377160515e-18,-3.683021169308074e-18,1.800587151680914e-20,539.3555031529193,539.3555031529194,539.3555031529193,539.3555031529194
0.007999999999999993,1.9812678274751357e-22,6.0,0.01001099936604295,6.771774911299838e-19,3.7479884741046936e-19,6.830176131541204e-20,2.3109003058650283e-22,6.0,0.01021705724096241,1.7914917365687059e-22,1.1897873311512525e-19,666.6666666666666,1.112333262893661,0.0,0.0,0.0,0.28307763445396705,3.425879812716135e-19,4.826921632935392e-18,-8.516963572556575e-20,543.2938902409246,543.2938902409246,543.2938902409246,543.2938902409246
0.011999999999999997,4.650549306256663e-22,6.0,0.01001499914698505,3.027955750893863e-20,9.871865462471403e-19,1.5846828908970345e-19,2.310653696959898e-22,6.0,0.010429397942859043,1.7913005566140433e-22,3.90395359161479e-20,1.1343985423201047e-23,0.000999943862433142,0.0,0.0,0.0,0.42940121623182737,7.090966710491004e-19,-5.538464626732499e-18,-1.0771323909531772e-19,547.2178991685612,547.2178991685613,547.2178991685612,547.2178991685613
0.016,5.779519483588851e-22,6.0,0.010018998945947417,-6.247653014992844e-19,1.4254291234175257e-18,2.0433712342266737e-19,2.310326863828539e-22,6.0,0.010710815098006973,1.7910471839987987e-22,3.3146518766413525e-20,1.7652229185481906e-24,0.0009999466232158902,0.0,0.0,0.0,0.5762362187708127,7.628465149807112e-19,9.919685906911802e-19,-5.966951738995016e-20,551.1275383023295,551.1275383023296,551.1275383023295,551.1275383023295
0.020000000000000004,5.83014089069692e-22,6.0,0.010022998767071863,-5.949192552025995e-19,1.6463825639220122e-18,4.0946742555347715e-20,2.3099207809276586e-22,6.0,0.0110604696579496,1.790732374156313e-22,2.4827526882338168e-20,-6.639323627860606e-24,0.0009999512378911987,0.0,0.0,0.0,0.723571510250227,7.870738175443635e-21,8.039408533826652e-19,1.8289434333477571e-19,555.0228180367124,555.0228180367125,555.0228180367124,555.0228180367124
0.024000000000000007,4.638231752747063e-22,6.0,0.010026998611622725,-2.454020349322288e-18,1.1939140144399176e-18,-1.7030449191274094e-19,2.309436413873475e-22,6.0,0.011477530186265229,1.7903568756664676e-22,-1.4517859565783146e-21,-2.126010945423717e-23,0.0009999567755623884,0.0,0.0,0.0,0.8713960705056639,2.211614565656411e-18,1.855833572140782e-18,2.4551224313327026e-19,558.9037502903185,558.9037502903185,558.9037502903185,558.9037502903185
0.027999999999999997,4.915133815077899e-22,6.0,0.010030998479425637,-2.4918702194815948e-18,1.0610079946781064e-18,1.3268441122127562e-19,2.308874719513042e-22,6.0,0.011961172797154362,1.789921430310976e-22,1.3199988057620006e-21,-3.1797571130382095e-23,0.000999962582035746,0.0,0.0,0.0,1.01969899124054,2.1201025232241607e-19,-1.5417493946868076e-18,-3.465273883870031e-19,562.7703484616713,562.7703484616715,562.7703484616713,562.7703484616715
0.032,5.079148048822997e-22,6.0,0.010034998369028512,-2.6035850204133326e-18,1.1660325664745422e-18,2.299772593144502e-19,2.308236645995032e-22,6.0,0.012510581094492131,1.7894267731282594e-22,1.0849180426482861e-20,-4.2037665330912766e-23,0.000999968262379615,0.0,0.0,0.0,1.1684694775899649,3.0085298884846296e-19,-8.939088331781014e-20,-1.186840675406634e-19,566.6226274222763,566.6226274222764,566.6226274222763,566.6226274222764
0.036000000000000004,4.294832239834014e-22,6.0,0.010038998278585218,-2.908671522545788e-18,5.186581931473786e-19,2.3392384031238104e-19,2.307523132839982e-22,6.0,0.013124946111342446,1.7888736324679027e-22,-9.891838490289298e-21,-4.640974408068278e-23,0.0009999735911639038,0.0,0.0,0.0,1.3176968456730545,5.342987119744466e-19,1.7647384226006542e-18,-1.3636531983451587e-20,570.460603407695,570.4606034076951,570.460603407695,570.460603407695
0.04000000000000001,3.1043942326892967e-22,6.0,0.01004299820618662,-3.66127013017319e-18,-7.425774129396692e-21,2.3787042131031187e-19,2.3067351110100106e-22,6.0,0.013803466249930549,1.7882627300447015e-22,-1.5185492559497083e-20,-5.275780404109807e-23,0.0009999784559120914,0.0,0.0,0.0,1.467370522718138,1.0777356340561401e-18,1.1149044875839875e-18,-1.379910804183894e-20,574.2842939790286,574.2842939790287,574.2842939790286,574.2842939790286
0.044,4.249162195455384e-22,6.0,0.010046998149797265,-3.377919013558753e-18,5.166880609016007e-19,1.389689747878217e-19,2.3058735029780027e-22,6.0,0.014545347222070593,1.787594780992297e-22,-2.285142030764714e-21,-5.818305721557519e-23,0.0009999828377979178,0.0,0.0,0.0,1.6174800468920005,-8.051194191826999e-20,-3.23509341706107e-18,1.0618106658294805e-19,578.0937179789402,578.0937179789403,578.0937179789402,578.0937179789403
0.048,4.170818537012806e-22,6.0,0.010050998107575272,-3.2900504105300976e-18,6.564232203161815e-19,3.531664805274289e-20,2.3049392227962713e-22,6.0,0.015349801990044966,1.7868704939164056e-22,4.893885510095952e-21,-5.995065651085253e-23,0.0009999867330464512,0.0,0.0,0.0,1.7680150655710825,1.2838310062349842e-19,1.1297017445153282e-18,1.1579152335755662e-19,581.8888954507267,581.8888954507269,581.8888954507267,581.8888954507269
0.052000000000000005,4.338170656518291e-22,6.0,0.010054998078078437,-3.510368611222833e-18,7.426897545895456e-19,1.30234056039623e-19,2.3039331761647e-22,6.0,0.016216050707932004,1.786090570947644e-22,2.3465994533832274e-21,-5.949045353175049e-23,0.0009999901941936187,0.0,0.0,0.0,1.9189653346166577,4.822541519569798e-19,-4.2756940583251636e-19,-1.1191357129482542e-19,585.6698475860549,585.669847586055,585.6698475860549,585.6698475860549
0.05600000000000001,4.407273725636944e-22,6.0,0.01005899805979779,-3.615114295447194e-18,7.2218782086804165e-19,2.2752690413279734e-19,2.302856260498366e-22,6.0,0.01714332066337891,1.7852557077939534e-22,2.771362525016034e-21,-6.099930433330412e-23,0.0009999932808811215,0.0,0.0,0.0,2.0703207187950534,3.623622615314377e-19,7.145915261181331e-20,-1.1858662639345465e-19,589.4365967035329,589.436596703533,589.4365967035329,589.436596703533
0.06,4.393720683290881e-22,6.0,0.010062998051505852,-3.681001219892192e-18,7.4991232457644955e-19,2.290980450244337e-19,2.30170936499465e-22,6.0,0.01813084621981657,1.7843665937926265e-22,2.856555487399005e-21,-6.29209452910182e-23,0.000999996018498199,0.0,0.0,0.0,2.222071189208295,3.2414838721117204e-19,6.4337544727354166e-21,-1.0764252876823482e-20,593.189166154809,593.1891661548091,593.189166154809,593.189166154809
0.064,4.3669866340833785e-22,6.0,0.010067320180848565,2.1285122887902238e-19,7.350174115729272e-19,7.639128443685299e-19,2.3004933706998385e-22,6.0,0.019177868759113068,1.783423911961939e-22,-6.3696800138237305e-22,-5.37919204732028e-23,0.0010322113212580045,0.0,0.0,0.0,2.373553057808943,-4.295262055953836e-18,-1.980488478959381e-20,-6.337422515064936e-19,596.9115654723595,596.9115654723596,596.9115654723595,596.9115654723595
0.068,7.589197327635936e-22,6.0,0.010075652559057041,7.379499964934091e-18,-3.183901469242283e-17,-4.0672154159141366e-20,2.2992091505752197e-22,6.0,0.02028363662466268,1.7824283390523892e-22,3.2181666077620175e-20,4.6363163742798083e-23,0.0014654504602872737,0.0,0.0,0.0,2.5179149184599727,-8.383283174553403e-18,3.420133982002391e-17,9.089267190246317e-19,600.4375281384812,600.4375281384813,600.4375281384812,600.4375281384812
0.07200000000000001,1.1458401863762863e-21,6.0,0.010093184776995572,1.4546095910489283e-17,-7.697053079580226e-17,1.0178845432122377e-18,2.2978575695626755e-22,6.0,0.02144740506490721,1.781380545597548e-22,7.253033002103068e-20,4.465106518149515e-22,0.0028186726211489738,0.0,0.0,0.0,2.651982193527628,-8.87329397015996e-18,5.385213597500743e-17,-1.234479134679684e-18,603.6936078212592,603.6936078212593,603.6936078212592,603.6936078212592
0.07600000000000001,1.4210618994753755e-21,6.0,0.01012463201499839,2.0973559907864647e-17,-1.2984243758564163e-16,3.631038853921404e-18,2.296439484649778e-22,6.0,0.02266843617728647,1.7802811959645234e-22,9.274168487651739e-20,1.4794779036324427e-21,0.005398250866309531,0.0,0.0,0.0,2.7765426246269334,-8.500254479910162e-18,6.797508775341425e-17,-3.0939633113177326e-18,606.7031357944988,606.703135794499,606.7031357944988,606.703135794499
0.08000000000000002,1.4255141309370217e-21,6.0,0.010174272624011473,2.444480032858442e-17,-1.9118102731408668e-16,6.3636692728950525e-18,2.2949557449343874e-22,6.0,0.023945998852614794,1.7791309484040405e-22,7.223234582249162e-20,3.3308377095947954e-21,0.009130941664874971,0.0,0.0,0.0,2.892322888940414,-5.487701673399904e-18,8.342084597700211e-17,-3.3408354228520427e-18,609.4871985310647,609.4871985310648,609.4871985310647,609.4871985310648
0.08399999999999999,9.343331081953635e-22,6.0,0.010245993332485123,2.8285298451264484e-17,-2.580419006767164e-16,8.177793764503794e-18,2.293407191688764e-22,6.0,0.025279368719880475,1.7779304551001407e-22,9.184960431761521e-21,5.9644980274391985e-21,0.013910137895208063,0.0,0.0,0.0,2.999971925462655,-6.156267508791423e-18,9.690851557440959e-17,-2.3800864619163445e-18,612.0643762478348,612.0643762478348,612.0643762478348,612.0643762478348
0.088,-1.229207361994442e-22,6.0,0.010343329849170062,3.2495037514778986e-17,-3.4523275433758575e-16,1.0094766283632958e-17,2.2917946584231875e-22,6.0,0.026667828091465062,1.7766803622195042e-22,-6.985026347821983e-20,9.780180260242461e-21,0.019640328651091173,0.0,0.0,0.0,3.100068838649311,-6.85006448925999e-18,1.2645705518406617e-16,-2.5747236252319433e-18,614.4510535182006,614.4510535182008,614.4510535182006,614.4510535182008
0.092,-1.8667095595963535e-21,6.0,0.010469489514390284,3.448743700739665e-17,-4.671030379250956e-16,1.149987410526631e-17,2.2901189709490944e-22,6.0,0.028110665908779343,1.7753813099603955e-22,-1.5697354054801042e-19,1.4676958532633398e-20,0.026234529705032244,0.0,0.0,0.0,3.19315803750354,-4.5486771817398646e-18,1.7479907844537938e-16,-2.0555023996555985e-18,616.662351456024,616.6623514560241,616.662351456024,616.6623514560241
0.096,-4.97798439842491e-21,6.0,0.010627362035778923,3.1675937192342986e-17,-5.952668073015118e-16,1.2998328193994903e-17,2.2883809474417365e-22,6.0,0.029607177688313134,1.7740339326012374e-22,-2.6872619855473926e-19,1.9822533834729413e-20,0.033611069706814,0.0,0.0,0.0,3.279772696712593,9.24746665272591e-19,1.9900345318470242e-16,-2.222244478271409e-18,618.712751416484,618.7127514164843,618.712751416484,618.7127514164843
0.1,-1.0100813608152017e-20,6.0,0.010819638910699205,1.740935814221118e-17,-7.105240023436654e-16,1.4606756630562802e-17,2.286581398502359e-22,6.0,0.031156665468095743,1.7726388585488156e-22,-4.952037083419472e-19,2.0905162296985494e-20,0.04170169265075869,0.0,0.0,0.0,3.360213833410716,1.4493470817837258e-17,2.01365973656248e-16,-2.4122438898676023e-18,620.610940516286,620.6109405162861,620.610940516286,620.6109405162861
0.10400000000000001,-1.7582382517449053e-20,6.0,0.011048807668735524,6.837394939253968e-18,-8.198524858120211e-16,1.6760305926114636e-17,2.284721127219908e-22,6.0,0.03275843775456411,1.771196710386115e-22,-8.194446502582134e-19,1.6454741027696905e-20,0.05045195950661545,0.0,0.0,0.0,3.4348005548355607,1.1154730718496827e-17,2.080886440474284e-16,-3.1150791438021477e-18,622.3658088645454,622.3658088645457,622.3658088645454,622.3658088645457
0.10800000000000001,-2.7732529842082504e-20,6.0,0.011317146034618024,-1.5178064154758291e-18,-9.324791693332065e-16,1.944947432022522e-17,2.282800929232266e-22,6.0,0.034411809469835686,1.769708104919793e-22,-1.1936082356627105e-18,8.272553913032036e-21,0.059810532965251,0.0,0.0,0.0,3.503870403319668,9.289082015122492e-18,2.2505676227660524e-16,-3.829199262643684e-18,623.9864755978123,623.9864755978124,623.9864755978123,623.9864755978123
0.11200000000000002,-4.1169563287684344e-20,6.0,0.011626677795309112,-6.1781270232963616e-18,-1.0278398259737255e-15,2.0165526670597447e-17,2.2808215927870237e-22,6.0,0.03611610189938309,1.7681736532272897e-22,-1.641810705114668e-18,7.239370372774072e-23,0.06972161340976259,0.0,0.0,0.0,3.567857264397755,5.5457985544207245e-18,2.2211522471439954e-16,-1.6347142800089938e-18,625.4841271875014,625.4841271875016,625.4841271875014,625.4841271875015
0.11600000000000002,-5.82475941767871e-20,6.0,0.011979290628842098,-5.6654112680315894e-18,-1.1080840766697642e-15,1.9214631619686293e-17,2.278783898801784e-22,6.0,0.03787064264010755,1.7665939607035804e-22,-2.1709976586356324e-18,-6.2859399555676466e-21,0.08013390537049014,0.0,0.0,0.0,3.6269640698479826,-1.7623981639585168e-19,2.1797022290175116e-16,2.831398012731103e-19,626.8643789613332,626.8643789613334,626.8643789613332,626.8643789613334
0.12,-7.907154414883518e-20,6.0,0.012376697417891668,-1.0880376362050535e-18,-1.1946006434691249e-15,1.6405345753088674e-17,2.2766886209240103e-22,6.0,0.03967476554880826,1.76496962710757e-22,-2.750092003529997e-18,-7.531893741452717e-21,0.09100567934543398,0.0,0.0,0.0,3.6814766915102295,-4.957733218656344e-18,2.351944565857931e-16,2.493080281337196e-18,628.1346596744914,628.1346596744917,628.1346596744914,628.1346596744916
0.124,-1.0404810268392376e-19,6.0,0.01282050521915406,4.598037923225554e-18,-1.2796286553873594e-15,1.3081819748888954e-17,2.2745365255904167e-22,6.0,0.041527810691044824,1.763301246608136e-22,-3.3570729908984435e-18,-2.0982475786400802e-21,0.10230153236109404,0.0,0.0,0.0,3.731546685198549,-6.5654120445184354e-18,2.4742657347243006e-16,3.2091517196568257e-18,629.2991568225739,629.299156822574,629.2991568225739,629.2991568225739
0.128,-1.3351584026216241e-19,6.0,0.01331219281410813,1.2501299914529233e-17,-1.3624114867883115e-15,9.87064353263483e-18,2.272328372085905e-22,6.0,0.04342912429038966,1.7615894078298172e-22,-4.0024726557121806e-18,9.07568534934277e-21,0.11399014856704055,0.0,0.0,0.0,3.777374627259296,-9.543319804700701e-18,2.5825903576408353e-16,3.2143833908002085e-18,630.3631093820974,630.3631093820975,630.3631093820974,630.3631093820975
0.132,-1.678879007441838e-19,6.0,0.013853118269462943,3.222899992525964e-17,-1.4344670943469764e-15,6.6689690768058846e-18,2.2700649126020523e-22,6.0,0.04537805867806791,1.7598346938981565e-22,-4.707815790733921e-18,3.211171067899113e-20,0.1260412437531744,0.0,0.0,0.0,3.8191499247736482,-2.3891542951565446e-17,2.602287853230791e-16,3.335144371278007e-18,631.3314125717795,631.3314125717798,631.3314125717795,631.3314125717797
0.136,-2.0752272670950808e-19,6.0,0.01444452830223906,6.15644169766299e-17,-1.4895221476857554e-15,6.951487581381595e-19,2.267746892295152e-22,6.0,0.047373972242981614,1.7580376824846954e-22,-5.4896115783203935e-18,7.899849244054408e-20,0.13842518415955166,0.0,0.0,0.0,3.857046911690524,-3.6459812318607045e-17,2.5389470139127144e-16,6.704919458158921e-18,632.2085380618223,632.2085380618225,632.2085380618223,632.2085380618224
0.14,-2.5333560926078827e-19,6.0,0.015087561265059946,1.241562837925935e-16,-1.4613681138551306e-15,-6.8814820789430035e-18,2.265375049343812e-22,6.0,0.0494162293821156,1.7561989458516264e-22,-6.455044496164428e-18,1.7520048673963555e-19,0.15111408722936587,0.0,0.0,0.0,3.891237497821421,-7.730047150286792e-17,1.7592434763022147e-16,8.822559179601512e-18,632.9988360199977,632.998836019998,632.9988360199977,632.998836019998
0.14400000000000002,-3.0544915278224927e-19,6.0,0.015783246176188193,2.10768175614772e-16,-1.3378867949630864e-15,-1.6402723678486993e-17,2.2629501150061117e-22,6.0,0.05150420045132223,1.7543190508961035e-22,-7.714548376569164e-18,3.5586494211605926e-19,0.16408072542674262,0.0,0.0,0.0,3.9218991005745742,-1.0962961319346282e-16,6.969812556304481e-17,1.1405292186561769e-17,633.706725085293,633.7067250852931,633.706725085293,633.7067250852931
0.14800000000000002,-3.6321881866675347e-19,6.0,0.016532544473344575,3.1585792638727673e-16,-1.146749646606343e-15,-2.8205625404330594e-17,2.2604728136763237e-22,6.0,0.05363726171648213,1.7523985591942145e-22,-9.236056015023045e-18,6.429100194674377e-19,0.1773018219644798,0.0,0.0,0.0,3.949127966913709,-1.3712953432295617e-16,-1.950679910710119e-17,1.4461604117714288e-17,634.3346997850653,634.3346997850654,634.3346997850653,634.3346997850654
0.152,-4.260617651353685e-19,6.0,0.017336335264947673,4.3166606525163893e-16,-8.83185054850549e-16,-3.8757722719185086e-17,2.257943862941201e-22,6.0,0.0558147953050383,1.7504380270446173e-22,-1.091458609014652e-17,1.0300648000343448e-18,0.19075750397776725,0.0,0.0,0.0,3.9730525147166142,-1.5683202977908128e-16,-1.1866653809074862e-16,1.3485131182494166e-17,634.8859549039894,634.8859549039894,634.8859549039894,634.8859549039894
0.156,-4.935723699490454e-19,6.0,0.018195418765231727,5.511716131081441e-16,-4.979956442929784e-16,-4.9625490436919706e-17,2.2553639736358333e-22,6.0,0.05803618915790083,1.7484380055118416e-22,-1.2850102742290976e-17,1.5055111983369987e-18,0.20442819539405158,0.0,0.0,0.0,3.993796898023648,-1.6906884928923264e-16,-2.785929923540272e-16,1.4287186476405392e-17,635.3635474319143,635.3635474319143,635.3635474319143,635.3635474319143
0.16,-5.644756749702327e-19,6.0,0.01911052100386229,6.765911275885528e-16,1.3535860101866809e-17,-5.861823925822381e-17,2.2527338498990793e-22,6.0,0.06030083698171933,1.746399040469261e-22,-1.5115922663965334e-17,2.062871144674762e-18,0.21829444890263047,0.0,0.0,0.0,4.011478310469604,-1.8414685255206124e-16,-4.627618888344816e-16,1.2543132692280137e-17,635.7703387606518,635.7703387606518,635.7703387606518,635.7703387606518
0.164,-6.363901549105491e-19,6.0,0.020082298053590332,8.101411105502787e-16,5.938014679368402e-16,-6.719484508923366e-17,2.2500541892285698e-22,6.0,0.06260813820152066,1.7443216726417344e-22,-1.7624841487055833e-17,2.704209886580194e-18,0.23233796784615546,0.0,0.0,0.0,4.02620781283661,-2.0221754790687348e-16,-6.022140259703494e-16,1.2426282343173229e-17,636.1090176948965,636.1090176948964,636.1090176948965,636.1090176948964
0.168,-7.067905322231738e-19,6.0,0.02111133984305533,9.43691972599345e-16,1.205141525922646e-15,-7.710134895769008e-17,2.2473256825352944e-22,6.0,0.06495749791370911,1.742206437647923e-22,-2.015887859519766e-17,3.4321858630798448e-18,0.24654148856912625,0.0,0.0,0.0,4.038091039758633,-2.113510390782898e-16,-7.060254454124018e-16,1.433199583990267e-17,636.3821201802558,636.3821201802558,636.3821201802558,636.3821201802558
0.17200000000000001,-7.734146943059627e-19,6.0,0.02219817194150513,1.077981697920465e-15,1.849770861603117e-15,-8.657745719521443e-17,2.244549014197767e-22,6.0,0.06734832683942642,1.740053866042282e-22,-2.254505954694328e-17,4.238191526587536e-18,0.26088851299070515,0.0,0.0,0.0,4.047232193722492,-2.2134635840429404e-16,-8.135860719146074e-16,1.4236017864620213e-17,636.5921241166433,636.5921241166432,636.5921241166433,636.5921241166433
0.17600000000000002,-8.339347398541091e-19,6.0,0.023343254802237777,1.2226168456343054e-15,2.5358171716456782e-15,-9.5740270469965e-17,2.2417248621157785e-22,6.0,0.0697800412782689,1.737864483356731e-22,-2.4829966868210528e-17,5.1274032291441105e-18,0.27536283166214726,0.0,0.0,0.0,4.053739145257249,-2.426100932565227e-16,-9.355897598614263e-16,1.4259158551987198e-17,636.7415691097897,636.7415691097895,636.7415691097897,636.7415691097895
0.18000000000000002,-8.8547865116225e-19,6.0,0.02454699574825028,1.3761192957760852e-15,3.2337179435332315e-15,-1.0581208791165527e-16,2.238853897763738e-22,6.0,0.07225206306235925,1.735638810142006e-22,-2.6978577526022118e-17,6.123945172838338e-18,0.2899493596877533,0.0,0.0,0.0,4.057697596061285,-2.62855224064017e-16,-1.0342320393184335e-15,1.5697273000313464e-17,636.8324655937039,636.8324655937038,636.8324655937039,636.8324655937038
0.184,-9.253653039835979e-19,6.0,0.0258097547774392,1.5384887309557583e-15,3.94051312515346e-15,-1.1424783867344399e-16,2.235936786243603e-22,6.0,0.07476381951077025,1.7333773620086924e-22,-2.890842904756407e-17,7.245877723028467e-18,0.30463492654962987,0.0,0.0,0.0,4.059183239723927,-2.837063514192774e-16,-1.1304707699543968e-15,1.4199668879016016e-17,636.8665765473226,636.8665765473223,636.8665765473226,636.8665765473223
0.188,-9.508336000417842e-19,6.0,0.027131840491100644,1.7023345490717471e-15,4.648808365097343e-15,-1.2537426623150767e-16,2.2329741863374043e-22,6.0,0.07731474338429796,1.7310806496679463e-22,-3.0554490472090854e-17,8.487429677017229e-18,0.319407111258449,0.0,0.0,0.0,4.058281621057899,-2.9653357874224185e-16,-1.221950780824149e-15,1.7689203157496687e-17,636.8458752516606,636.8458752516602,636.8458752516606,636.8458752516602
0.192,-9.592495658212273e-19,6.0,0.028513508578479854,1.872828966786198e-15,5.365250161086059e-15,-1.3885669666211588e-16,2.229966750559372e-22,6.0,0.07990427284058149,1.7287491789719012e-22,-3.192937845448906e-17,9.843424913054396e-18,0.3342531185028141,0.0,0.0,0.0,4.055083077837233,-3.155015295900799e-16,-1.322243426591281e-15,2.0898273213965675e-17,636.7724308056596,636.7724308056593,636.7724308056596,636.7724308056594
0.196,-9.47793328257941e-19,6.0,0.02995496947580066,2.0374079022854067e-15,6.0802270990556975e-15,-1.5036838648909202e-16,2.226915125207656e-22,6.0,0.08253185138956737,1.7263834509537655e-22,-3.301508622924036e-17,1.1296762123652907e-17,0.3491604770340238,0.0,0.0,0.0,4.049664168851673,-3.2025264208508465e-16,-1.4163875454430745e-15,1.914976775763106e-17,636.6479833340726,636.6479833340721,636.6479833340726,636.6479833340724
0.2,-9.133604865887478e-19,6.0,0.031456391061161056,2.1968086688794812e-15,6.7567830082917655e-15,-1.620810214908964e-16,2.223819950415653e-22,6.0,0.08519692784931539,1.7239839618676131e-22,-3.372141185058282e-17,1.2827836916153125e-17,0.3641178494619031,0.0,0.0,0.0,4.042097504015733,-3.254602245124258e-16,-1.4731268382303244e-15,1.9857209743183202e-17,636.4741710566224,636.474171056622,636.4741710566224,636.4741710566221
0.20400000000000001,-8.532842677811056e-19,6.0,0.033017894060903025,2.3628542903711616e-15,7.390473851863986e-15,-1.7501833106252068e-16,2.220681860202939e-22,6.0,0.08789895630214385,1.7215512032278675e-22,-3.389251526007938e-17,1.4433522724140175e-17,0.3791140677888182,0.0,0.0,0.0,4.0324664501133345,-3.441198393844576e-16,-1.5197521140152658e-15,2.1768780995116688e-17,636.2528694481,636.2528694480998,636.2528694481,636.2528694480998
0.20800000000000002,-7.6527075357990925e-19,6.0,0.03463955676001887,2.5296320942520554e-15,7.995332934081775e-15,-1.8992163035756443e-16,2.2175014825258103e-22,6.0,0.0906373960511115,1.7190856618484825e-22,-3.350027114555972e-17,1.61346968752418e-17,0.3941380147508129,0.0,0.0,0.0,4.020846394036103,-3.563294259595656e-16,-1.5779558265604845e-15,2.459661464473046e-17,635.9857621997148,635.9857621997144,635.9857621997148,635.9857621997145
0.21200000000000002,-6.471076690298276e-19,6.0,0.0363214172817494,2.7037923057200033e-15,8.581698772197847e-15,-2.0690326916397322e-16,2.214279439327436e-22,6.0,0.0934117115768337,1.7165878198818237e-22,-3.2655406630435566e-17,1.7951109522663885e-17,0.4091790735144679,0.0,0.0,0.0,4.00730952546955,-3.763547643100609e-16,-1.6474916233336844e-15,2.7636420472558693e-17,635.6744521386644,635.6744521386639,635.6744521386644,635.674452138664
0.21600000000000003,-4.968288418079479e-19,6.0,0.03806347705519029,2.8823786257639538e-15,9.17469321266945e-15,-2.1964913532119447e-16,2.211016346587627e-22,6.0,0.09622137249463046,1.7140581548572489e-22,-3.1475361330939796e-17,1.9889866586436795e-17,0.4242274897125746,0.0,0.0,0.0,3.991922352619139,-3.934327630747698e-16,-1.7443687542560204e-15,2.3385688151228087e-17,635.3204050173886,635.3204050173881,635.3204050173886,635.3204050173882
0.22000000000000003,-3.1218525509101182e-19,6.0,0.03986570528802691,3.0653902750077697e-15,9.77209582514902e-15,-2.326006975334565e-16,2.207712814372218e-22,6.0,0.09906585351200385,1.7114971397193943e-22,-3.007163588648553e-17,2.195861390908869e-17,0.4392743836353061,0.0,0.0,0.0,3.9747435512133347,-4.1081251954043986e-16,-1.8443575259356296e-15,2.4149359145344132e-17,634.9249006452006,634.9249006452002,634.9249006452006,634.9249006452003
0.22400000000000003,-9.091465901899034e-20,6.0,0.04172802286367504,3.2498705755154685e-15,1.037094716827572e-14,-2.483196547283447e-16,2.2043694468820766e-22,6.0,0.10194463438644233,1.708905242866164e-22,-2.845414517085022e-17,2.4151580014480587e-17,0.4543099805417311,0.0,0.0,0.0,3.9558655798825573,-4.2504228190271844e-16,-1.9435597844716596e-15,2.791394610563897e-17,634.4899922797572,634.4899922797566,634.4899922797572,634.4899922797567
0.22800000000000004,1.6922976974222118e-19,6.0,0.04365030885884547,3.434340331974057e-15,1.0969765284968668e-14,-2.6746110211268237e-16,2.200986842501729e-22,6.0,0.10485719988354963,1.706282928186429e-22,-2.6601563258787912e-17,2.6456465085534365e-17,0.46932349380059557,0.0,0.0,0.0,3.9353692844993633,-4.376451698346869e-16,-2.0431996885694684e-15,3.2557425996807475e-17,634.0174633794204,634.01746337942,634.0174633794204,634.01746337942
0.23200000000000004,4.704695590196635e-19,6.0,0.045632410507932965,3.618798315663053e-15,1.1568546185332182e-14,-2.8689684093894353e-16,2.197565593847616e-22,6.0,0.10780303973549585,1.7036306550974365e-22,-2.4498254633932955e-17,2.885942152360787e-17,0.4843050581064524,0.0,0.0,0.0,3.913316694528456,-4.502459019228523e-16,-2.144798164362975e-15,3.3687213545821284e-17,633.5086614943464,633.5086614943459,633.5086614943464,633.5086614943459
0.236,8.150465928338604e-19,6.0,0.047674150496174184,3.8061993778162156e-15,1.2164329798922315e-14,-3.053017240498942e-16,2.1941062878159734e-22,6.0,0.11078164859978819,1.7009488785819281e-22,-2.2138032691705745e-17,3.136024303147827e-17,0.4992471630834814,0.0,0.0,0.0,3.8897561261560085,-4.662963044732703e-16,-2.2454380825666e-15,3.328110421949081e-17,632.9646153195854,632.9646153195848,632.9646153195854,632.9646153195849
0.24,1.2058143049735829e-18,6.0,0.049775330827854285,3.996542912992832e-15,1.2692076605417711e-14,-3.2258715605865163e-16,2.190609505630349e-22,6.0,0.11379252601835947,1.698238049224977e-22,-1.9320654425186623e-17,3.3974600880388644e-17,0.5141437080354013,0.0,0.0,0.0,3.8647289002381946,-4.825472547176903e-16,-2.2793552148557498e-15,3.272917121485423e-17,632.3861893320221,632.3861893320216,632.3861893320221,632.3861893320217
0.244,1.645279245673726e-18,6.0,0.05193572334971501,4.186871784394649e-15,1.3101517176916185e-14,-3.395664194249541e-16,2.18707582288875e-22,6.0,0.11683517637697123,1.6954986132505373e-22,-1.5618731553285928e-17,3.6704136261095734e-17,0.528988597151319,0.0,0.0,0.0,3.8382963019127834,-4.955462738075135e-16,-2.2487183912970272e-15,3.3081312458965937e-17,631.7747075364202,631.7747075364196,631.7747075364202,631.7747075364198
0.248,2.1360016914923625e-18,6.0,0.054155071017163714,4.376445712516225e-15,1.329433750047679e-14,-3.5560579790293505e-16,2.1835058096104257e-22,6.0,0.11990910886493009,1.6927310125577139e-22,-1.0338008737548881e-17,3.953489613724104e-17,0.5437746813432016,0.0,0.0,0.0,3.810518079489277,-5.076798417927476e-16,-2.098394864723143e-15,3.268060064498158e-17,631.1314581274028,631.1314581274021,631.1314581274028,631.1314581274023
0.252,2.6790249825221475e-18,6.0,0.056433089088749805,4.568219337146649e-15,1.3248329549348844e-14,-3.705715627436922e-16,2.1799000302822955e-22,6.0,0.12301383743511429,1.689935684756752e-22,-2.918889902761694e-18,4.245798180726107e-17,0.5584948104752505,0.0,0.0,0.0,3.781452549146516,-5.232120135670262e-16,-1.8923027086579e-15,3.208507780404642e-17,630.457696406684,630.4576964066835,630.4576964066839,630.4576964066836
0.256,3.273830206282142e-18,6.0,0.058769466275903924,4.760714076526535e-15,1.300484238482789e-14,-3.825381067056131e-16,2.176259043905013e-22,6.0,0.12614888076430864,1.6871130632047505e-22,6.795669958372069e-18,4.548867279800013e-17,0.5731421308101129,0.0,0.0,0.0,3.751156647131141,-5.37168017985403e-16,-1.7013685080381317e-15,2.919605517451464e-17,629.7546464481268,629.7546464481262,629.7546464481268,629.7546464481264
0.26,3.919997588285114e-18,6.0,0.061163865851821,4.927322764234443e-15,1.25165516971497e-14,-3.9011781708575037e-16,2.172583404038677e-22,6.0,0.12931376221384513,1.6842635770410977e-22,1.8747960741179046e-17,4.855972094299896e-17,0.5877100736111723,0.0,0.0,0.0,3.7196859755051257,-5.201032837345678e-16,-1.4429356837942274e-15,2.4562923820741425e-17,629.0235025761077,629.0235025761073,629.0235025761076,629.0235025761074
0.264,4.616147557944838e-18,6.0,0.06361593118222747,5.06508349513622e-15,1.1743739895189003e-14,-3.9375296671556736e-16,2.168873658848192e-22,6.0,0.1325080097905475,1.6813876512226353e-22,3.3112375690503793e-17,5.153279343897936e-17,0.6021927910599301,0.0,0.0,0.0,3.6870857919919358,-4.978096872851876e-16,-1.1103915597257298e-15,2.0266299563641327e-17,628.2652200415165,628.2652200415162,628.2652200415164,628.2652200415163
0.268,5.358777176813605e-18,6.0,0.0661252846360165,5.168817026701434e-15,1.0753417559020227e-14,-3.946706056049905e-16,2.165130351148274e-22,6.0,0.13573115610797695,1.6784857065585504e-22,4.9989476482142716e-17,5.427173313192854e-17,0.6165849344338857,0.0,0.0,0.0,3.653404268795719,-4.674954298268165e-16,-8.112843476168276e-16,1.724108739010285e-17,627.4808230241464,627.4808230241462,627.4808230241464,627.4808230241464
0.272,6.144093205606929e-18,6.0,0.06869150451115741,5.242929737916939e-15,9.55146800961295e-15,-3.9410253464415833e-16,2.1613540184481135e-22,6.0,0.13898273834797736,1.6755581597449983e-22,6.905046326064627e-17,5.671038910166178e-17,0.6308792377221782,0.0,0.0,0.0,3.618737145164104,-4.3999978325462325e-16,-4.983843836179172e-16,1.554322370155059e-17,626.6724473750709,626.6724473750708,626.6724473750708,626.6724473750709
0.276,6.967201829367117e-18,6.0,0.0713141633119857,5.28306399651888e-15,8.176319620138667e-15,-3.9484465409697265e-16,2.157545192995691e-22,6.0,0.14226229822251726,1.672605423399458e-22,8.988510371814953e-17,5.883638464408157e-17,0.645068957692603,0.0,0.0,0.0,3.5831039488934913,-4.053900463564835e-16,-2.003797325319589e-16,1.7050405605842305e-17,625.8404564302814,625.8404564302813,625.8404564302813,625.8404564302814
0.28,7.822017589509821e-18,6.0,0.07399281302358719,5.3061352359716265e-15,6.714983629396203e-15,-3.9456304415479534e-16,2.15370440182175e-22,6.0,0.14556938193582666,1.669627906094822e-22,1.1189651492217958e-16,6.067905630609866e-17,0.6591500510581701,0.0,0.0,0.0,3.5465543457973805,-3.8820948192263147e-16,2.539002330093955e-17,1.5885000742600402e-17,624.9859178721246,624.9859178721244,624.9859178721244,624.9859178721246
0.28400000000000003,8.703494955672184e-18,6.0,0.07672699126200597,5.2955368539424285e-15,5.118476760132625e-15,-3.975891991740156e-16,2.14983216678343e-22,6.0,0.14890354014682666,1.6666260123932222e-22,1.3466303927538528e-16,6.223079618365884e-17,0.6731184667373907,0.0,0.0,0.0,3.509126240797019,-3.504700402258263e-16,3.0682208106128055e-16,1.973742859975414e-17,624.1096271609603,624.1096271609604,624.1096271609603,624.1096271609605
0.28800000000000003,9.605671061518e-18,6.0,0.07951623027881745,5.2228409020826876e-15,3.3823544669377715e-15,-4.010243708632113e-16,2.145929004607566e-22,6.0,0.15226432793184938,1.6636001428795952e-22,1.582700928264856e-16,6.336524043759676e-17,0.6869712182440925,0.0,0.0,0.0,3.4708397883482522,-2.772319536939618e-16,6.172513173801733e-16,2.0339487544430182e-17,623.2119654210119,623.2119654210121,623.2119654210119,623.2119654210121
0.29200000000000004,1.0521313238800662e-17,6.0,0.08236001256320061,5.066587000528071e-15,1.5789287051322812e-15,-4.031985322780429e-16,2.1419954269336466e-22,6.0,0.15565130474764627,1.6605506941949883e-22,1.82528956701554e-16,6.376198333572356e-17,0.7007023451809716,0.0,0.0,0.0,3.431805486076423,-1.7468750722733e-16,8.722762504744051e-16,1.9007486474696804e-17,622.2954365786796,622.2954365786799,622.2954365786796,622.29543657868
0.29600000000000004,1.1443550834805669e-17,6.0,0.08525779856291821,4.848214008814743e-15,-2.833237748478367e-16,-4.0734510563366297e-16,2.1380319403564443e-22,6.0,0.1590640343946827,1.6574780590696055e-22,2.069832870688624e-16,6.321629863537254e-17,0.7143039197932313,0.0,0.0,0.0,3.392079223226216,-9.146402077231822e-17,1.1236024370573967e-15,2.140085271015157e-17,621.3612723714564,621.3612723714567,621.3612723714564,621.3612723714567
0.30000000000000004,1.2365636173240002e-17,6.0,0.08820905264790767,4.627488022791349e-15,-2.2250369556361794e-15,-4.1387856258320954e-16,2.134039046468316e-22,6.0,0.16250208498071647,1.6543826263556008e-22,2.3141013975481244e-16,6.190249194946561e-17,0.7277714519659207,0.0,0.0,0.0,3.351664963121791,-7.378348990577811e-17,1.407196952632117e-15,2.4359380955394333e-17,620.4094865482946,620.4094865482951,620.4094865482947,620.4094865482951
0.304,1.328039956681793e-17,6.0,0.09121322368904022,4.402935191496592e-15,-4.249521720967604e-15,-4.209934760962841e-16,2.130017241901172e-22,6.0,0.16596502888465847,1.6512647810596155e-22,2.559385195747247e-16,6.018522254763378e-17,0.7411035471336064,0.0,0.0,0.0,3.3106060241604065,-5.4220992191754564e-17,1.7105576847098076e-15,2.5306898055715107e-17,619.4410204409943,619.4410204409949,619.4410204409943,619.4410204409949
0.308,1.4180407121096423e-17,6.0,0.09426975174978199,4.135041111990789e-15,-6.359696390510562e-15,-4.292760536166275e-16,2.1259670183681255e-22,6.0,0.1694524427207134,1.6481249043750638e-22,2.806208360894946e-16,5.818893458657514e-17,0.7542975545207663,0.0,0.0,0.0,3.2689327018646592,1.1745442716215608e-17,2.0320349228799974e-15,2.6963074622100263e-17,618.4565119729921,618.4565119729928,618.4565119729922,618.4565119729928
0.312,1.5057797406150772e-17,6.0,0.09737808390573519,3.840791741540934e-15,-8.542702827317616e-15,-4.372310835335592e-16,2.1218888627048144e-22,6.0,0.17296390730279768,1.6449633737141692e-22,3.054282280238792e-16,5.5737054057929e-17,0.7673525313198828,0.0,0.0,0.0,3.2266435298519722,6.084060240357005e-17,2.3556021670975e-15,2.6920555628608697e-17,617.455849681393,617.4558496813938,617.4558496813931,617.4558496813938
0.316,1.590462059385707e-17,6.0,0.10053765137344618,3.502483470789621e-15,-1.0800807955708157e-14,-4.453032141186491e-16,2.1177832569104056e-22,6.0,0.17649900760923407,1.6417805627397518e-22,3.302761570779715e-16,5.2658587486224495e-17,0.7802674541144362,0.0,0.0,0.0,3.183783298424851,1.3241107758342896e-16,2.6945235864796064e-15,2.7384005967247847e-17,616.4400173515742,616.440017351575,616.4400173515742,616.440017351575
0.32,1.6712671921870498e-17,6.0,0.10374787103145265,3.1090569472055394e-15,-1.3132468525519928e-14,-4.537147695076821e-16,2.113650678188281e-22,6.0,0.1800573327477193,1.6385768413967686e-22,3.550829545264194e-16,4.886281440906658e-17,0.7930394080834027,0.0,0.0,0.0,3.140394278729228,2.1990876911314148e-16,3.0465991071710355e-15,2.81119745802948e-17,615.4099442367205,615.4099442367216,615.4099442367207,615.4099442367215
0.324,1.747354467059163e-17,6.0,0.10700818712772854,2.6755944407740806e-15,-1.553877598501256e-14,-4.6285101196957065e-16,2.1094915989864069e-22,6.0,0.18363847592056376,1.6353525759436109e-22,3.7985127939504265e-16,4.424311644802583e-17,0.8056688218130077,0.0,0.0,0.0,3.0964346148218014,2.9356352224615545e-16,3.4144769866765952e-15,2.930392831713256e-17,614.3645625063257,614.3645625063269,614.3645625063259,614.3645625063268
0.328,1.8178153869079842e-17,6.0,0.11031805097372226,2.2298205037241002e-15,-1.797610451379335e-14,-4.745078667742879e-16,2.1053064870373919e-22,6.0,0.18724203439020096,1.6321081289831571e-22,4.043724154283766e-16,3.889419224306546e-17,0.8181585418970183,0.0,0.0,0.0,3.0519028506727204,3.375811730438327e-16,3.751817295381784e-15,3.2623564739506937e-17,613.303759164903,613.3037591649042,613.3037591649031,613.3037591649041
0.332,1.8816918941885836e-17,6.0,0.113676874246429,1.7732192231901095e-15,-2.036129388369447e-14,-4.858704301370815e-16,2.1010958053982316e-22,6.0,0.19086760944496448,1.6288438594935854e-22,4.28014171409093e-16,3.305046576375654e-17,0.830507218452753,0.0,0.0,0.0,3.0068921398472943,3.8070769204547215e-16,4.007997770316557e-15,3.275845287267539e-17,612.2296789057083,612.2296789057098,612.2296789057085,612.2296789057096
0.336,1.938076639380418e-17,6.0,0.1170839891066631,1.2961723571514387e-15,-2.264147602757206e-14,-4.997417286421723e-16,2.096860012489747e-22,6.0,0.1945148063651308,1.6255601228589467e-22,4.497581400305831e-16,2.6811386701411427e-17,0.8427029508041943,0.0,0.0,0.0,2.96157790019731,4.35806143282218e-16,4.201529582715951e-15,3.6155634742467115e-17,611.1464487944793,611.1464487944806,611.1464487944795,611.1464487944805
0.34,1.9861585796594567e-17,6.0,0.12053869183267711,7.946288481846242e-16,-2.481549888135331e-14,-5.09190561963885e-16,2.0925995621357146e-22,6.0,0.198183234389226,1.622257270899501e-22,4.689463117504336e-16,2.010005541087213e-17,0.8547308928849724,0.0,0.0,0.0,2.9160495892509752,4.970332631483307e-16,4.383547660932626e-15,3.15590953379613e-17,610.056164283949,610.0561642839505,610.0561642839491,610.0561642839504
0.34400000000000003,2.0250958143692718e-17,6.0,0.12404027577316838,2.770985194942625e-16,-2.680832797274467e-14,-5.153672619257949e-16,2.0883149036016937e-22,6.0,0.20187250668059403,1.618935651901816e-22,4.851091846025335e-16,1.2870321319010508e-17,0.8665836693894523,0.0,0.0,0.0,2.870330989334935,5.499983253235289e-16,4.481802974406404e-15,2.8124724751261853e-17,608.9593585440575,608.959358544059,608.9593585440577,608.9593585440589
0.34800000000000003,2.0541842437414258e-17,6.0,0.12758803304161748,-2.5976169281801403e-16,-2.8616924001636445e-14,-5.219791083988489e-16,2.0840064816335512e-22,6.0,0.20558224029422514,1.6155956106486348e-22,4.977321831222174e-16,5.123521684944232e-18,0.8782596897852727,0.0,0.0,0.0,2.8244425965519193,6.079604081715278e-16,4.555925580418063e-15,2.888667895796077e-17,607.8564893192623,607.8564893192639,607.8564893192627,607.8564893192637
0.35200000000000004,2.0727958314301257e-17,6.0,0.1311812541798342,-8.248329089032826e-16,-3.023977387405207e-14,-5.308773658784156e-16,2.079674736495688e-22,6.0,0.2093120561438421,1.6122374884485086e-22,5.064716726224147e-16,-3.1423549972371764e-18,0.8897586303852331,0.0,0.0,0.0,2.7784056877808267,6.776150860311736e-16,4.613616547448026e-15,3.182907134940288e-17,606.7480363071592,606.7480363071609,606.7480363071595,606.7480363071606
0.35600000000000004,2.080291974597763e-17,6.0,0.13481922794465706,-1.3955528463179569e-15,-3.1594035630168395e-14,-5.40851612435312e-16,2.075320104008965e-22,6.0,0.21306157896924247,1.6088616231651997e-22,5.110852175076891e-16,-1.193726861811455e-17,0.9010800886511878,0.0,0.0,0.0,2.7322420809524357,7.228521911031512e-16,4.569333946241688e-15,3.3451386915245967e-17,605.6344956165542,605.6344956165558,605.6344956165544,605.6344956165556
0.36000000000000004,2.0761290904300394e-17,6.0,0.13850124119401128,-1.971216632622469e-15,-3.259943695452399e-14,-5.49634440583877e-16,2.0709430155883384e-22,6.0,0.21683043730389515,1.6054683492468566e-22,5.106096665130402e-16,-2.117394801678531e-17,0.9122236142522722,0.0,0.0,0.0,2.685973939696788,7.676524667561237e-16,4.408265921286487e-15,3.246919556511131e-17,604.5163752363685,604.51637523637,604.5163752363687,604.5163752363699
0.36400000000000005,2.0600462701571672e-17,6.0,0.14222657885590975,-2.527833298026521e-15,-3.3330918531046205e-14,-5.595295935143161e-16,2.0665438982801983e-22,6.0,0.22061826344278904,1.6020579977549606e-22,5.045019726985055e-16,-3.05925197566412e-17,0.9231887330535065,0.0,0.0,0.0,2.6396236081427538,7.847757818787731e-16,4.283575352251182e-15,3.412921707602745e-17,603.3941911825306,603.3941911825322,603.3941911825308,603.3941911825319
0.36800000000000005,2.031786648324331e-17,6.0,0.14599452396638304,-3.0960337581087297e-15,-3.37602819105487e-14,-5.679247839538619e-16,2.0621231747994175e-22,6.0,0.22442469341053228,1.5986308963930482e-22,4.93030094428839e-16,-4.016055111981046e-17,0.933974967049253,0.0,0.0,0.0,2.5932134715202144,8.363653221441534e-16,4.110105444500626e-15,3.2783349604904766e-17,602.2684642250794,602.2684642250808,602.2684642250797,602.2684642250807
0.372,1.991116284219813e-17,6.0,0.14980435776439013,-3.6739590638429584e-15,-3.377883722362469e-14,-5.741934219769671e-16,2.0576812635661136e-22,6.0,0.22824936692969977,1.5951873695352088e-22,4.758572267028703e-16,-4.994658441087804e-17,0.9445818509119907,0.0,0.0,0.0,2.546765838816735,8.865762347668346e-16,3.789733208510182e-15,3.064393272970532e-17,601.1397171111696,601.1397171111711,601.13971711117,601.1397171111707
0.376,1.9381212697668498e-17,6.0,0.15365535983352266,-4.268621046906792e-15,-3.345405030734919e-14,-5.792183819094022e-16,2.0532185787421209e-22,6.0,0.23209192738942783,1.59172773825436e-22,4.524611908151081e-16,-6.013580874247753e-17,0.9550089456546867,0.0,0.0,0.0,2.500302844298538,9.482050057015918e-16,3.510271024847846e-15,2.9488616489788104e-17,600.0084722122489,600.0084722122502,600.0084722122492,600.00847221225
0.38,1.8729238564227706e-17,6.0,0.15754680828182338,-4.890295426768902e-15,-3.276327033585575e-14,-5.8563975220226e-16,2.0487355302671813e-22,6.0,0.23595202181425312,1.588252320350304e-22,4.229212101265802e-16,-7.081473273332284e-17,0.9652558498329021,0.0,0.0,0.0,2.4538463651554716,1.0233927132350872e-15,3.1778597937623616e-15,3.136662241835258e-17,598.8752495337798,598.8752495337811,598.8752495337802,598.8752495337808
0.384,1.7957321295847322e-17,6.0,0.16147797995232796,-5.5046869271359195e-15,-3.164473626070441e-14,-5.912050821134661e-16,2.0442325238948514e-22,6.0,0.2398293008331952,1.5847614303775645e-22,3.8724095637513176e-16,-8.196823581633158e-17,0.9753222086508556,0.0,0.0,0.0,2.407417952936739,1.060813897959898e-15,2.7389337259602447e-15,3.06711990966973e-17,597.7405650350662,597.7405650350673,597.7405650350665,597.7405650350671
0.388,1.706854259017558e-17,6.0,0.16544815065803933,-6.104048906514825e-15,-2.999380875651778e-14,-5.985765431580207e-16,2.0397099612281292e-22,6.0,0.24372341864907998,1.581255379673004e-22,3.443885650670317e-16,-9.331563845913644e-17,0.9852077212827632,0.0,0.0,0.0,2.361038776775686,1.0891199840574247e-15,2.136510957750323e-15,3.305084983092866e-17,596.6049292142015,596.6049292142026,596.604929214202,596.6049292142023
0.392,1.6068145808606528e-17,6.0,0.16945659543598635,-6.701624140003054e-15,-2.7745999892695766e-14,-6.054986050507931e-16,2.0351682397548034e-22,6.0,0.24763403300810277,1.5777344763832301e-22,2.931573268302636e-16,-1.047258437004098e-16,0.994912146675575,0.0,0.0,0.0,2.3147295766940426,1.1322807669552205e-15,1.3955592311368102e-15,3.287036470402514e-17,595.4688459197441,595.4688459197449,595.4688459197445,595.4688459197446
0.396,1.4963698938734053e-17,6.0,0.17350258881582364,-7.280052018885851e-15,-2.4869750846273284e-14,-6.158842437177716e-16,2.0306077528825266e-22,6.0,0.25156080516962903,1.5741990254917836e-22,2.3252503186677663e-16,-1.161687798111099e-16,1.0044353080607666,0.0,0.0,0.0,2.268510625520609,1.1554640089275224e-15,5.459420870112537e-16,3.724288368985827e-17,594.3328113562346,594.3328113562353,594.3328113562351,594.332811356235
0.4,1.3766282157850531e-17,6.0,0.17758539214821728,-7.770636826550351e-15,-2.1469455711295228e-14,-6.352183648819765e-16,2.0260288899736132e-22,6.0,0.25550339987623083,1.5706493288461169e-22,1.6267282240216796e-16,-1.2726647637811645e-16,1.0137758012797178,0.0,0.0,0.0,2.222427982237502,1.097523514428981e-15,-2.720576726864271e-16,4.816559054703045e-17,593.1979611572307,593.197961157231,593.1979611572311,593.1979611572307
0.404,1.2488595616676863e-17,6.0,0.1817042619741367,-8.173329987929833e-15,-1.7627410567124e-14,-6.60494621344253e-16,2.0214320363795678e-22,6.0,0.25946148532395785,1.5670856851843597e-22,8.50093354791247e-17,-1.3735232347155801e-16,1.0229318055277408,0.0,0.0,0.0,2.1765111926547585,1.0338618724725704e-15,-1.0585050547921935e-15,5.594521174310505e-17,592.0650318305744,592.0650318305745,592.065031830575,592.0650318305744
0.40800000000000003,1.1144279143963973e-17,6.0,0.1858584786933396,-8.498438409213888e-15,-1.3373115560444963e-14,-6.929804455963337e-16,2.0168175734753411e-22,6.0,0.2634347331328405,1.5635083901618769e-22,1.1368188246049047e-18,-1.4604661539276945e-16,1.0319041458456968,0.0,0.0,0.0,2.130731824621843,9.765068323786566e-16,-1.8633487102606353e-15,6.545116231820087e-17,590.9333308871749,590.9333308871746,590.9333308871754,590.9333308871745
0.41200000000000003,9.748750640437339e-18,6.0,0.1900473224560224,-8.752616971383581e-15,-8.779271668732917e-15,-7.252850322973863e-16,2.0121858786933202e-22,6.0,0.26742281831762377,1.559917736377618e-22,-8.784119796906943e-17,-1.5339665902626722e-16,1.0406958730598603,0.0,0.0,0.0,2.085109665017594,9.218444523268233e-16,-2.6451794834896708e-15,6.662179953755032e-17,589.8033559513927,589.8033559513924,589.8033559513932,589.8033559513922
0.41600000000000004,8.319127338441586e-18,6.0,0.19427007363073062,-8.909564500991726e-15,-3.974814113995539e-15,-7.528657360528186e-16,2.0075373255570505e-22,6.0,0.2714254192587302,1.556314013400261e-22,-1.8033816645918806e-16,-1.593685702949284e-16,1.0493076654069426,0.0,0.0,0.0,2.0396636099110306,8.317964380686636e-16,-3.334403339169545e-15,6.24807216941017e-17,588.67558632858,588.6755863285795,588.6755863285805,588.6755863285794
0.42000000000000004,6.8727144102710474e-18,6.0,0.198526013201777,-8.944100987268202e-15,9.608541912966699e-16,-7.76413987773998e-16,2.002872283714696e-22,6.0,0.27544221767345006,1.5526975077941496e-22,-2.7431384594502885e-16,-1.63661584270629e-16,1.0577396007234092,0.0,0.0,0.0,1.9944117922586613,7.058055908875966e-16,-3.964268892891641e-15,5.895529214973143e-17,587.550485990954,587.5504859909532,587.5504859909545,587.5504859909531
0.42400000000000004,5.4267447882344825e-18,6.0,0.20281442314884995,-8.823702779035401e-15,5.991845723207603e-15,-7.933198756282631e-16,1.998191118972236e-22,6.0,0.279472898587357,1.549068503145031e-22,-3.681767751429462e-16,-1.6572647885513191e-16,1.0659918561232913,0.0,0.0,0.0,1.9493716049306917,5.334891760758245e-16,-4.57766349582218e-15,5.2217131398595424e-17,586.4285039850854,586.4285039850843,586.4285039850857,586.4285039850841
0.42800000000000005,3.99864031032744e-18,6.0,0.2071345868097677,-8.550172260168213e-15,1.1084138660578495e-14,-8.086372056047527e-16,1.9934941933264025e-22,6.0,0.283517150305948,1.5454272800855885e-22,-4.609711189646612e-16,-1.650771839272532e-16,1.0740647025999277,0.0,0.0,0.0,1.9045597223682091,3.5259860756403983e-16,-5.1776500061253945e-15,5.1111038616193467e-17,585.3100748073443,585.310074807343,585.3100748073446,585.3100748073431
0.432,2.605956484738992e-18,6.0,0.21148579241749166,-8.141197813661466e-15,1.6199285835031368e-14,-1.3745790784619155e-06,1.9887818649973592e-22,6.0,0.28757466438650475,1.5417741163207764e-22,-5.520112822133812e-16,-1.6154328270489398e-16,1.0819588198868249,0.0,0.0,0.0,1.85998564636244,1.8170082593793947e-16,-5.7565841813366674e-15,1.6057257247112884e-06,584.1929446124334,584.1929446124319,584.1979687595943,584.1979687595928
0.436,1.2665630426792067e-18,6.0,0.21586733841001426,-7.635550615528997e-15,2.126519978959289e-14,-3.7680596129341473e-06,1.9840544884611246e-22,6.0,0.291645135610177,1.5381092866529543e-22,-6.403874339912358e-16,-1.5540210330196976e-16,1.0896757903407661,0.0,0.0,0.0,1.8156479947675783,4.6529907500878994e-17,-6.27508368898226e-15,2.852504349002257e-06,583.0801657200834,583.0801657200817,583.0891079097727,583.0891079097709
0.44,-2.1946925685050494e-21,6.0,0.2202785187846688,-7.029151994241304e-15,2.623636608999002e-14,-6.657630012574756e-06,1.9793124144817402e-22,6.0,0.29572826195428326,1.5344330630068267e-22,-7.249753746794876e-16,-1.469914537487845e-16,1.0972165989042437,0.0,0.0,0.0,1.7715748319270124,-1.0036752823020234e-16,-6.750009502034318e-15,3.5305628311962347e-06,581.9727976521078,581.9727976521059,581.983886496357,581.983886496355
0.444,-1.183165908344568e-18,6.0,0.22471864568706773,-6.348546943055549e-15,3.10443472556246e-14,-9.90179154234893e-06,1.9745559901431871e-22,6.0,0.29982374456482985,1.5307457144541842e-22,-8.046848495130154e-16,-1.3662886408207575e-16,1.104582828865816,0.0,0.0,0.0,1.727748566856945,-2.2358048278456164e-16,-7.155125174811793e-15,4.063901192028589e-06,580.8697614113153,580.8697614113132,580.8825495916669,580.882549591665
0.448,-2.259522290209224e-18,6.0,0.22918700863711247,-5.61038626600139e-15,3.559071035970414e-14,-1.3382045540540284e-05,1.9697855588810514e-22,6.0,0.30393128772924555,1.5270475072384532e-22,-8.781921400123879e-16,-1.2456630245564755e-16,1.1117742221885052,0.0,0.0,0.0,1.684233828748714,-3.3289931771318697e-16,-7.449257226370843e-15,4.473601515866e-06,579.7726784886472,579.772678488645,579.7867825253867,579.7867825253846
0.452,-3.215852334485146e-18,6.0,0.23368288716234556,-4.822035027615582e-15,3.982324524682402e-14,-1.6996688185125817e-05,1.9650014605139416e-22,6.0,0.30805059884933,1.5233387047990503e-22,-9.44007478673982e-16,-1.1111596947228916e-16,1.118787886030259,0.0,0.0,0.0,1.6410703753727882,-4.3806885177592587e-16,-7.666745200514214e-15,4.774433377225062e-06,578.6825640284293,578.682564028427,578.6976448479743,578.6976448479721
0.456,-4.0377075768301694e-18,6.0,0.23820556068629944,-3.98902910790775e-15,4.3672336392145754e-14,-2.0663449373138552e-05,1.9602040312746587e-22,6.0,0.3121813884144149,1.5196195677955474e-22,-1.0009169894591574e-15,-9.642877693591132e-17,1.1256218647060583,0.0,0.0,0.0,1.5982782609974064,-5.407564820421203e-16,-7.78786356111185e-15,4.984931528900272e-06,577.5999358448593,577.5999358448569,577.6157110600501,577.6157110600479
0.46,-4.711931086515476e-18,6.0,0.24275433535627025,-3.1391118177378486e-15,4.706683771544847e-14,-2.4312467205494805e-05,1.9553936038411213e-22,6.0,0.3163233699747358,1.5158903541316461e-22,-1.0477900200211543e-15,-8.076114430064963e-17,1.1322780325716597,0.0,0.0,0.0,1.5558231419078037,-6.146824903090755e-16,-7.801431857319239e-15,5.116216078525488e-06,576.5239474289164,576.523947428914,576.5401683151688,576.5401683151667
0.464,-5.227059802385979e-18,6.0,0.24732852118504556,-2.2756039297708227e-15,4.994892182480496e-14,-2.7885894248563916e-05,1.950570507367048e-22,6.0,0.3204762601150138,1.5121513189789628e-22,-1.0834096077631753e-15,-6.439067370258664e-17,1.1387603172447138,0.0,0.0,0.0,1.5137162593047404,-6.864805185856051e-16,-7.712302775714025e-15,5.17945182848614e-06,575.4549039328027,575.4549039328003,575.471355809903,575.471355809901
0.468,-5.5738195279941545e-18,6.0,0.251927432342445,-1.4003395272775736e-15,5.230474889806034e-14,-3.1336417671956916e-05,1.9457350675123985e-22,6.0,0.3246397784282443,1.5084027148006284e-22,-1.1070330103927707e-15,-4.755289862816223e-17,1.1450703734191048,0.0,0.0,0.0,1.471968184641988,-7.576690279555239e-16,-7.560572499795408e-15,5.184564182195332e-06,574.3930974581189,574.3930974581166,574.4095960153439,574.409596015342
0.47200000000000003,-5.7445294220126015e-18,6.0,0.25655038738635777,-5.103879206285115e-16,5.4100478134393045e-14,-3.4625931204065756e-05,1.9408876064735742e-22,6.0,0.32881364748969266,1.5046447913747011e-22,-1.1182848037287404e-15,-3.022999543771779e-17,1.151209253477201,0.0,0.0,0.0,1.4305889327032721,-8.336947867268958e-16,-7.326876009105274e-15,5.1403564587829144e-06,573.3388095949829,573.3388095949805,573.3551975533078,573.3551975533059
0.47600000000000003,-5.733851774916248e-18,6.0,0.26119670948231616,3.547221697288395e-16,5.534959991489429e-14,-3.772435389729922e-05,1.9360284430133828e-22,6.0,0.332997592831094,1.5008777958173957e-22,-1.1171291040704318e-15,-1.2596354815686936e-17,1.1571780678024113,0.0,0.0,0.0,1.389587977083837,-8.651872273328853e-16,-7.0538743772873436e-15,5.054627498996065e-06,572.2923114959867,572.2923114959844,572.3084556123991,572.3084556123973
0.48000000000000004,-5.538120137018368e-18,6.0,0.26586572661200814,1.1809430238965795e-15,5.604788476425424e-14,-4.060858015550031e-05,1.9311578924907652e-22,6.0,0.33719134291505654,1.4971019726061284e-22,-1.103734140385872e-15,4.89343791503452e-18,1.1629779809937846,0.0,0.0,0.0,1.348974265223178,-8.791809292861991e-16,-6.7274189786134675e-15,4.934277055156519e-06,571.253863959753,571.2538639597507,571.269652338665,571.2696523386633
0.48400000000000004,-5.155174175621462e-18,6.0,0.2705567717711877,1.9489861269191385e-15,5.616151145470728e-14,-4.3261547029977866e-05,1.9262762668902894e-22,6.0,0.3413946291096666,1.4933175636023824e-22,-1.0782681575914302e-15,2.1776875726663122e-17,1.1686102091300665,0.0,0.0,0.0,1.308756232860559,-8.685682801969541e-16,-6.31290787687413e-15,4.785400151163993e-06,570.2237175191699,570.2237175191678,570.2390571992479,570.2390571992463
0.48800000000000004,-4.5848373618958445e-18,6.0,0.2752691888822258,2.6363350721983915e-15,5.5667391476009715e-14,-4.5670853276350254e-05,1.9213838748514112e-22,6.0,0.34560718566329346,1.4895248080743918e-22,-1.0405683863517703e-15,3.764916992793483e-17,1.174076589626433,0.0,0.0,0.0,1.2689301993574433,-8.28220356282261e-16,-5.813401309905214e-15,4.612725590274707e-06,569.2018150991097,569.2018150991079,569.216627820482,569.2166278204805
0.49200000000000005,-3.828620931271601e-18,6.0,0.28000234190607937,3.2913687431543494e-15,5.45194906280163e-14,-4.78292678674805e-05,1.9164810216975048e-22,6.0,0.3498287496795929,1.4857239427196464e-22,-9.902234892384614e-16,5.2387375034433745e-17,1.179380472115771,0.0,0.0,0.0,1.2294736855107011,-8.393278240029153e-16,-5.201937048659814e-15,4.42176675807417e-06,568.187613810351,568.1876138103493,568.2018386635684,568.2018386635672
0.49600000000000005,-2.8904043276154612e-18,6.0,0.2847555768303291,3.894869508732897e-15,5.2700605423454346e-14,-4.9733464751844e-05,1.9115680094646643e-22,6.0,0.35405906109270824,1.48191520168722e-22,-9.26917474782303e-16,6.616741215065039e-17,1.184522897975604,0.0,0.0,0.0,1.1904407614032557,-8.262417460164541e-16,-4.499250650418698e-15,4.216770838785594e-06,567.1825420826578,567.1825420826564,567.1961315083771,567.196131508376
0.5,-1.776304059900715e-18,6.0,0.28952823320572724,4.4534452867644474e-15,5.0205335483821566e-14,-5.138430799505133e-05,1.9066451369302771e-22,6.0,0.3582978626426669,1.478098816599922e-22,-8.505478692423998e-16,7.912641820592692e-17,1.1895018887464803,0.0,0.0,0.0,1.1518626983424975,-8.177693284567465e-16,-3.717006688349215e-15,4.002478225682755e-06,566.1874484941853,566.1874484941841,566.2003699946191,566.2003699946183
0.504,-4.945637689513735e-19,6.0,0.29431965847502006,5.014733804790738e-15,4.703126727610845e-14,-5.2782745555560374e-05,1.901712699641373e-22,6.0,0.3625448998509709,1.474275016576274e-22,-7.613097057673645e-16,9.142641906837235e-17,1.1943168587681021,0.0,0.0,0.0,1.1137419337730758,-8.62242910879382e-16,-2.8572012736651106e-15,3.7790047127709083e-06,565.202448619096,565.202448619095,565.2146699320484,565.214669932048
0.508,9.44142953065397e-19,6.0,0.29912924054465995,5.557325309742357e-15,4.3211815791147214e-14,-5.393369177403264e-05,1.896770989942749e-22,6.0,0.3667999209963806,1.470444028252313e-22,-6.596959630591954e-16,1.0342178829260914e-16,1.1989720640754986,0.0,0.0,0.0,1.0760145898452798,-8.822929879477697e-16,-1.955627926488769e-15,3.551004966651232e-06,564.2259323440433,564.2259323440425,564.2374361877132,564.2374361877129
0.512,2.526564400840062e-18,6.0,0.3039563506184598,6.080811525291071e-15,3.883589361494505e-14,-5.484407533937371e-05,1.8918202970048701e-22,6.0,0.3710626770908895,1.4666060758032225e-22,-5.468883205715831e-16,1.152381247834854e-16,1.2034713328013091,0.0,0.0,0.0,1.0387315594032884,-9.009665617454273e-16,-1.07503075999379e-15,3.3210165850879597e-06,563.2592608643115,563.259260864311,563.2700381081856,563.2700381081856
0.516,4.2376267862133094e-18,6.0,0.30880036479822953,6.597385071921183e-15,3.400091560762637e-14,-5.552214881841402e-05,1.8868609068515538e-22,6.0,0.37533292185588907,1.462761380964792e-22,-4.2488681273664306e-16,1.268099124158616e-16,1.207814553941511,0.0,0.0,0.0,1.001900469176604,-9.329368507918825e-16,-2.3750168105830434e-16,3.090853786663216e-06,562.3026803327399,562.3026803327396,562.3127277303519,562.3127277303522
0.52,6.061292960446966e-18,6.0,0.3136606660191017,7.0590065387177e-15,2.876148372511712e-14,-5.597739902286594e-05,1.8818931023874306e-22,6.0,0.37961041169852183,1.458910163054708e-22,-2.9578778876278953e-16,1.3798569268631747e-16,1.2120022275565023,0.0,0.0,0.0,0.9655249018691636,-9.08697895079889e-16,5.923497386919806e-16,2.862281023217024e-06,561.3563327860767,561.3563327860767,561.3656528566592,561.3656528566596
0.524,7.98020448544035e-18,6.0,0.3185366440902235,7.436091911346033e-15,2.3185494793499285e-14,-5.622028176015038e-05,1.876917163425191e-22,6.0,0.3838949056882218,1.4550526389936752e-22,-1.6134558473658932e-16,1.482459695182321e-16,1.2160360659116187,0.0,0.0,0.0,0.9296081792639355,-8.464772464215628e-16,1.4007687898430312e-15,2.636804237982041e-06,560.4203542787822,560.4203542787824,560.4289545038546,560.4289545038553
0.528,9.97581117117035e-18,6.0,0.3234276957417027,7.731549483286163e-15,1.736233298518579e-14,-5.626198811344246e-05,1.871933366712615e-22,6.0,0.38818616553344065,1.451189023326371e-22,-2.3266968160759534e-17,1.56983199190185e-16,1.2199177905879155,0.0,0.0,0.0,0.8941533478451675,-7.821351828808465e-16,2.1581184500045895e-15,2.4156968723612173e-06,559.4948743891499,559.4948743891504,559.5027664863145,559.5027664863154
0.532,1.2029171776991013e-17,6.0,0.32833322467265225,7.932054646284254e-15,1.1351098026723438e-14,-5.611424080821425e-05,1.866941985959388e-22,6.0,0.39248395555855764,1.4473195282422345e-22,1.166019420643816e-16,1.639221320171902e-16,1.2236491348583454,0.0,0.0,0.0,0.8591631746872319,-6.968579082674839e-16,2.8857797324052966e-15,2.200025465752461e-06,558.5800159913452,558.580015991346,558.5872152649133,558.5872152649146
0.536,1.412077356222936e-17,6.0,0.3332526465768236,8.01429485934229e-15,5.220506098875477e-15,-5.5788268829862e-05,1.8619432918637052e-22,6.0,0.3967880426809731,1.4434443635960912e-22,2.566229333423796e-16,1.6885056806392574e-16,1.2272323417314712,0.0,0.0,0.0,0.8246300434421885,-5.780047323363439e-16,3.571348594533926e-15,1.989681398142866e-06,557.6756318351726,557.6756318351736,557.6821533501208,557.6821533501221
0.54,1.623075609979025e-17,6.0,0.3381853969592101,7.981914806378704e-15,-9.54387289204023e-16,-5.529658288177369e-05,1.8569375521386638e-22,6.0,0.401098196388383,1.439563736928612e-22,3.952289049440325e-16,1.7142508602052207e-16,1.230670940848999,0.0,0.0,0.0,0.7905301294118154,-4.553777485745956e-16,4.200993285493916e-15,1.786610574670021e-06,556.7811440773831,556.7811440773844,556.7870094047307,556.7870094047321
0.544,1.833971526975134e-17,6.0,0.34313090283617625,7.84818012392176e-15,-7.147301759938465e-15,-5.465105585171534e-05,1.8519250315384457e-22,6.0,0.4054141887162341,1.4356778534866132e-22,5.31028788585184e-16,1.7155129550034717e-16,1.2339669136769982,0.0,0.0,0.0,0.7568964489163066,-3.4038086711957465e-16,4.817817433258387e-15,1.5905700865523686e-06,555.8974693509797,555.8974693509812,555.9026993936519,555.9026993936536
0.548,2.042784636416646e-17,6.0,0.34808861453198314,7.6263561852782e-15,-1.3285367260312222e-14,-5.3863524124141795e-05,1.846905991884295e-22,6.0,0.40973579422535716,1.4317869162431928e-22,6.628680956821152e-16,1.694238209261833e-16,1.2371222624886435,0.0,0.0,0.0,0.7236977945142478,-2.338501574127143e-16,5.375564054142846e-15,1.4019940909947388e-06,555.0238364173366,555.0238364173384,555.028453651533,555.0284536515348
0.552,2.2475777669214396e-17,6.0,0.3530579871821899,7.317538517994142e-15,-1.9313814636872368e-14,-5.294600166227073e-05,1.841880692090286e-22,6.0,0.41406278997977863,1.4278911259177086e-22,7.895591532344147e-16,1.6528276083239862e-16,1.2401397616585819,0.0,0.0,0.0,0.6909397916655415,-1.2242011609194132e-16,5.881301407952658e-15,1.2215661543092677e-06,554.1604400774904,554.1604400774924,554.1644693723955,554.1644693723973
