Time_s,X,Y,Z,Roll_deg,Pitch_deg,Yaw_deg,Ref_X,Ref_Y,Ref_Z,Ref_Yaw,vx,vy,vz,p,q,r,T_pert,tau_x,tau_y,tau_z,RPM_0,RPM_1,RPM_2,RPM_3
0.0040000000000000036,-4.903789747516863e-22,2.651163644740157e-22,0.010006999594037988,-8.680907141263378e-19,-3.744612224569047e-18,2.8365274483488005e-20,6.141595363607424e-23,-7.98609221018375e-24,0.010074639714689831,4.927211540672294e-22,-7.64036616901526e-20,5.827214431454023e-20,2.0013999188075973,0.0,0.0,0.0,0.13727673356390743,4.196144535599412e-18,1.0802738894620657e-17,-1.5703769192112926e-22,539.3555031529193,539.3555031529194,539.3555031529193,539.3555031529194
0.008000000000000007,-6.570771359411931e-22,4.838939472332974e-22,0.010010999365527828,-2.386057115434617e-18,-4.666783236110298e-18,7.24533237661264e-20,6.141155814046165e-23,-7.985520651310307e-24,0.01021705724096241,4.926858903687486e-22,-6.09321492323422e-20,5.666831893907942e-20,1.112333262836425,0.0,0.0,0.0,0.283077635499416,1.4279689194105613e-18,-2.691798870194707e-18,-5.150969362216497e-20,543.293890269062,543.2938902690621,543.293890269062,543.293890269062
0.01200000000000001,-9.237003849070128e-22,4.822480912846146e-22,0.010014999143178303,-2.531603892630397e-18,-6.114409383177669e-18,-2.787126148670303e-20,6.140500457470336e-23,-7.984668472399899e-24,0.010429397942859043,4.926333131425963e-22,-6.42711967128581e-20,2.442439294063643e-20,0.0009999434817584835,0.0,0.0,0.0,0.42940122292865546,-2.0492170899456466e-18,3.3193061497434073e-18,1.1537546051549818e-19,547.2178993475084,547.2178993475085,547.2178993475084,547.2178993475085
0.016000000000000014,-1.1983501009309475e-21,7.611204758032965e-22,0.010018998937222275,-5.013005626938306e-18,-7.844994721257161e-18,1.3429108245612474e-20,6.139631907156946e-23,-7.983539071571409e-24,0.010710815098006973,4.925636320438847e-22,-5.094749647076906e-20,4.814676123019688e-20,0.0009999457507016765,0.0,0.0,0.0,0.5762362288741475,6.343143425802287e-18,2.7633409396558052e-18,-4.5946500200552913e-20,551.1275385703874,551.1275385703875,551.1275385703874,551.1275385703874
0.01999999999999999,-1.2970879211211904e-21,6.971710690368307e-22,0.010022998752959138,-3.59214728598496e-18,-8.54940399834546e-18,2.4684425174366168e-20,6.13855275269866e-23,-7.982135816146284e-24,0.011060469657949597,4.92477054827604e-22,-5.50927632286052e-20,1.879605602202176e-20,0.0009999500135266653,0.0,0.0,0.0,0.723571521462612,-5.072405123951752e-18,-4.506050901622063e-19,-1.2546348398923935e-20,555.0228183321074,555.0228183321075,555.0228183321074,555.0228183321074
0.023999999999999994,-1.3854904087340408e-21,6.376768377081557e-22,0.010026998592281067,-3.0684427643058605e-18,-9.964054592298617e-18,-5.859424504527113e-20,6.137265560194777e-23,-7.98046204289688e-24,0.011477530186265227,4.923737873639449e-22,-3.486146314934052e-20,-1.5249649128721723e-20,0.0009999554569085217,0.0,0.0,0.0,0.8713960815678707,-3.598791153080283e-19,2.2116294980028947e-18,9.742079692139419e-20,558.9037505797332,558.9037505797334,558.9037505797332,558.9037505797332
0.027999999999999997,-1.3237140088535856e-21,6.487813917215619e-22,0.01003099845510716,-2.9971390243858775e-18,-9.597923382424062e-18,2.228460612691539e-19,6.135772872440773e-23,-7.978521058292925e-24,0.011961172797154362,4.922540336535046e-22,-1.3553204841751683e-20,-1.0915416188784645e-20,0.0009999612898178509,0.0,0.0,0.0,1.019699001957845,9.064944607704995e-19,-1.4083191896123328e-18,-3.2521029683491034e-19,562.7703487401362,562.7703487401363,562.7703487401362,562.7703487401363
0.032,-1.4282233940398666e-21,5.842243269261524e-22,0.010034998340212325,-2.870748718096769e-18,-1.0586099886153199e-17,2.2424756629784734e-19,6.134077209116409e-23,-7.976316138746119e-24,0.012510581094492131,4.921179958423782e-22,-2.293921898994617e-21,-5.7733400877364584e-21,0.0009999670577987355,0.0,0.0,0.0,1.168469487493659,-8.08413693463219e-19,3.7108367179420245e-18,-9.638910736171692e-21,566.6226276778519,566.622627677852,566.6226276778519,566.622627677852
0.036000000000000004,-1.582599979515311e-21,6.039539927831229e-22,0.010038998245769147,-3.148085289804929e-18,-1.10693322737047e-17,4.360960065799713e-19,6.132181066972409e-23,-7.97385053085288e-24,0.013124946111342446,4.919658742371349e-22,-1.3911697929194198e-20,-1.2809409018391556e-20,0.000999972496123873,0.0,0.0,0.0,1.3176968547098982,1.4549347293713419e-18,1.971085296827786e-18,-2.555331559198928e-19,570.4606036393316,570.4606036393317,570.4606036393316,570.4606036393316
0.04000000000000001,-1.5441177711173262e-21,5.442507128328623e-22,0.010042998169825271,-2.9901704456712125e-18,-1.1103696779865753e-17,6.479444468620953e-19,6.130086920015726e-23,-7.971127451635248e-24,0.013803466249930549,4.917978673196819e-22,-1.682667662137011e-20,-4.963967519645735e-21,0.0009999774855239119,0.0,0.0,0.0,1.4673705309599947,-8.72086807539037e-19,-1.305557869530292e-18,-2.6423375571460026e-19,574.2842941888811,574.2842941888812,574.2842941888811,574.2842941888811
0.04400000000000001,-1.5798325401940584e-21,5.425723459245615e-22,0.010046998110418134,-3.1156878750017605e-18,-1.1491797477172172e-17,7.569448596237982e-19,6.127797219693403e-23,-7.968150088779968e-24,0.014545347222070596,4.916141717620148e-22,-2.2970041065804772e-21,-7.418638077294653e-21,0.0009999819848185987,0.0,0.0,0.0,1.6174800541764565,9.834738640847287e-19,2.061692592766083e-18,-1.527916202334601e-19,578.0937181631933,578.0937181631934,578.0937181631933,578.0937181631933
0.048000000000000015,-1.6658337459432999e-21,5.507081737930021e-22,0.010050998065718538,-3.144565130008434e-18,-1.1750334881994294e-17,9.687932999059222e-19,6.12531439507504e-23,-7.964921600875756e-24,0.01534980199004497,4.914149824408564e-22,-9.965167246304237e-21,-3.653256184067466e-21,0.000999986012608159,0.0,0.0,0.0,1.7680150718555976,3.655148139944839e-19,1.7202400655757403e-18,-2.774117566227264e-19,581.8888956086506,581.8888956086507,581.8888956086506,581.8888956086507
0.05200000000000002,-1.7175096220246267e-21,5.43497581945745e-22,0.010054998034051993,-3.0738703360309275e-18,-1.210487458837139e-17,8.720976576267832e-19,6.122640853033873e-23,-7.961445117648763e-24,0.016216050707932007,4.912004924521839e-22,-1.2966864857904178e-20,1.520217185910694e-21,0.000999989586238266,0.0,0.0,0.0,1.9189653403554494,-3.3736601883764416e-20,9.066643393889872e-19,7.431585043454106e-20,585.6698477293342,585.6698477293343,585.6698477293342,585.6698477293343
0.05600000000000002,-1.715087119845038e-21,5.231257948090657e-22,0.010058998013952054,-2.9596849619391963e-18,-1.2040774189704371e-17,9.929752709199576e-19,6.119778978426491e-23,-7.957723740196258e-24,0.017143320663378918,4.909708931256473e-22,-9.56832637519802e-21,-1.7593824602909193e-21,0.0009999927631388489,0.0,0.0,0.0,2.0703207238920136,-7.66561050588151e-20,1.8378284017207647e-19,-1.7587499858156563e-19,589.4365968299745,589.4365968299746,589.4365968299745,589.4365968299746
0.060000000000000026,-1.734770874208071e-21,5.213820560152067e-22,0.010062998004201813,-2.9709840432655516e-18,-1.2126209917754397e-17,1.008629416586417e-18,6.116731134271175e-23,-7.953760541218538e-24,0.01813084621981658,4.907263740388766e-22,-3.253144136881928e-21,-3.902257859413081e-21,0.0009999955831150459,0.0,0.0,0.0,2.222071193630798,4.214217514123558e-19,1.1972489348200642e-18,-5.792251198133911e-20,593.1891662638251,593.1891662638253,593.1891662638251,593.1891662638252
0.06400000000000003,-1.7755925795071685e-21,5.296289616660755e-22,0.010067169398424615,-1.0740873360173503e-18,-1.0394216955691516e-17,1.7536950092027046e-19,6.113499661924888e-23,-7.949558565249065e-24,0.01917786875911308,4.904671230316817e-22,-5.744855707911285e-21,-1.1467034214638306e-21,0.0010171375802583288,0.0,0.0,0.0,2.373858978715056,-1.89127021184575e-18,-9.118575723237559e-19,9.330989794023909e-19,596.9190594513259,596.919059451326,596.9190594513259,596.919059451326
0.06800000000000003,-2.155587749110967e-21,8.388382670207493e-22,0.010074657699846452,3.041409829712747e-17,2.0863317422781788e-17,-3.071607952791214e-18,6.110086881258928e-23,-7.945120828882877e-24,0.02028363662466269,4.90193326220144e-22,-4.360666871836634e-20,3.194920780114689e-20,0.0013659691999576631,0.0,0.0,0.0,2.519632793449787,-3.3176625602340976e-17,-3.1784163429496024e-17,3.786917494648365e-18,600.4793616800091,600.4793616800093,600.4793616800091,600.4793616800092
0.07199999999999998,-2.9471737344312426e-21,1.5324092142796633e-21,0.010090725309742992,1.0513160771155711e-16,9.534664404372287e-17,-8.055828776768151e-18,6.106495090833234e-23,-7.940450321003244e-24,0.021447405064907204,4.899051680106009e-22,-1.2281787325479838e-19,1.0380517732330815e-19,0.0025727306899770916,0.0,0.0,0.0,2.6549863587176468,-8.458574073186748e-17,-8.326891458170854e-17,5.949622198656258e-18,603.766368558991,603.7663685589911,603.766368558991,603.766368558991
0.07599999999999998,-3.86021432122003e-21,2.3186418847382756e-21,0.010120196285848797,2.131006127881791e-16,2.0308890857053001e-16,-1.7307407074264298e-17,6.102726568069378e-23,-7.93555000300661e-24,0.022668436177286463,4.896028311135239e-22,-2.0644632600533884e-19,1.8095179594128425e-19,0.0050034623136034975,0.0,0.0,0.0,2.780631898986853,-1.3159758756810722e-16,-1.3023160502364394e-16,1.1139237043426385e-17,606.8016844655422,606.8016844655423,606.8016844655422,606.8016844655423
0.07999999999999999,-4.577034879249604e-21,2.878502099556142e-21,0.010167443661661613,3.5360844365246053e-16,3.4337347408404306e-16,-3.129474551791239e-17,6.098783569422238e-23,-7.930422809025827e-24,0.023945998852614787,4.892864965572917e-22,-2.4180743965323413e-19,2.096896981756761e-19,0.008613721005411648,0.0,0.0,0.0,2.8973214313206888,-1.8061038542868227e-16,-1.7919191438676912e-16,1.7051251687091623e-17,609.6071076202476,609.6071076202476,609.6071076202476,609.6071076202476
0.08399999999999999,-4.6861618307610285e-21,2.7992426734775244e-21,0.01023643627314614,5.281072374090174e-16,5.17645630740657e-16,-4.73706293363005e-17,6.094668330550365e-23,-7.92507164615169e-24,0.025279368719880478,4.889563437018582e-22,-2.136383160452287e-19,1.7477293210089587e-19,0.013293419018191657,0.0,0.0,0.0,3.005726399292287,-2.3490265079900753e-16,-2.3342350162615187e-16,2.0065366404254895e-17,612.2018360719308,612.2018360719308,612.2018360719308,612.2018360719308
0.088,-3.871043879138497e-21,1.5531821655605483e-21,0.010330780791747502,7.384259035271677e-16,7.484336900181589e-16,-6.55089286882594e-17,6.090383066485054e-23,-7.91949939465278e-24,0.026667828091465066,4.886125502523168e-22,-1.3831582607552044e-19,6.966727467210181e-20,0.018943986194159407,0.0,0.0,0.0,3.106445909830618,-2.953427379209923e-16,-3.155272201817904e-16,2.313471970835562e-17,614.602792226574,614.6027922265739,614.602792226574,614.602792226574
0.092,-1.2385907058543442e-21,-1.587648121056267e-21,0.01045374562036092,9.793680156712916e-16,1.0187212198017751e-15,-8.48821084734131e-17,6.085929971798134e-23,-7.91370890819365e-24,0.028110665908779347,4.882552922723606e-22,1.2213182205115896e-20,-1.2167740712496495e-19,0.025475723562340402,0.0,0.0,0.0,3.2000422032754154,-3.5494716157754427e-16,-3.8861493589689597e-16,2.5322070555494748e-17,616.8255673498923,616.8255673498923,616.8255673498923,616.8255673498923
0.096,4.303941833883864e-21,-7.533196953311597e-21,0.010608272707338313,1.2406083909006054e-15,1.3093238443575856e-15,-1.0483912026220123e-16,6.081311220768471e-23,-7.907703014051334e-24,0.02960717768831314,4.8788474419764225e-22,2.8692290447062695e-19,-4.2463952446623003e-19,0.03280454755451613,0.0,0.0,0.0,3.2870644126387516,-4.073315432358872e-16,-4.450864265045513e-16,2.6799602031101802e-17,618.8850557650018,618.8850557650017,618.8850557650018,618.8850557650018
0.1,1.3659704929332546e-20,-1.723487080789287e-20,0.010797098553340942,1.516246798366605e-15,1.6290993694479146e-15,-1.2648753795628544e-16,6.076528967547217e-23,-7.90148451333022e-24,0.03115666546809575,4.875010788490293e-22,7.178228030539431e-19,-8.69390876400465e-19,0.04086011323565386,0.0,0.0,0.0,3.3678265787677444,-4.554794707179103e-16,-5.120161649598742e-16,2.9594928965458144e-17,620.7902796896121,620.7902796896119,620.7902796896121,620.7902796896121
0.10400000000000001,2.785726552528182e-20,-3.140213999738548e-20,0.011022727418503301,1.8317719277920318e-15,1.9857987769395043e-15,-1.4981548435513427e-16,6.071585346321787e-23,-7.89505618117528e-24,0.032758437754564114,4.871044674457612e-22,1.2653313398235045e-18,-1.4113409460620493e-18,0.049584010706583456,0.0,0.0,0.0,3.4427037546919994,-5.323829328800641e-16,-5.922401651409179e-16,3.2445836001404556e-17,622.5514646553938,622.5514646553936,622.5514646553938,622.5514646553938
0.10800000000000001,4.820972715855167e-20,-5.1351401621590546e-20,0.011287449917625496,2.1657356772917604e-15,2.3727722126789757e-15,-1.65468539834602e-16,6.066482471478594e-23,-7.888420766983677e-24,0.03441180946983569,4.866950796185043e-22,1.9420450584390294e-18,-2.071246345084029e-18,0.05892134024391582,0.0,0.0,0.0,3.512040744072749,-5.946737660408778e-16,-6.714407406134716e-16,2.4438268537583997e-17,624.1779075430079,624.1779075430077,624.1779075430078,624.1779075430079
0.11200000000000002,7.676002669079347e-20,-7.882847716697074e-20,0.01159336355845802,2.4645228042724647e-15,2.724573496393201e-15,-1.7819601307852854e-16,6.061222437764546e-23,-7.881580994614762e-24,0.0361161018993831,4.862730834223082e-22,2.8507977766835e-18,-2.942276197247459e-18,0.068819885508903,0.0,0.0,0.0,3.576147564893545,-6.017706383357295e-16,-6.859429513311258e-16,2.1663488886466636e-17,625.6779044178879,625.6779044178878,625.6779044178878,625.6779044178878
0.11600000000000002,1.1494180690152714e-19,-1.1507573381744337e-19,0.01194238194427426,2.7189074447034415e-15,3.031963214096261e-15,-1.9114035547507767e-16,6.055807320447308e-23,-7.874539562598468e-24,0.03787064264010756,4.858386453494632e-22,4.050546761614342e-18,-4.0779470778214995e-18,0.07923153659930675,0.0,0.0,0.0,3.6353218006845807,-5.913449427444906e-16,-6.819266867141467e-16,2.2439455532552904e-17,627.0593020590068,627.0593020590065,627.0593020590067,627.0593020590067
0.12000000000000002,1.637405989019715e-19,-1.6093058297034803e-19,0.01233623672455746,2.9444506239669305e-15,3.3149581339490977e-15,-2.0231419833987315e-16,6.05023917547434e-23,-7.867299144342114e-24,0.039674765548808284,4.853919303422597e-22,5.508736595824591e-18,-5.4464487883150414e-18,0.09011029282395815,0.0,0.0,0.0,3.689863024888451,-5.924534988853665e-16,-6.943114419313047e-16,2.09027666200337e-17,628.3298543305809,628.3298543305807,628.3298543305808,628.3298543305808
0.12400000000000003,2.2418417103016895e-19,-2.171839154585296e-19,0.012776550689972499,3.1507818223194518e-15,3.58023133257798e-15,-2.1215576772711582e-16,6.04452003963073e-23,-7.859862388335642e-24,0.041527810691044845,4.849331018056504e-22,7.134423729025364e-18,-6.961899208983039e-18,0.10141764622679413,0.0,0.0,0.0,3.7399283500908522,-6.030838988094196e-16,-7.142370297805772e-16,1.9805292609316522e-17,629.4938819465929,629.4938819465928,629.4938819465928,629.4938819465928
0.12800000000000003,2.971678119492009e-19,-2.844969096841912e-19,0.013264815686116434,3.353021689029239e-15,3.841410355705811e-15,-2.2139925247008632e-16,6.038651930695817e-23,-7.852231918355267e-24,0.043429124290389684,4.844623216198154e-22,8.892763850830939e-18,-8.585468530278864e-18,0.11312154017338975,0.0,0.0,0.0,3.7857232693360325,-6.293072070176205e-16,-7.482905310402745e-16,1.9510759799178577e-17,630.5567401595674,630.5567401595672,630.5567401595674,630.5567401595674
0.13200000000000003,3.837479126062684e-19,-3.636455483296472e-19,0.013802394169496409,3.5530338099121794e-15,4.094424256938611e-15,-2.301475005963051e-16,6.032636847598618e-23,-7.844410333665596e-24,0.045378058678067934,4.839797501526321e-22,1.078163533434838e-17,-1.0298786565037156e-17,0.12519040948495047,0.0,0.0,0.0,3.8274543776311054,-6.594256318941581e-16,-7.800575053962263e-16,1.9311810451033676e-17,631.5237233023083,631.5237233023081,631.5237233023083,631.5237233023083
0.13600000000000004,4.849525128885632e-19,-4.554960071997597e-19,0.014390518892186024,3.742687733150386e-15,4.335566341760327e-15,-2.390152248307883e-16,6.026476770572072e-23,-7.836400209220188e-24,0.047373972242981635,4.8348554627204955e-22,1.281270949428527e-17,-1.2120002470315457e-17,0.1375917887076517,0.0,0.0,0.0,3.8653331199384398,-6.817128850975352e-16,-8.076219001687943e-16,1.9810606743890766e-17,632.4001602112933,632.400160211293,632.4001602112932,632.4001602112932
0.13999999999999999,6.015949927682085e-19,-5.607232794388139e-19,0.015030343948384848,3.9300927589527645e-15,4.5788850704433775e-15,-2.468710968708113e-16,6.020173661306104e-23,-7.828204095860594e-24,0.049416229382115595,4.829798673583682e-22,1.496674682967119e-17,-1.4042760846931996e-17,0.15029818256996894,0.0,0.0,0.0,3.899471561128342,-7.113817827599036e-16,-8.492798763853815e-16,1.8992738739035352e-17,633.1890148135309,633.1890148135304,633.1890148135307,633.1890148135307
0.144,7.34804740391724e-19,-6.803018249648729e-19,0.01572293696955759,4.092338101707864e-15,4.8066421727066795e-15,-2.465371337509014e-16,6.01372946309952e-23,-7.819824520513864e-24,0.051504200451322216,4.82462869316426e-22,1.7251621707072875e-17,-1.6094517178069242e-17,0.16328730835230007,0.0,0.0,0.0,3.9300001981423693,-7.183300962790941e-16,-8.748884524305605e-16,9.748301653393897e-18,633.8936243276636,633.8936243276632,633.8936243276634,633.8936243276634
0.148,8.86202312807655e-19,-8.155748434968274e-19,0.01646927368403523,4.164008296064539e-15,4.949754036590789e-15,-2.353457089728967e-16,6.007146101010744e-23,-7.811263986388556e-24,0.053637261716482115,4.819347065876918e-22,1.979504083837312e-17,-1.841018632425842e-17,0.17653731487908048,0.0,0.0,0.0,3.9570634096498716,-6.524228519610817e-16,-8.255920942056414e-16,-2.9486460160139e-18,634.5175965906932,634.517596590693,634.517596590693,634.5175965906931
0.152,1.0568788681167877e-18,-9.672052813688046e-19,0.017270212931587706,4.11888682960179e-15,4.966420570949929e-15,-2.1682216075376702e-16,6.000425482007397e-23,-7.802524973169242e-24,0.0558147953050383,4.813955321622653e-22,2.280242788300142e-17,-2.1152318477299885e-17,0.19002328613666114,0.0,0.0,0.0,3.980859296026962,-5.430565298641862e-16,-7.17057994211904e-16,-1.197328351742656e-17,635.0657305439082,635.065730543908,635.065730543908,635.065730543908
0.156,1.2465181074572922e-18,-1.1345984248905097e-18,0.018126542209462432,4.0127010888124414e-15,4.90880237958094e-15,-1.976808202665651e-16,5.993569495114737e-23,-7.793609937209526e-24,0.05803618915790083,4.8084549759078595e-22,2.6246041675003462e-17,-2.4256950071305186e-17,0.20372100103703894,0.0,0.0,0.0,4.001497330785737,-4.768419937725463e-16,-6.454897256466039e-16,-1.345560107131369e-17,635.54074114802,635.5407411480197,635.5407411480197,635.5407411480197
0.16,1.4546492532380157e-18,-1.3170470355011034e-18,0.01903899105455474,3.883504548088189e-15,4.811974645969899e-15,-1.8050546950278262e-16,5.986580011562965e-23,-7.784521311723586e-24,0.06030083698171933,4.802847529962511e-22,2.991895806316572e-17,-2.751216065849228e-17,0.21761234131871218,0.0,0.0,0.0,4.019062185256066,-4.492482879240164e-16,-6.079350754503271e-16,-1.1945021240152133e-17,635.9447391145535,635.9447391145533,635.9447391145533,635.9447391145533
0.164,1.6807325627853006e-18,-1.5139423432506803e-18,0.02000821920259135,3.747557891854227e-15,4.6995943998903005e-15,-1.6190449899435201e-16,5.979458884933398e-23,-7.775261506976255e-24,0.06260813820152066,4.797134470857428e-22,3.365661278999069e-17,-3.0752161627009384e-17,0.23168126037093134,0.0,0.0,0.0,4.033664491922746,-4.397886208354303e-16,-5.943239186709442e-16,-1.4315647733097306e-17,636.2804021515166,636.2804021515163,636.2804021515165,636.2804021515163
0.168,1.92441008341601e-18,-1.7248736841618704e-18,0.021034817216722367,3.597519798559001e-15,4.568680001505867e-15,-1.4044516267630627e-16,5.972207951303529e-23,-7.765832910471641e-24,0.06495749791370911,4.791317271620656e-22,3.741558189560876e-17,-3.3964021648264845e-17,0.24591083692318688,0.0,0.0,0.0,4.045415914551335,-4.2325147875698665e-16,-5.78027556936507e-16,-1.841848873913452e-17,636.550403414816,636.5504034148157,636.5504034148157,636.5504034148157
0.17200000000000001,2.1852789314017146e-18,-1.949295832200229e-18,0.02211930522748583,3.434129547711629e-15,4.414058144770914e-15,-1.1746923578662343e-16,5.964829029390971e-23,-7.756237887140306e-24,0.06734832683942642,4.785397391352947e-22,4.1189604241091787e-17,-3.7163353456395385e-17,0.2602836066225477,0.0,0.0,0.0,4.054432960681331,-4.048550905184372e-16,-5.537888543246425e-16,-2.107129780549429e-17,636.7575018819676,636.7575018819674,636.7575018819674,636.7575018819674
0.17600000000000002,2.4628043843751825e-18,-2.1866405820033547e-18,0.023262147277192217,3.255170019817208e-15,4.2349886063701394e-15,-9.551228741171963e-17,5.957323920696306e-23,-7.74647877952501e-24,0.0697800412782689,4.779376275342362e-22,4.5021283116583735e-17,-4.0363537896553014e-17,0.27478340363570325,0.0,0.0,0.0,4.060805351910474,-3.8238172971930056e-16,-5.253775929613096e-16,-2.082443733345819e-17,636.9038187847531,636.9038187847528,636.9038187847528,636.9038187847528
0.18000000000000002,2.7559568499077928e-18,-2.436069098711116e-18,0.024463757332544536,3.0783779217492822e-15,4.0684221792502204e-15,-7.572464937516984e-17,5.949694409644831e-23,-7.736557907965035e-24,0.07225206306235925,4.773255355177991e-22,4.883561276515995e-17,-4.35313298931002e-17,0.2893962436863979,0.0,0.0,0.0,4.064612475561206,-3.7607062623242536e-16,-5.324120455876313e-16,-1.919196486707685e-17,636.9912183686679,636.9912183686677,636.9912183686677,636.9912183686677
0.18400000000000002,3.0640024895104726e-18,-2.696790036267741e-18,0.025724495977250628,2.915579323669067e-15,3.923230005844219e-15,-5.691015238842974e-17,5.941942263727227e-23,-7.726477570779093e-24,0.07476381951077027,4.767036048862806e-22,5.249177262378314e-17,-4.658898656717612e-17,0.30410911240676236,0.0,0.0,0.0,4.065942107588678,-3.837076082705153e-16,-5.534229752188621e-16,-1.8867728430519155e-17,637.0217397124553,637.0217397124551,637.0217397124551,637.0217397124551
0.18800000000000003,3.38650925993521e-18,-2.9682617815877683e-18,0.02704467175887093,2.757908397126389e-15,3.7861123416712e-15,-3.9030789409798573e-17,5.93406923363914e-23,-7.716240044446834e-24,0.07731474338429797,4.760719760925645e-22,5.597365500684633e-17,-4.951007016431035e-17,0.3189089169384627,0.0,0.0,0.0,4.064881071659846,-3.8432759082399023e-16,-5.634363511336946e-16,-1.8547929939425985e-17,636.9973840373807,636.9973840373805,636.9973840373805,636.9973840373805
0.19200000000000003,3.722998292983333e-18,-3.2499311520491807e-18,0.02842454124834894,2.6001934631708902e-15,3.6518978723634474e-15,-2.0529587385832313e-17,5.926077053419699e-23,-7.705847583788962e-24,0.0799042728405815,4.754307882532336e-22,5.934540149789279e-17,-5.232739475373494e-17,0.33378262601870856,0.0,0.0,0.0,4.06151780834149,-3.7879530086665193e-16,-5.672186649352926e-16,-2.0008522580572042e-17,636.9201754555983,636.9201754555982,636.9201754555982,636.920175455598
0.19600000000000004,4.072967277405686e-18,-3.541177378038474e-18,0.029864313691403653,2.443913693210426e-15,3.5191096674444675e-15,-1.1770958604271489e-18,5.917967440588968e-23,-7.695302422145967e-24,0.08253185138956738,4.747801791595975e-22,6.263620066375905e-17,-5.5070803081707576e-17,0.34871766316091823,0.0,0.0,0.0,4.055933053440917,-3.738561679602658e-16,-5.68959947834837e-16,-2.176268436293661e-17,636.7919486380999,636.7919486380998,636.7919486380998,636.7919486380997
0.20000000000000004,4.4358995858224935e-18,-3.841395816629358e-18,0.031364153780279964,2.289070441488737e-15,3.387748937374798e-15,1.8189648305615785e-17,5.909742096284345e-23,-7.684606771555491e-24,0.0851969278493154,4.741202852886354e-22,6.585880097949606e-17,-5.773557198602306e-17,0.3637023119570339,0.0,0.0,0.0,4.0482035039755875,-3.6879946259721596e-16,-5.703678935481682e-16,-2.2574011430753605e-17,636.6144344024796,636.6144344024794,636.6144344024793,636.6144344024793
0.20400000000000004,4.8112823638199465e-18,-4.149986432206026e-18,0.03292418039704217,2.135664897334827e-15,3.2578167281771956e-15,3.509754157159379e-17,5.901402705395911e-23,-7.673762822928326e-24,0.08789895630214387,4.734512418138544e-22,6.900940268090419e-17,-6.031935091057309e-17,0.37872521966213524,0.0,0.0,0.0,4.038409905112373,-3.6349867155470554e-16,-5.716368426212088e-16,-2.0496947763633526e-17,636.3894467872658,636.3894467872657,636.3894467872657,636.3894467872656
0.208,5.1985453511277714e-18,-4.4664108589560285e-18,0.03454447162606396,1.9777861066440016e-15,3.1352265432436837e-15,5.2127286385942573e-17,5.892950936700745e-23,-7.66277274622306e-24,0.09063739605111147,4.727731826160655e-22,7.207398711189247e-17,-6.284097361048264e-17,0.3937754776278592,0.0,0.0,0.0,4.026624366282068,-3.517133100769187e-16,-5.789567850584558e-16,-2.1333584324487093e-17,636.1185929850446,636.1185929850445,636.1185929850444,636.1185929850444
0.212,5.59727401426106e-18,-4.790015888852784e-18,0.03622506875583333,1.8198688714356317e-15,3.0125897066370248e-15,6.771715881500543e-17,5.884388442996199e-23,-7.651638690619393e-24,0.09341171157683367,4.720862402940758e-22,7.505459457668986e-17,-6.530166627541217e-17,0.4088430726429997,0.0,0.0,0.0,4.012912252066316,-3.431095333712359e-16,-5.796296954375988e-16,-2.035088400469012e-17,635.803317645759,635.8033176457589,635.8033176457589,635.8033176457587
0.216,6.006968068750354e-18,-5.120112082070891e-18,0.03796596865390111,1.6693046710115047e-15,2.8913851549558888e-15,8.372792511457518e-17,5.87571686123216e-23,-7.64036278469011e-24,0.09622137249463043,4.7139054617529945e-22,7.79639149834642e-17,-6.768261890305878e-17,0.4239179420625481,0.0,0.0,0.0,3.9973556509859796,-3.4225795224682795e-16,-5.808169262863475e-16,-2.1482727132855964e-17,635.4454436018071,635.445443601807,635.445443601807,635.4454436018069
0.22,6.427144458619134e-18,-5.456163831527404e-18,0.03976713065387473,1.5201832568637614e-15,2.7716140528227937e-15,9.943964909200883e-17,5.866937812642285e-23,-7.628947136571728e-24,0.09906585351200382,4.706862303262861e-22,8.080885485967942e-17,-6.996416450658675e-17,0.4389899404528504,0.0,0.0,0.0,3.980024165643533,-3.363094271684827e-16,-5.820184952312535e-16,-2.1790854213244462e-17,635.0465014768437,635.0465014768434,635.0465014768434,635.0465014768434
0.224,6.857281980114791e-18,-5.797544427098292e-18,0.04162848089543929,1.376940082184502e-15,2.6577116709656715e-15,1.1649789918763311e-16,5.858052902874233e-23,-7.61739383413385e-24,0.1019446343864423,4.699734215631691e-22,8.357104250814329e-17,-7.213912611062489e-17,0.45404983307899965,0.0,0.0,0.0,3.9609798617774254,-3.342090832475193e-16,-5.877770487836198e-16,-2.400898581702825e-17,634.607843907972,634.6078439079719,634.6078439079719,634.6078439079718
0.228,7.296934393736755e-18,-6.1437029329427085e-18,0.04354991750844597,1.2380987158430974e-15,2.5482013959042516e-15,1.325276690080532e-16,5.849063722118894e-23,-7.605704945147198e-24,0.1048571998835496,4.692522474620333e-22,8.624905444318363e-17,-7.422029820279965e-17,0.4690896651294483,0.0,0.0,0.0,3.940275416326877,-3.3121988513068926e-16,-5.927741820541318e-16,-2.3508027100857585e-17,634.1306031458887,634.1306031458886,634.1306031458886,634.1306031458885
0.232,7.745567482768888e-18,-6.494001626851696e-18,0.04553129558538919,1.112529490069618e-15,2.4519533775419525e-15,1.5381218999243993e-16,5.839971845238623e-23,-7.59388251745036e-24,0.10780303973549582,4.685228343692025e-22,8.880330779921682e-17,-7.616629106646523e-17,0.48410081188620746,0.0,0.0,0.0,3.9179949714187217,-3.374863963592392e-16,-6.071506090501583e-16,-3.0304643573574466e-17,633.6166338036705,633.6166338036704,633.6166338036704,633.6166338036703
0.23600000000000002,8.202812007581517e-18,-6.8479687706759175e-18,0.04757243796901866,9.972789575973154e-16,2.366013986235093e-15,1.7622803927955127e-16,5.830778831894487e-23,-7.581928579115257e-24,0.1107816485997882,4.677853074114484e-22,9.121481342589273e-17,-7.795811487500544e-17,0.4990741293498906,0.0,0.0,0.0,3.894202220698543,-3.4267565476595564e-16,-6.205757759868162e-16,-3.2500227111532486e-17,633.067317594078,633.0673175940777,633.0673175940777,633.0673175940776
0.24000000000000002,8.668295262115483e-18,-7.205160493874399e-18,0.049673137263225295,8.90871450456375e-16,2.291863453145484e-15,2.011359956282157e-16,5.821486226672532e-23,-7.569845138611326e-24,0.11379252601835949,4.670397905061205e-22,9.347847566133711e-17,-7.959779907655976e-17,0.5140013032826094,0.0,0.0,0.0,3.868957877426781,-3.4683496863513273e-16,-6.3619591705836905e-16,-3.633187141101639e-17,632.4839660432392,632.4839660432391,632.4839660432391,632.483966043239
0.24400000000000002,9.141850447513102e-18,-7.56518542442599e-18,0.05183315696433784,7.903527421875086e-16,2.2147229706556433e-15,2.2384851179735686e-16,5.81209555920908e-23,-7.557634184968452e-24,0.11683517637697124,4.662864063711983e-22,9.565263782042659e-17,-8.111328671910786e-17,0.5288748442133901,0.0,0.0,0.0,3.8423213949910098,-3.484427508504068e-16,-6.3755970925716075e-16,-3.4790053237837835e-17,631.8678607214315,631.8678607214313,631.8678607214313,631.8678607214313
0.24800000000000003,9.622999569862038e-18,-7.927689713684586e-18,0.05405223633360305,6.912899650149213e-16,2.1508520046295046e-15,2.4479598341790685e-16,5.802608344315059e-23,-7.545297687938634e-24,0.1199091088649301,4.655252765352658e-22,9.772498126300292e-17,-8.254118692912116e-17,0.5436879202462774,0.0,0.0,0.0,3.814343337525479,-3.4543559915700307e-16,-6.540445913920598e-16,-3.366085339174281e-17,631.2200770472115,631.2200770472112,631.2200770472112,631.2200770472112
0.252,1.0111941894993978e-17,-8.292637923583301e-18,0.05633010132452073,5.5894992472695015e-16,2.053693889567156e-15,2.5573086066443176e-16,5.79302608209937e-23,-7.532837598156409e-24,0.1230138374351143,4.647565213474092e-22,9.980963767513731e-17,-8.399477559249788e-17,0.558435335685023,0.0,0.0,0.0,3.785052935618569,-3.0542859150531663e-16,-6.24666106063821e-16,-2.2824732766910368e-17,630.5411952471884,630.5411952471882,630.5411952471882,630.5411952471882
0.256,1.0608776914016581e-17,-8.659964248155116e-18,0.0586664466711205,3.534179667302118e-16,1.8788995247906256e-15,2.643327853365254e-16,5.783350258091314e-23,-7.520255847298037e-24,0.12614888076430864,4.639802599870385e-22,1.0224133776031931e-16,-8.579569495595689e-17,0.5731116281640324,0.0,0.0,0.0,3.754516266731176,-2.1619541950092875e-16,-5.403274117771642e-16,-2.0548498809392168e-17,629.8326488297604,629.8326488297603,629.8326488297603,629.8326488297603
0.26,1.1112717166190797e-17,-9.028804553263476e-18,0.06106092516702542,8.798675174043652e-17,1.6427166700326977e-15,2.7400524410278674e-16,5.773582343362064e-23,-7.507554348239462e-24,0.12931376221384513,4.631966104736327e-22,1.0528927291934504e-16,-8.817049628209417e-17,0.587708671186609,0.0,0.0,0.0,3.722822231875515,-1.281638298559206e-16,-4.595024787338216e-16,-2.2152276943322026e-17,629.0964039227692,629.0964039227691,629.0964039227691,629.096403922769
0.264,1.1622753863776196e-17,-9.398070067419022e-18,0.06351316531795241,-2.2478550623642363e-16,1.3591838996779407e-15,2.8192620685814487e-16,5.763723794645203e-23,-7.494734995213053e-24,0.1325080097905475,4.624056896764106e-22,1.0889272860708343e-16,-9.106696817969768e-17,0.6022180280009122,0.0,0.0,0.0,3.6900253125745364,-4.74001760532193e-17,-3.8773651993121453e-16,-2.050343725174788e-17,628.333631031556,628.333631031556,628.3336310315559,628.3336310315559
0.268,1.2137867383264231e-17,-9.766647273433705e-18,0.06602277354078875,-5.885922856442024e-16,1.0245946337891375e-15,2.8809092272238723e-16,5.753776054456338e-23,-7.481799663963133e-24,0.13573115610797695,4.616076133239269e-22,1.1294005453168294e-16,-9.439551882929272e-17,0.616633155756681,0.0,0.0,0.0,3.6561763705874832,4.208203857239158e-17,-3.0752763891868323e-16,-1.8777125727734687e-17,627.5454185436378,627.5454185436379,627.5454185436378,627.5454185436377
0.272,1.2656659235564639e-17,-1.0133135360280043e-17,0.0685893349927116,-9.967598602952463e-16,6.545011839319988e-16,2.893759438282004e-16,5.743740551211778e-23,-7.468750211900311e-24,0.13898273834797734,4.608024960135933e-22,1.173342293581167e-16,-9.808826332339678e-17,0.6309485849324399,0.0,0.0,0.0,3.6213253576354387,1.3152029573893973e-16,-2.368041422391621e-16,-1.3330016044647056e-17,626.7328359015868,626.7328359015869,626.7328359015868,626.7328359015867
0.276,1.3177663606621286e-17,-1.0495923888423409e-17,0.07121241439807505,-1.438216599133926e-15,2.570435804452209e-16,2.8753443752364413e-16,5.733618699346309e-23,-7.455588478254613e-24,0.14226229822251724,4.599904512211272e-22,1.2200681524971541e-16,-1.021112212507448e-16,0.6451590521702675,0.0,0.0,0.0,3.585521292981138,2.1466972826778978e-16,-1.7127664358914308e-16,-9.730507091690328e-18,625.8969333856569,625.896933385657,625.8969333856569,625.8969333856568
0.28,1.3699596545857635e-17,-1.0853556274219041e-17,0.07389156194715611,-1.9313877897455853e-15,-1.891893741467517e-16,2.826930062373019e-16,5.72341189943005e-23,-7.442316284227447e-24,0.14556938193582664,4.591715913099267e-22,1.2691533698208373e-16,-1.0643065400110036e-16,0.6592600081668064,0.0,0.0,0.0,3.5488019431298437,3.2117196423621273e-16,-7.982741625295382e-17,-6.150504527201353e-18,625.038500954376,625.0385009543761,625.038500954376,625.038500954376
0.28400000000000003,1.4221019499357936e-17,-1.1204014851288032e-17,0.07662632725079511,-2.4544844891337057e-15,-7.038344258510764e-16,2.7170849447806025e-16,5.713121538284407e-23,-7.428935433142375e-24,0.14890354014682664,4.583460275403735e-22,1.3218856828340314e-16,-1.1101029881160986e-16,0.6732489302268467,0.0,0.0,0.0,3.5111772836801585,4.135458083925061e-16,4.0718368007660044e-17,1.2243872424142888e-18,624.1576793495683,624.1576793495685,624.1576793495684,624.1576793495684
0.28800000000000003,1.474015586632651e-17,-1.154472233269283e-17,0.07941623974669874,-2.9440142773677876e-15,-1.296564682852691e-15,2.5639415969958594e-16,5.702748989097132e-23,-7.41544771059473e-24,0.15226432793184935,4.575138700790634e-22,1.3807521404301917e-16,-1.1556057875098232e-16,0.6871232805244265,0.0,0.0,0.0,3.472697140783702,4.420711373035572e-16,1.8234872954466823e-16,6.7333622200467344e-18,623.2555426274431,623.2555426274434,623.2555426274433,623.2555426274433
0.29200000000000004,1.525486618317112e-17,-1.1873550096615965e-17,0.08226080286635329,-3.3722841364771465e-15,-1.9692529623207334e-15,2.3631960627094685e-16,5.692295611536498e-23,-7.401854884600075e-24,0.15565130474764624,4.566752280079663e-22,1.4466761260051254e-16,-1.1953947312780574e-16,0.7008782025107754,0.0,0.0,0.0,3.4334238878732686,4.32950671875053e-16,3.372035670326155e-16,1.2922903811169134e-17,622.3334636167302,622.3334636167306,622.3334636167303,622.3334636167303
0.29600000000000004,1.5762340261966082e-17,-1.2188794662439655e-17,0.08515948861771974,-3.73192408649117e-15,-2.6856999386880867e-15,2.1625930548294564e-16,5.681762751864576e-23,-7.38815870574151e-24,0.15906403439468267,4.55830209333514e-22,1.51845447735664e-16,-1.225697142271654e-16,0.7145068753839897,0.0,0.0,0.0,3.39343178729982,4.0794649113072225e-16,4.648625381193978e-16,1.3730577836176729e-17,621.3931010476413,621.3931010476416,621.3931010476414,621.3931010476414
0.30000000000000004,1.6259674323542105e-17,-1.2489458148977528e-17,0.0881117865766701,-4.059096420448548e-15,-3.4199918989264205e-15,1.9616741987061277e-16,5.67115174304965e-23,-7.374360907315842e-24,0.16250208498071644,4.549789209956192e-22,1.5928530613054605e-16,-1.2467600836155559e-16,0.7280063561187335,0.0,0.0,0.0,3.352696739144969,4.1378567163620934e-16,5.687199183318766e-16,1.459121200140585e-17,620.4338038018425,620.4338038018428,620.4338038018426,620.4338038018427
0.30400000000000005,1.6743821056655875e-17,-1.2774492262046569e-17,0.09111712994972929,-4.367744223971595e-15,-4.137348337589286e-15,1.7555108825730296e-16,5.660463904877753e-23,-7.360463205478618e-24,0.1659650288846585,4.541214688766233e-22,1.6652469651125516e-16,-1.261361858229727e-16,0.7413718190729945,0.0,0.0,0.0,3.311344204608208,4.352305301208033e-16,6.373384249303493e-16,1.6028882923880522e-17,619.458445429509,619.4584454295094,619.4584454295092,619.4584454295093
0.30800000000000005,1.7212063664896424e-17,-1.304267302911893e-17,0.0941749385855878,-4.646825399641775e-15,-4.831139340791382e-15,1.5454711893497434e-16,5.649700544063343e-23,-7.346467299388045e-24,0.16945244272071341,4.532579578101758e-22,1.732871730842044e-16,-1.2714216349124284e-16,0.7545967837237127,0.0,0.0,0.0,3.26941421322409,4.455711741161525e-16,6.958378093466888e-16,1.7328275560836395e-17,618.4678963535754,618.4678963535758,618.4678963535756,618.4678963535757
0.31200000000000006,1.7661734939692356e-17,-1.3292876538458249e-17,0.0972846363700636,-4.8841839663523645e-15,-5.489207499882165e-15,1.318374910667119e-16,5.638862954359119e-23,-7.33237487134778e-24,0.1729639073027977,4.523884915900444e-22,1.7935864895372147e-16,-1.275914323392953e-16,0.7676772401836272,0.0,0.0,0.0,3.2269119804220794,4.3969719993503793e-16,7.403374487632257e-16,2.0183242598169266e-17,617.4622069742493,617.4622069742497,617.4622069742495,617.4622069742496
0.31600000000000006,1.8090383836645817e-17,-1.3524333650444569e-17,0.10044561239648925,-5.087582738036963e-15,-6.107502816764102e-15,1.08917416263196e-16,5.62795241666499e-23,-7.318187586948629e-24,0.1764990076092341,4.515131729788574e-22,1.8466302994896186e-16,-1.2742217883778127e-16,0.7806101412657973,0.0,0.0,0.0,3.1839214611244926,4.3699812862506523e-16,7.775184146264202e-16,2.136160585815377e-17,616.4432946415141,616.4432946415145,616.4432946415143,616.4432946415143
0.32000000000000006,1.8494790679355998e-17,-1.3736542533425638e-17,0.10365724425773391,-5.277295253432994e-15,-6.590251171820195e-15,8.80227171857569e-17,5.61697019913619e-23,-7.303907095209137e-24,0.18005733274771932,4.506321037167774e-22,1.8874132427976336e-16,-1.2673095797992788e-16,0.7933905077843778,0.0,0.0,0.0,3.140480510284003,4.533476893277048e-16,7.11316457951388e-16,1.9936816320822903e-17,615.4119931190496,615.4119931190501,615.4119931190498,615.41199311905
0.32400000000000007,1.8872657383273285e-17,-1.3928711496163602e-17,0.10691890039224358,-5.4374278585473025e-15,-6.891193545476174e-15,6.990966573158176e-17,5.605917557290566e-23,-7.289535028715093e-24,0.1836384759205638,4.4974538453010855e-22,1.9076217386204036e-16,-1.2561946511967043e-16,0.8060147090687032,0.0,0.0,0.0,3.0966226500807084,4.541756404149582e-16,5.739768006633318e-16,1.7545413166734094e-17,614.3690378623118,614.3690378623122,614.369037862312,614.3690378623121
0.32800000000000007,1.922327028906231e-17,-1.410032811391483e-17,0.11022992816670103,-5.5701885967427225e-15,-7.053865697263595e-15,5.3930293014166194e-17,5.594795734115028e-23,-7.275073003757944e-24,0.18724203439020098,4.488531151398366e-22,1.9027430547239027e-16,-1.24070308564985e-16,0.8184792540611566,0.0,0.0,0.0,3.052405942390323,4.53150167403734e-16,4.587286770250304e-16,1.579671672603485e-17,613.3157536974406,613.315753697441,613.3157536974408,613.3157536974408
0.3320000000000001,1.9545949164358303e-17,-1.4251084053031394e-17,0.11358966191830314,-5.686287449563944e-15,-7.070517769207146e-15,3.667161060448596e-17,5.583605960171168e-23,-7.260522620472145e-24,0.1908676094449645,4.47955394270103e-22,1.8744484856205185e-16,-1.2208103369655632e-16,0.8307802790371881,0.0,0.0,0.0,3.0078728598642703,4.610008900237055e-16,3.254301524276419e-16,1.794731474429123e-17,612.2531016828207,612.253101682821,612.2531016828209,612.2531016828209
0.3360000000000001,1.984073701015377e-17,-1.4380561134144174e-17,0.11699745025907743,-5.779067964957693e-15,-6.952263107647965e-15,1.9802941343930753e-17,5.572349453700068e-23,-7.245885462971438e-24,0.19451480636513083,4.470523196566123e-22,1.8250621662494292e-16,-1.197315883891338e-16,0.8429164574369624,0.0,0.0,0.0,2.96301093644642,4.616740501772367e-16,1.8752059187520148e-16,1.820041228049085e-17,611.1807347087063,611.1807347087067,611.1807347087065,611.1807347087065
0.3400000000000001,2.0108434048266222e-17,-1.4488607613810806e-17,0.1204526397697334,-5.85997915971413e-15,-6.735601545088968e-15,4.259419240609535e-18,5.561027420726288e-23,-7.231163099484073e-24,0.19818323438922603,4.461439880549759e-22,1.756754222109616e-16,-1.1705825295051126e-16,0.8548892452071606,0.0,0.0,0.0,2.9178404045196817,4.715682611376611e-16,7.441002630059496e-17,1.734511022155124e-17,610.0990864592333,610.0990864592335,610.0990864592334,610.0990864592334
0.3440000000000001,2.034955101898393e-17,-1.457467323019403e-17,0.1239545855673307,-5.895391326793679e-15,-6.389085355738861e-15,-7.325289471753751e-18,5.549641055161047e-23,-7.216357082486976e-24,0.20187250668059406,4.452304952489893e-22,1.6714655542139605e-16,-1.1398223917639366e-16,0.8666995238143391,0.0,0.0,0.0,2.8723601733497683,4.463569516616224e-16,-7.918720908478528e-17,1.335885472787753e-17,609.0080812929101,609.0080812929103,609.0080812929103,609.0080812929102
0.3480000000000001,2.0564930134394635e-17,-1.463810669156243e-17,0.1275026093126581,-5.829122843484963e-15,-5.872068916310163e-15,-1.7910023190188374e-17,5.538191538904604e-23,-7.201468948838873e-24,0.20558224029422517,4.443119360588455e-22,1.5673295414739154e-16,-1.1008181710341396e-16,0.8783450272069684,0.0,0.0,0.0,2.8266541636163893,3.542760758216318e-16,-2.9316200599610595e-16,1.2666428739651835e-17,607.9096874148033,607.9096874148036,607.9096874148034,607.9096874148033
0.3520000000000001,2.0756531303718004e-17,-1.4679119420208978e-17,0.1310960118191727,-5.657452042488256e-15,-5.196353936955134e-15,-2.966171681294206e-17,5.526680041947837e-23,-7.18650021991239e-24,0.20931205614384213,4.433884043492853e-22,1.4404363685179273e-16,-1.04778387833189e-16,0.8898201554279451,0.0,0.0,0.0,2.780781830927186,2.416038512392416e-16,-5.184930034186794e-16,1.4464263172891513e-17,606.8052974169744,606.8052974169743,606.8052974169744,606.8052974169743
0.3560000000000001,2.0927215224327307e-17,-1.4698944729955868e-17,0.13473408365201367,-5.43910966626685e-15,-4.405102043586113e-15,-4.126472494320598e-17,5.515107722473042e-23,-7.171452401725108e-24,0.2130615789692425,4.424599930376832e-22,1.292753949922408e-16,-9.810812666317359e-17,0.9011203172496736,0.0,0.0,0.0,2.7347818426095856,1.7844255519940237e-16,-7.161701938664805e-16,1.4773134863278757e-17,605.6958119824708,605.6958119824707,605.6958119824708,605.6958119824707
0.3600000000000001,2.1080583554200525e-17,-1.4698786762656463e-17,0.1384161335873218,-5.208454420567471e-15,-3.57256983582494e-15,-5.22815256297292e-17,5.503475726953934e-23,-7.15632698506961e-24,0.21683043730389517,4.415267941020711e-22,1.132029654991574e-16,-9.071849691645328e-17,0.9122449639862251,0.0,0.0,0.0,2.688635491579301,1.5173813884074596e-16,-8.458429331526929e-16,1.4564806219215634e-17,604.5807506119761,604.580750611976,604.5807506119762,604.5807506119759
0.3640000000000001,2.1220254311276947e-17,-1.467941935959704e-17,0.14214146493000637,-4.951811959092278e-15,-2.7546023979326435e-15,-5.909580982855293e-17,5.491785190254887e-23,-7.141125445642516e-24,0.22061826344278906,4.405888985890985e-22,9.680536180801975e-17,-8.306033554023727e-17,0.92319577799356,0.0,0.0,0.0,2.642371610657022,1.1243794970936957e-16,-9.161383384568873e-16,1.0107985196211251e-17,603.460781037661,603.4607810376609,603.4607810376611,603.4607810376608
0.3680000000000001,2.1349413789646727e-17,-1.464173632345653e-17,0.14590938269776974,-4.65993981598753e-15,-1.9677511376598168e-15,-6.225032295855477e-17,5.480037235729378e-23,-7.125849244172505e-24,0.2244246934105323,4.396463966219325e-22,8.095142169328842e-17,-7.514202978110551e-17,0.9339727902533761,0.0,0.0,0.0,2.5960046834667714,5.871992349481783e-17,-9.639493179635914e-16,6.112607791161419e-18,602.3362274854139,602.3362274854137,602.3362274854139,602.3362274854137
0.3720000000000001,2.1471327645877818e-17,-1.458676829979466e-17,0.14971919144043416,-4.3265483376591274e-15,-1.2486599124508201e-15,-6.621266356513244e-17,5.46823297531769e-23,-7.110499826547344e-24,0.22824936692969985,4.38699377408094e-22,6.613660763963402e-17,-6.679196361357278e-17,0.9445758602374648,0.0,0.0,0.0,2.549553620722559,-6.903962484831561e-18,-9.703103120580607e-16,7.185809965847884e-18,601.2075241707918,601.2075241707915,601.2075241707918,601.2075241707915
0.376,2.1589612579258213e-17,-1.4515703019053044e-17,0.15357015995592424,-3.9468254873840815e-15,-6.906962918194679e-16,-6.815842610310871e-17,5.456373509643831e-23,-7.095078623939929e-24,0.2320919273894278,4.37747929247235e-22,5.31649711173772e-17,-5.79075809083319e-17,0.95500178752376,0.0,0.0,0.0,2.503109013033736,-8.169883836422497e-17,-8.720211873279942e-16,4.997456102721823e-18,600.0768551389463,600.076855138946,600.0768551389463,600.076855138946
0.38,2.1706476105038272e-17,-1.44299938251147e-17,0.15746156289411292,-3.5274134375350728e-15,-2.9926967730933734e-16,-6.829093118741808e-17,5.44445992811171e-23,-7.079587052933341e-24,0.2359520218142531,4.367921395388534e-22,4.2873186505320964e-17,-4.8483225324650017e-17,0.9652465169182335,0.0,0.0,0.0,2.4566782101798177,-1.5597754025954162e-16,-7.433299621442359e-16,2.96394151560163e-18,598.944388691067,598.9443886910669,598.944388691067,598.9443886910669
0.384,2.1823663194816e-17,-1.433134713482499e-17,0.1613926670332971,-3.0864125500720785e-15,-9.397064069621048e-17,-6.730160972942797e-17,5.432493309000563e-23,-7.064026515644926e-24,0.23982930083319517,4.358320947899489e-22,3.585757979441783e-17,-3.864491437800498e-17,0.9753091848029388,0.0,0.0,0.0,2.4102962821381664,-2.16029753290461e-16,-5.770906969803832e-16,1.6636786251322375e-18,597.8109724160702,597.81097241607,597.8109724160701,597.81097241607
0.388,2.1941141043120694e-17,-1.422139801904335e-17,0.16536276031731068,-2.627146822186983e-15,1.491151154551773e-17,-6.64317643797023e-17,5.420474719559626e-23,-7.048398399849409e-24,0.24372341864907995,4.348678806226188e-22,3.171002739163536e-17,-2.8605282880989196e-17,0.9851905898086237,0.0,0.0,0.0,2.363939672706244,-2.7434371381997966e-16,-4.837880989441272e-16,1.7673186339083903e-18,596.676023626538,596.6760236265379,596.6760236265379,596.676023626538
0.392,2.2059197129542326e-17,-1.4101793223904975e-17,0.16937113440656495,-2.1488759880727046e-15,4.508532131661366e-17,-6.692744866901767e-17,5.408405216102076e-23,-7.032704079101042e-24,0.24763403300810274,4.338995817815943e-22,2.965032619506131e-17,-1.8472490758256356e-17,0.9948937651337643,0.0,0.0,0.0,2.3176196175261903,-3.3638492434652257e-16,-4.0838487896083797e-16,3.331391543704146e-18,595.5398094299195,595.5398094299194,595.5398094299194,595.5398094299195
0.396,2.2177967337202242e-17,-1.3974303457035827e-17,0.17341710442701003,-1.6578812832517413e-15,5.9611590030740905e-19,-6.858059110222689e-17,5.396285844098236e-23,-7.01694491285481e-24,0.251560805169629,4.329272821417179e-22,2.9075043771749106e-17,-8.30077775725789e-18,1.0044219756149082,0.0,0.0,0.0,2.2713072060522137,-3.9536238173810467e-16,-3.3085368779527154e-16,4.708511683478923e-18,594.4016113690943,594.4016113690942,594.4016113690942,594.4016113690942
0.4,2.229684590787354e-17,-1.3840576622421868e-17,0.17750000483865774,-1.1449250716387686e-15,-6.870673595487506e-17,-7.076935263399486e-17,5.384117638268055e-23,-7.001122246586669e-24,0.2555033998762308,4.319510647153629e-22,2.967476601624426e-17,1.905602746365596e-18,1.0137800259144152,0.0,0.0,0.0,2.2249812171613232,-4.662330661591757e-16,-2.9790692590622044e-16,5.406869846402883e-18,593.2608949813621,593.2608949813618,593.260894981362,593.2608949813621
0.404,2.241537447519151e-17,-1.3702398055904184e-17,0.18161915597215195,-6.088964372227464e-16,-1.4100029154811864e-16,-7.047788430474126e-17,5.371901622672859e-23,-6.985237411912869e-24,0.2594614853239578,4.309710116597945e-22,3.0792943524425505e-17,1.2192301726155916e-17,1.0229694339388558,0.0,0.0,0.0,2.1786877799942483,-5.431115886179257e-16,-2.8994377699964904e-16,2.6043865693510315e-18,592.1187848674381,592.1187848674379,592.1187848674379,592.118784867438
0.40800000000000003,2.253304880441517e-17,-1.3561618555578501e-17,0.18577380681082006,-4.831574110916298e-17,-1.904782576432536e-16,-6.864844644289393e-17,5.359638810806388e-23,-6.969291726708325e-24,0.26343473313284044,4.299872042844731e-22,3.185895108997453e-17,2.2613978992305875e-17,1.031982682708826,0.0,0.0,0.0,2.132589650497126,-6.258251020179396e-16,-3.1096837927914403e-16,8.007457801726476e-19,590.9792999512665,590.9792999512663,590.9792999512663,590.9792999512664
0.41200000000000003,2.264991278347972e-17,-1.3420331707556449e-17,0.18996319584346685,5.209302490713463e-16,-2.40342832883095e-16,-6.847882966201111e-17,5.347330205685127e-23,-6.953286495224074e-24,0.2674228183176237,4.289997230583014e-22,3.2730291593714265e-17,3.311089391555324e-17,1.0408101132446972,0.0,0.0,0.0,2.086728408761903,-6.963638536288208e-16,-3.1240775486786697e-16,2.669348389392773e-18,589.8434862251142,589.8434862251141,589.8434862251141,589.8434862251142
0.41600000000000004,2.2766069241865585e-17,-1.3281201300413664e-17,0.19418658867520375,1.0301035318648116e-15,-3.164799679902157e-16,-6.929731067452549e-17,5.334976799937916e-23,-6.937223008203806e-24,0.27142541925873015,4.280086476168135e-22,3.355831737448816e-17,4.318020348177052e-17,1.049449553835918,0.0,0.0,0.0,2.0410696886681956,-6.959829831492307e-16,-2.8429570021845377e-16,3.821417725312092e-18,588.7105113573025,588.7105113573023,588.7105113573023,588.7105113573024
0.42000000000000004,2.288135409897808e-17,-1.3146415278577813e-17,0.19844325997805082,1.4407479064758988e-15,-4.2558545541073725e-16,-7.179532039180449e-17,5.322579575894874e-23,-6.921102542999486e-24,0.27544221767345,4.270140567693094e-22,3.47775916514749e-17,5.195213906296598e-17,1.0579054954905855,0.0,0.0,0.0,1.9956149416924904,-6.43629150370261e-16,-2.4350610798500297e-16,5.821819310239346e-18,587.5804278904392,587.580427890439,587.580427890439,587.5804278904392
0.42400000000000004,2.2995373197898472e-17,-1.3017063711459746e-17,0.20273251025338282,1.7905223467510264e-15,-5.624460303310976e-16,-7.804882288510691e-17,5.310139505675615e-23,-6.904926363686071e-24,0.27947289858735697,4.260160285059316e-22,3.651392259080454e-17,5.897080955266107e-17,1.066182265409793,0.0,0.0,0.0,1.9503313606032795,-6.178803695097311e-16,-2.0366985452212376e-16,1.0316416442502813e-17,586.4524345410138,586.4524345410135,586.4524345410135,586.4524345410136
0.42800000000000005,2.3107452408766468e-17,-1.289406162747069e-17,0.20705363268930999,2.1086003130498005e-15,-7.037443063811409e-16,-8.896444688126614e-17,5.297657551276783e-23,-6.888695721175323e-24,0.28351715030594793,4.25014640004688e-22,3.86098457312107e-17,6.455618665263807e-17,1.0742824961840896,0.0,0.0,0.0,1.905252627701541,-6.212233032597133e-16,-1.854859509332425e-16,1.6024748481107388e-17,585.3273848251799,585.3273848251798,585.3273848251798,585.3273848251799
0.43200000000000005,2.3217302715728417e-17,-1.2778423983038104e-17,0.21140589546880334,2.400882478047704e-15,-8.672433974555771e-16,-1.0333889677141901e-16,5.285134664658892e-23,-6.872411853328741e-24,0.28757466438650475,4.240099676384193e-22,4.092994280117684e-17,6.924901746845838e-17,1.0822039573832183,0.0,0.0,0.0,1.8604486134058065,-6.315296950667582e-16,-1.5008139946205135e-16,2.0519644730565375e-17,584.207044561749,584.2070445617488,584.2070445617488,584.2070445617491
0.43600000000000005,2.332446509381303e-17,-1.2671157590401975e-17,0.21578856926950923,2.6644021320184317e-15,-1.0588786118628528e-15,-1.1962232582244023e-16,5.2725717878324874e-23,-6.8560759850696e-24,0.291645135610177,4.230020869817108e-22,4.35085761342934e-17,7.32410783498267e-17,1.0899436094884642,0.0,0.0,0.0,1.8159342226324693,-6.376717932956986e-16,-1.0388300202404792e-16,2.334710895951585e-17,583.0918146703922,583.0918146703921,583.0918146703921,583.0918146703923
0.44000000000000006,2.3428202668728435e-17,-1.2573053406043078e-17,0.22020093259314308,2.907281258148386e-15,-1.2661089536039623e-15,-1.3699405588599559e-06,5.259969852943638e-23,-6.839689328494104e-24,0.29572826195428326,4.219910728177515e-22,4.6460239922773797e-17,7.656572291303183e-17,1.097501535206197,0.0,0.0,0.0,1.7717135129327897,-6.49966101605139e-16,-6.663502709282322e-17,1.6003072011037638e-06,581.9793133509594,581.9793133509593,581.9843395895244,581.9843395895246
0.44400000000000006,2.352753368217166e-17,-1.2485247458534637e-17,0.22464227667999842,3.095166413129962e-15,-1.458262341355452e-15,-3.7526146808071057e-06,5.247329782358749e-23,-6.82325308298169e-24,0.29982374456482985,4.209769991451382e-22,4.9502077215594245e-17,7.912649154098624e-17,1.1048800275959725,0.0,0.0,0.0,1.7277803661555928,-6.257257510563313e-16,-6.049747496499209e-17,2.8396899539848045e-06,580.8724880723892,580.8724880723892,580.8814239238072,580.8814239238075
0.44800000000000006,2.3621798731608597e-17,-1.2408539769168896e-17,0.22911187206529193,3.2117619407404584e-15,-1.6330949170075325e-15,-6.615524212552147e-06,5.2346524887487134e-23,-6.806768435304437e-24,0.30393128772924555,4.1995993918462707e-22,5.227480686088156e-17,8.0592540233264e-17,1.1120788389661627,0.0,0.0,0.0,1.6841961798261769,-5.760197573988413e-16,-6.077173414369073e-17,3.4987831009108767e-06,579.7732656396893,579.7732656396892,579.7842963598013,579.7842963598015
0.45200000000000007,2.3710427299949405e-17,-1.2343397204106624e-17,0.23360898865554988,3.2496288161836342e-15,-1.7905822120038092e-15,-9.823925004309232e-06,5.221938875172403e-23,-6.79023655973564e-24,0.30805059884933,4.1893996538583144e-22,5.459614615147033e-17,8.057326730835514e-17,1.119096172941489,0.0,0.0,0.0,1.6409823131377763,-5.097958900664298e-16,-6.25665152661532e-17,4.020393653911382e-06,578.6815297402138,578.6815297402137,578.6942288522421,578.6942288522423
0.45600000000000007,2.3792969921256138e-17,-1.228990265086145e-17,0.23813292380095194,3.2139500850245936e-15,-1.9366446657930283e-15,-1.3262649107250902e-05,5.2091898351595026e-23,-6.773658618157518e-24,0.3121813884144149,4.1791714943386744e-22,5.650938234983818e-17,7.900886906848016e-17,1.125933364095691,0.0,0.0,0.0,1.5981032186047008,-4.403707539630334e-16,-5.939170757173827e-17,4.421880802735608e-06,577.5963954456921,577.596395445692,577.6103889491056,577.6103889491059
0.4600000000000001,2.386909249662175e-17,-1.224743799370268e-17,0.24268297911643294,3.1542149019565888e-15,-2.0838514752220496e-15,-1.6833992059582998e-05,5.196406252792691e-23,-6.75703576016808e-24,0.3163233699747358,4.168915622559474e-22,5.814655041291583e-17,7.622787886009934e-17,1.132594488319541,0.0,0.0,0.0,1.5555695618699887,-4.1577560195602373e-16,-4.3112195396328525e-17,4.7189315747524475e-06,576.5181456790983,576.5181456790982,576.5331071476986,576.5331071476987
0.4640000000000001,2.393825823982021e-17,-1.2215834699026645e-17,0.2472584606947878,3.063775863309279e-15,-2.224060294595705e-15,-2.0455626049777818e-05,5.1835890027891804e-23,-6.74036912318715e-24,0.3204762601150138,4.158632740279212e-22,5.961481128350754e-17,7.267255198208862e-17,1.1390813022317867,0.0,0.0,0.0,1.5133914857308268,-3.8664319917925356e-16,-3.343608090270371e-17,4.92550552791217e-06,575.4470547013859,575.4470547013859,575.4627001743758,575.4627001743759
0.4680000000000001,2.400003277519142e-17,-1.2194715510023054e-17,0.2518586792714475,2.9477958427420788e-15,-2.3572566245733148e-15,-2.405873952165557e-05,5.170738950581612e-23,-6.723659832561556e-24,0.3246397784282443,4.148323541807663e-22,6.089706301126672e-17,6.862655398086749e-17,1.1453949346584336,0.0,0.0,0.0,1.471578701002614,-3.5898892939279413e-16,-2.481122308389345e-17,5.054014651892145e-06,574.3833900235879,574.3833900235879,574.399473417751,574.3994734177511
0.4720000000000001,2.4053769375648012e-17,-1.2184031611185842e-17,0.2564829503885742,2.770469609573156e-15,-2.459470205209419e-15,-2.758638096623012e-05,5.157856952398313e-23,-6.706909001669496e-24,0.32881364748969266,4.1379887140702676e-22,6.182600806328842e-17,6.390281810274139e-17,1.1515365564870872,0.0,0.0,0.0,1.4301404822246533,-2.913899233603467e-16,-4.1626098996717885e-17,5.115486440336141e-06,573.327411940277,573.3274119402771,573.343720935887,573.3437209358871
0.4760000000000001,2.4099129244029047e-17,-1.2182973931699282e-17,0.2611305945572817,2.5550251576097527e-15,-2.5295478081641738e-15,-3.09919850163321e-05,5.1449438553429275e-23,-6.690117732024081e-24,0.332997592831094,4.1276289366720143e-22,6.21827629553283e-17,5.835112741270635e-17,1.1575073794767021,0.0,0.0,0.0,1.3890856658129807,-2.3787628360155976e-16,-6.47721290128613e-17,5.119709668076872e-06,572.2793731481422,572.2793731481422,572.2957254990312,572.2957254990313
0.4800000000000001,2.4136207890674823e-17,-1.2190576273606858e-17,0.2658009374170733,2.3250678517119683e-15,-2.5974364351318073e-15,-3.423806130655516e-05,5.132000497473414e-23,-6.673287113376058e-24,0.33719134291505654,4.11724488196082e-22,6.198705674619549e-17,5.208925281469886e-17,1.1633086557397256,0.0,0.0,0.0,1.348422650118037,-2.068363237293081e-16,-5.975490814954986e-17,5.075364728563213e-06,571.2395184341624,571.2395184341625,571.2557586576409,571.255758657641
0.4840000000000001,2.4164926353553088e-17,-1.2206023566172857e-17,0.27049331568028406,2.083934263175369e-15,-2.6730390474859416e-15,-3.729488891959129e-05,5.1190277078804257e-23,-6.65641822381573e-24,0.3413946291096666,4.106837215090409e-22,6.157935917108943e-17,4.5593658033008353e-17,1.1689422558581575,0.0,0.0,0.0,1.3081476491651465,-1.7965243231509695e-16,-4.120053675570356e-17,4.989976953570839e-06,570.207783424142,570.207783424142,570.2237793163483,570.2237793163484
0.4880000000000001,2.4184985549272294e-17,-1.2228479882054042e-17,0.2752070863171573,1.834962939130751e-15,-2.7460278478073554e-15,-4.01397875983997e-05,5.10602630676507e-23,-6.639512129874069e-24,0.34560718566329346,4.0964065940827004e-22,6.121280026363411e-17,3.904427524350181e-17,1.1744115712979508,0.0,0.0,0.0,1.2682379257991019,-1.5465586603025125e-16,-3.1371499744320005e-17,4.870537299074835e-06,569.1836169307428,569.1836169307428,569.1992580445875,569.1992580445875
0.4920000000000001,2.4195807632547932e-17,-1.22572483279407e-17,0.27994159570339544,1.564849197113696e-15,-2.7795023295926013e-15,-4.275534025487953e-05,5.0929971055160545e-23,-6.622569886623032e-24,0.3498287496795929,4.085953669889697e-22,6.059554803857795e-17,3.234007835086179e-17,1.179718413388342,0.0,0.0,0.0,1.2287327552218996,-1.1446750180366989e-16,-6.113365391767798e-17,4.722247858892089e-06,568.168062297772,568.1680622977722,568.1832543105254,568.1832543105254
0.4960000000000001,2.8833596744605596e-11,-2.8833128956408854e-11,0.2846962203052382,-2.8176590477440832e-06,-2.8176876184077827e-06,-4.599676517892056e-05,5.079940906786229e-23,-6.605592537775089e-24,0.35405906109270824,4.0754790864548936e-22,1.2717151746532643e-08,-1.2717026970324187e-08,1.184865198930723,0.0,0.0,0.0,1.189589221595616,2.9542811385983142e-06,2.9543091843632692e-06,5.563753531156071e-06,567.1575202271175,567.1593154950817,567.17634891067,567.1763489191911
0.5000000000000001,1.2008697260991879e-10,-1.200825894257698e-10,0.28947030174510247,-1.2329455391506922e-05,-1.2329819458543873e-05,-4.9261431667186894e-05,5.066858504568517e-23,-6.588581115781962e-24,0.3582978626426669,4.0649834807741955e-22,9.095604261546436e-08,-9.09538370328568e-08,1.1898514722534803,0.0,0.0,0.0,1.150895276942632,1.055015784385318e-05,1.055051088791125e-05,5.727217871512418e-06,566.1564679000172,566.1628904437104,566.1781695498826,566.1781696573373
0.5040000000000001,2.35811593156189e-10,-2.3579767373374503e-10,0.2942632110481152,-2.727627361959162e-05,-2.7277573346215817e-05,-5.247255061809953e-05,5.053750684271253e-23,-6.571536641932584e-24,0.3625448998509709,4.0544674829563577e-22,2.7918667567820415e-07,-2.7917601891091966e-07,1.194677528176238,0.0,0.0,0.0,1.112609636173448,1.7944811271138978e-05,1.794586022220881e-05,5.802162688710022e-06,565.1644108793485,565.1753542814673,565.1886476316766,565.1886479515011
