Time_s,X,Y,Z,Roll_deg,Pitch_deg,Yaw_deg,Ref_X,Ref_Y,Ref_Z,Ref_Yaw,vx,vy,vz,p,q,r,T_pert,tau_x,tau_y,tau_z,RPM_0,RPM_1,RPM_2,RPM_3
0.0040000000000000036,3.907672823421635e-23,-2.0,0.010006999594037988,3.1588276933026285e-18,-1.2404722931936249e-18,-1.2671305083394822e-20,-1.7036304823775595e-23,-2.0,0.010074639714689831,2.7486720655859e-22,-7.173352330779748e-20,-400.0,2.0013999188075973,0.0,0.0,0.0,0.13727673356390743,-3.688665432071574e-18,7.946578054346201e-19,3.319909604055624e-20,539.3555031529193,539.3555031529194,539.3555031529193,539.3555031529194
0.007999999999999993,-1.3158618786476324e-22,-2.0,0.01001099936604295,4.858799007145088e-18,-2.7745038640706565e-18,-2.2341523121970027e-20,-1.703508554769708e-23,-2.0,0.01021705724096241,2.748475345103852e-22,-5.879378143765087e-20,-222.22222222222223,1.112333262893661,0.0,0.0,0.0,0.28307763445396705,-2.2011197069145437e-18,4.4717179731285105e-18,1.2462045289071658e-20,543.2938902409246,543.2938902409246,543.2938902409246,543.2938902409246
0.011999999999999997,-2.078500213228403e-22,-2.0,0.01001499914698505,6.2383618943821805e-18,-3.824587024145014e-18,3.612836621243735e-20,-1.703326763985179e-23,-2.0,0.010429397942859043,2.7481820401551646e-22,-2.024551095387441e-20,8.507106063098018e-23,0.000999943862433142,0.0,0.0,0.0,0.42940121623182737,-1.9432164780833257e-18,4.585156489418476e-19,-6.673997756456952e-20,547.2178991685612,547.2178991685613,547.2178991685612,547.2178991685613
0.016,-3.951700455682562e-22,-2.0,0.010018998945947417,7.209775726106291e-18,-3.978284417070584e-18,5.030056210551708e-20,-1.7030858349265608e-23,-2.0,0.010710815098006973,2.747793320312416e-22,-1.7410414060878347e-20,1.097446702865893e-22,0.0009999466232158902,0.0,0.0,0.0,0.5762362187708127,-1.560945386136139e-18,1.800265237447193e-18,-1.7394936271879828e-20,551.1275383023295,551.1275383023296,551.1275383023295,551.1275383023295
0.020000000000000004,-2.7813922921032876e-22,-2.0,0.010022998767071863,8.970379804915214e-18,-3.2802572248810428e-18,-1.4478645720168684e-19,-1.7027864859265888e-23,-2.0,0.0110604696579496,2.747310344548249e-22,-1.0499772790359771e-21,1.330036713231005e-22,0.0009999512378911987,0.0,0.0,0.0,0.723571510250227,-2.5489359867009296e-18,-3.930601122128789e-18,2.2647023892472005e-19,555.0228180367124,555.0228180367125,555.0228180367124,555.0228180367124
0.024000000000000007,1.6076749156362471e-15,-1.9999999999999984,0.010026998611604686,-9.187441709747471e-12,9.187446888098161e-12,3.435598515689893e-12,-1.702429428801123e-23,-2.0,0.011477530186265229,2.7467342613208483e-22,1.6073545889612885e-13,1.5539915454260772e-13,0.0009999567737584494,0.0,0.0,0.0,0.8713960705422752,2.8840792354061962e-11,-2.946262630634858e-11,-4.013322499536736e-12,558.903750297935,558.9037502977433,558.9037502937018,558.9037502757252
0.027999999999999997,1.693055536327502e-14,-1.9999999999999831,0.010030998479211286,-4.43049139514668e-11,4.430491991893881e-11,4.0096724128395895e-12,-1.7020153689017258e-23,-2.0,0.011961172797154362,2.746066208658769e-22,1.6927742274779886e-12,1.6872576525321556e-12,0.0009999625606006354,0.0,0.0,0.0,1.0196989916395331,2.0336314254226694e-10,-2.0280707630982328e-10,-8.116858201283581e-13,562.7703484732714,562.7703484734417,562.7703485329067,562.7703484085336
0.032,3.0829922954463876e-14,-1.9999999999999694,0.010034998368563145,-7.615991386370848e-11,7.615991961696403e-11,4.583080291722506e-12,-1.701545005167841e-23,-2.0,0.012510581094492131,2.745307314245123e-22,3.082233345785769e-12,3.0634565659360574e-12,0.0009999682158428821,0.0,0.0,0.0,1.1684694781062408,3.498241809625728e-11,-3.650866176639746e-11,-8.344811270415154e-13,566.6226274371775,566.6226274367134,566.6226274451246,566.6226274233823
0.036000000000000004,4.313798306676841e-14,-1.999999999999957,0.010038998277836325,-1.0436790653822487e-10,1.0436791193060259e-10,5.123426656921652e-12,-1.701019030178577e-23,-2.0,0.013124946111342446,2.7444586955011277e-22,3.369711382002792e-12,3.373764714044769e-12,0.0009999735241583013,0.0,0.0,0.0,1.3176968462633107,3.433909227981729e-11,-3.143229790151785e-11,-8.194060237596751e-13,570.4606034236984,570.4606034245767,570.460603431446,570.4606034115777
0.04000000000000001,5.3856045805955404e-14,-1.9999999999999463,0.010042998205133883,-1.2893189307499474e-10,1.289318984776631e-10,5.614778229838957e-12,-1.7004381302040974e-23,-2.0,0.013803466249930549,2.743521459669022e-22,2.9763854524316204e-12,2.9735920904994684e-12,0.0009999783849747382,0.0,0.0,0.0,1.467370523358677,2.5858921201583863e-11,-2.792638506371828e-11,-7.843607194058323e-13,574.2842939968963,574.284293996276,574.2842940021592,574.28429398602
0.044,6.307467091675109e-14,-1.999999999999937,0.010046998148517988,-1.5005942223448157e-10,1.5005942704594232e-10,6.0509222602073905e-12,-1.6998029852566243e-23,-2.0,0.014545347222070593,2.742496703894354e-22,2.5866176905903407e-12,2.5956866299739225e-12,0.0009999827678850923,0.0,0.0,0.0,1.6174800473853355,2.7336664965332298e-11,-2.5439533369125587e-11,-7.400460564843617e-13,578.0937179923059,578.0937179928715,578.0937179981147,578.0937179823825
0.048,7.092924427366359e-14,-1.9999999999999292,0.010050998106129347,-1.680607751044211e-10,1.6806078016155008e-10,6.431449961253066e-12,-1.699114269141052e-23,-2.0,0.015349801990044966,2.7413855153076414e-22,2.2212136163836154e-12,2.2178406914207874e-12,0.0009999866790859693,0.0,0.0,0.0,1.7680150659500937,2.1534669378175624e-11,-2.3663034786587602e-11,-6.929868666167402e-13,581.8888954616546,581.8888954610244,581.8888954658552,581.8888954524699
0.052000000000000005,7.757605540026915e-14,-1.9999999999999225,0.010054998076427353,-1.832941415195963e-10,1.832941460486569e-10,6.759495646995679e-12,-1.698372649505177e-23,-2.0,0.016216050707932004,2.7401889711054185e-22,1.89014582552357e-12,1.8844580333567556e-12,0.0009999901479351356,0.0,0.0,0.0,1.9189653350791458,2.350053268524516e-11,-2.2433708594707374e-11,-6.473052656994683e-13,585.6698475984549,585.6698475987688,585.6698476033494,585.6698475898338
0.05600000000000001,8.317116701838922e-14,-1.999999999999917,0.01005899805804745,-1.9611718989804473e-10,1.9611719400085578e-10,7.039772284411282e-12,-1.6975787878895505e-23,-2.0,0.01714332066337891,2.7389081386306625e-22,1.597615946916556e-12,1.5955326085568224e-12,0.0009999932388149446,0.0,0.0,0.0,2.070320719049156,2.0877244349389108e-11,-2.1548025050927613e-11,-6.049740750374692e-13,589.4365967108725,589.4365967106766,589.4365967151001,589.4365967026968
0.06,8.78607798069685e-14,-1.9999999999999123,0.01006299804973948,-2.0686498814009077e-10,2.0686499219039256e-10,7.277545333412875e-12,-1.6967333397769475e-23,-2.0,0.01813084621981657,2.7375440754526127e-22,1.3433145306893158e-12,1.3288538074310434e-12,0.0009999959971463551,0.0,0.0,0.0,2.222071189296665,2.1057151866888028e-11,-2.089307739172738e-11,-5.668322233369114e-13,593.1891661578368,593.1891661578845,593.1891661622074,593.1891661500206
0.064,-7.511815542413642e-12,-2.0000000000075118,0.010067318522394725,-7.404124023111846e-07,7.404086703860304e-07,3.01623629557172e-08,-1.6958369546414636e-23,-2.0,0.019177868759113068,2.7360978294459834e-22,-7.613120673303226e-10,-7.612958793322625e-10,0.001032045649993088,0.0,0.0,0.0,2.373556420139665,7.757703003461997e-07,-7.757633279620492e-07,-3.522620701778028e-08,596.9117017725946,596.9117017746075,596.9118178627502,596.9113699422255
0.068,-4.865682178050039e-11,-2.000000000048658,0.010075680598626825,-4.883416842226789e-06,4.8832908913248714e-06,1.9880461794439473e-07,-1.6948902759972386e-23,-2.0,0.02028363662466268,2.7345704388695737e-22,-4.9253752404726536e-09,-4.925477434129113e-09,0.0014682545931364826,0.0,0.0,0.0,2.51785469870987,4.491260116692992e-06,-4.491133186200548e-06,-1.9823938488496382e-07,600.4363633477943,600.4363633842236,600.4370488488998,600.4344708940769
0.07200000000000001,-1.102214083953619e-10,-2.000000000110227,0.010093329194503611,-1.2060947927870848e-05,1.2060375234675468e-05,4.901176775502774e-07,-1.6938939414468084e-23,-2.0,0.02144740506490721,2.7329629324442815e-22,-1.1376304575125182e-08,-1.1376872823105668e-08,0.0028331145492876595,0.0,0.0,0.0,2.651745108630624,8.442801071571898e-06,-8.442309004061635e-06,-3.4846327626766703e-07,603.6883927426682,603.6883928831312,603.6897476777273,603.684927737926
0.07600000000000001,-1.6692260784246726e-10,-2.0000000001669362,0.010124964639758533,-2.169910665768562e-05,2.1697584821331518e-05,8.789992503617305e-07,-1.6928485827290913e-23,-2.0,0.02266843617728647,2.731276329430525e-22,-1.560296449841054e-08,-1.560440237324972e-08,0.005431380258631214,0.0,0.0,0.0,2.7761560504331637,1.2084044336238253e-05,-1.208294385564241e-05,-4.744009798477539e-07,606.6945332930454,606.6945336056262,606.6965363391055,606.6896719284648
0.08000000000000002,-1.8488827935003948e-10,-2.000000000184913,0.010174852476823634,-3.325527581948271e-05,3.325215837578267e-05,1.3430322692073265e-06,-1.6917548257670085e-23,-2.0,0.023945998852614794,2.7295116397050736e-22,-1.441353309620527e-08,-1.44160066907993e-08,0.009181289205258953,0.0,0.0,0.0,2.8918105299782266,1.53810242434418e-05,-1.537909822495114e-05,-5.781584812882846e-07,609.4757730250963,609.4757735696664,609.4783879490445,609.469690685438
0.08399999999999999,-1.229840126610013e-10,-2.0000000001230185,0.010246868322134237,-4.621638603430776e-05,4.621091864656056e-05,1.862450311091734e-06,-1.690613290714743e-23,-2.0,0.025279368719880475,2.7276698638372987e-22,-6.593126590604836e-09,-6.596513504557732e-09,0.013974598357782298,0.0,0.0,0.0,2.9993544512675596,1.832316010966179e-05,-1.832019729390128e-05,-6.61911635217553e-07,612.050612498793,612.0506133329873,612.0537946624657,612.0434775275769
0.088,6.571571401638999e-11,-1.9999999999343223,0.010344538275323452,-6.010022456472751e-05,6.0091582539210735e-05,2.419960351815199e-06,-1.6894245920046392e-23,-2.0,0.026667828091465062,2.7257519931648386e-22,8.734737696885244e-09,8.73082680396537e-09,0.019716211964115486,0.0,0.0,0.0,3.099364222644246,2.0900657384761552e-05,-2.0896512349160254e-05,-7.277380896111545e-07,614.4353671854175,614.4353683479414,614.4390640574657,614.4273415104474
0.092,4.3236224450602854e-10,-1.9999999995676623,0.010471061402494212,-7.445865006643488e-05,7.444597532216592e-05,3.0007830598062697e-06,-1.6881893383937445e-23,-2.0,0.028110665908779343,2.723759009868694e-22,3.2168470376003985e-08,3.2164932585299994e-08,0.026319511898073557,0.0,0.0,0.0,3.1923818500876733,2.3107419635281907e-05,-2.3101924044340273e-05,-7.778641277268366e-07,616.6450983304354,616.6450998662151,616.649250060624,616.6363365024135
0.096,1.0307320949791308e-09,-1.9999999989692496,0.010629320326916393,-8.88818251457846e-05,8.886426057938182e-05,3.5919379344124267e-06,-1.6869081330099983e-23,-2.0,0.029607177688313134,2.721691887047748e-22,6.408318336044425e-08,6.40812133918484e-08,0.03370315209815282,0.0,0.0,0.0,3.2789383570984763,2.4942848930989046e-05,-2.4935919856929797e-05,-8.137841816131041e-07,618.6942339545944,618.6942358845573,618.6987770323973,618.6848841893972
0.1,1.9159775405854483e-09,-1.9999999980839152,0.010822000434789458,-0.00010298546058379883,0.00010296218932044353,4.182325891346414e-06,-1.6855815733980685e-23,-2.0,0.031156665468095743,2.71955158879272e-22,1.0469313309297938e-07,1.0469437482696517e-07,0.04179915800658771,0.0,0.0,0.0,3.3593330114334137,2.6396953518504344e-05,-2.6388514213952863e-05,-8.371630219651073e-07,620.5914187017356,620.5914210451588,620.5962828039723,620.5816252967261
0.10400000000000001,3.143100907946137e-09,-1.9999999968566367,0.011051584016485068,-0.00011641702984378975,0.00011638731130097466,4.76252661571997e-06,-1.6842102515648395e-23,-2.0,0.03275843775456411,2.7173390702595555e-22,1.5409135199638455e-07,1.5409780767379567e-07,0.05055333169386136,0.0,0.0,0.0,3.4338833454383946,2.746445081304097e-05,-2.7454485580149954e-05,-8.495059527871406e-07,622.3455050721279,622.3455078314709,622.3506147973353,622.3354078484771
0.10800000000000001,4.765512238623159e-09,-1.9999999952339809,0.01132035459249377,-0.00012885837898821492,0.00012882158043840247,5.32484585941286e-06,-1.6827947540245532e-23,-2.0,0.034411809469835686,2.7150552777422596e-22,2.1226607026347314e-07,2.1228017678190635e-07,0.05991557376081935,0.0,0.0,0.0,3.502904672758708,2.8145009349581204e-05,-2.8133537499898536e-05,-8.524424645634046e-07,623.9650915665676,623.9650947348432,623.9703673804581,623.9548244070668
0.11200000000000002,6.833545162751877e-09,-1.9999999931655879,0.011630359347165713,-0.0001400317420415242,0.0001399873599676951,5.862916809668187e-06,-1.6813356618436053e-23,-2.0,0.03611610189938309,2.712701148745173e-22,2.7911376509539477e-07,2.7913828630845104e-07,0.06983299012822355,0.0,0.0,0.0,3.5667949713084974,2.8445970012951418e-05,-2.843304299115647e-05,-8.472072611178025e-07,625.4605290290848,625.4605325907113,625.4658904478599,625.4502191975876
0.11600000000000002,9.39333356161586e-09,-1.999999990605295,0.011983452183547029,-0.00014969669346614475,0.0001496443730749459,6.371604879015218e-06,-1.6798335506850022e-23,-2.0,0.03787064264010755,2.710277612054696e-22,3.5445789272786874e-07,3.5449605273053953e-07,0.08025139285643412,0.0,0.0,0.0,3.6258724591021103,2.837681802253602e-05,-2.8362523667942536e-05,-8.349783346162056e-07,626.8401308530589,626.8401347827422,626.8454971212035,626.8298987600933
0.12,1.2485935968542877e-08,-1.9999999875120131,0.01238137224491121,-0.00015764675410117823,0.00015758631248519257,6.846868231546968e-06,-1.6782889908524778e-23,-2.0,0.03967476554880826,2.707785587810471e-22,4.3807181582040676e-07,4.3812718331953796e-07,0.09112877327695611,0.0,0.0,0.0,3.680302241440122,2.794754538008504e-05,-2.793201329784117e-05,-8.168213489972536e-07,628.1085055264587,628.1085097877851,628.1137960245833,628.0984650515467
0.124,1.6146296335994587e-08,-1.9999999838507665,0.012825720211933714,-0.00016371144858333555,0.00016364288854054594,7.285631203098404e-06,-1.676702547334273e-23,-2.0,0.041527810691044824,2.7052259875760155e-22,5.296833276054833e-07,5.29759840480518e-07,0.1024312407733154,0.0,0.0,0.0,3.730301273410508,2.717018651989221e-05,-2.7153579375512975e-05,-7.936989748473046e-07,629.2713684165759,629.2713729644328,629.2765034252307,629.2616268394354
0.128,2.040243030319772e-08,-1.999999979593507,0.013317966841907069,-0.00016775627242851066,0.00016767979090327368,7.685666009967987e-06,-1.6750747798465828e-23,-2.0,0.04342912429038966,2.702599714408821e-22,6.289735233815034e-07,6.290754937801057e-07,0.1141261238966492,0.0,0.0,0.0,3.7760736794887406,2.606090505289876e-05,-2.6043415181367145e-05,-7.664753739549544e-07,630.3340399807832,630.3340447622998,630.3389420151865,630.3246972830256
0.132,2.5274761040749507e-08,-1.9999999747197794,0.013859463392581418,-0.0001696822879752893,0.00016959827942332958,8.045485479803553e-06,-1.6734062428766703e-23,-2.0,0.04537805867806791,2.699907662929914e-22,7.355760164719408e-07,7.357081255658693e-07,0.1261815480210314,0.0,0.0,0.0,3.817806656155286,2.4638854187654742e-05,-2.462069789432143e-05,-7.359242175213097e-07,631.3013631954121,631.3013681515143,631.3059580039385,631.2925116363316
0.136,3.077559815210819e-08,-1.999999969217243,0.014451450814155813,-0.0001694255178496352,0.00016933457253504706,8.364245673796461e-06,-1.6716974857256532e-23,-2.0,0.047373972242981614,2.697150719392888e-22,8.490755271101593e-07,8.492428374237327e-07,0.13856817501918797,0.0,0.0,0.0,3.855672639334988,2.2925946941483388e-05,-2.2907365225293255e-05,-7.027358359571901e-07,632.1777652213569,632.1777702865546,632.1819827018224,632.1694889405081
0.14,3.690876011711299e-08,-1.9999999630820504,0.015095062594042367,-0.0001669546859112297,0.00016685758291155138,8.64153574687561e-06,-1.669949052550962e-23,-2.0,0.0494162293821156,2.6943297617524084e-22,9.690057349557462e-07,9.692135882755112e-07,0.15125837504345832,0.0,0.0,0.0,3.889841892818904,2.094501306848209e-05,-2.092626229507043e-05,-6.673814963898395e-07,632.9675577204654,632.9675628253689,632.9713327279181,632.9599332268552
0.14400000000000002,4.366933677687195e-08,-1.9999999563190853,0.01579132366824111,-0.00016226791799254584,0.0001621656130983981,8.87757216637802e-06,-1.6681614824084755e-23,-2.0,0.05150420045132223,2.6914456597321917e-22,1.0948508306186132e-06,1.0951049498430207e-06,0.16422513918113402,0.0,0.0,0.0,3.920490400097658,1.871850617384354e-05,-1.8699846347531787e-05,-6.305771282880484e-07,633.6751264737536,633.675131548224,633.6783979436432,633.6682221326547
0.14800000000000002,5.104358739279684e-08,-1.9999999489420661,0.016541192039748517,-0.00015540103901649769,0.000155294650364928,9.072992436933966e-06,-1.666335309294332e-23,-2.0,0.05363726171648213,2.688499274892467e-22,1.2260255211934894e-06,1.2263318242538215e-06,0.1774453772980575,0.0,0.0,0.0,3.9477132240922748,1.6281858242374117e-05,-1.626356680279322e-05,-5.928234586343549e-07,634.3029388175581,634.3029437869237,634.305653866262,634.2968119952117
0.152,5.900898046997511e-08,-1.9999999409735052,0.017345543952054166,-0.0001464205482259752,0.0001463113362481764,9.228740114710057e-06,-1.6644710621864237e-23,-2.0,0.0558147953050383,2.6854914606969233e-22,1.3618640799043428e-06,1.3622288172571676e-06,0.19089937557517053,0.0,0.0,0.0,3.9716377357897263,1.3666383869541595e-05,-1.3648719677633394e-05,-5.54504182010652e-07,634.8541656037665,634.8541703985566,634.8562786794942,634.8488642156321
0.156,6.753437770929162e-08,-1.9999999324445268,0.0182051772449801,-0.00013542143135567187,0.000135310774883713,9.346039443359752e-06,-1.6625692650855717e-23,-2.0,0.05803618915790083,2.6824230625791405e-22,1.501621239017221e-06,1.5020508558323332e-06,0.2045676952058902,0.0,0.0,0.0,3.992387185083803,1.0904536689085623e-05,-1.088776224680739e-05,-5.159859312391884e-07,635.3318433343308,635.3318478841826,635.3333165268191,635.3274056321214
0.16,7.658036302136796e-08,-1.999999923394539,0.01912081308815395,-0.0001225229056944946,0.0001224122757457265,9.426205976923115e-06,-1.6606304370563867e-23,-2.0,0.06030083698171933,2.679294918008518e-22,1.6444770791785163e-06,1.644978075798756e-06,0.218430716845133,0.0,0.0,0.0,4.010083885965363,8.027511305495227e-06,-8.011882843885564e-06,-4.774256426743936e-07,635.7389513120651,635.7389555483699,635.7397545750594,635.7354068721536
0.164,8.609969587625201e-08,-1.9999999138707794,0.0200930955933292,-0.00010786264596893373,0.0001077535785210971,9.470910438719661e-06,-1.658655092267818e-23,-2.0,0.06260813820152066,2.676107856555695e-22,1.789544679111326e-06,1.7901236015497585e-06,0.2324692087673485,0.0,0.0,0.0,4.024853465725649,5.063074208544026e-06,-5.048818842095971e-06,-4.392922310798178e-07,636.0785136613548,636.0785175234009,636.0786229576802,636.0758834508524
0.168,9.603771240355895e-08,-1.9999999039279157,0.021122614965554495,-9.160993607228263e-05,9.150399768363496e-05,9.481989457206653e-06,-1.6566437400333906e-23,-2.0,0.06495749791370911,2.67286269995747e-22,1.9358426609405906e-06,1.9365059271606576e-06,0.24666615054602348,0.0,0.0,0.0,4.036777104391959,2.0552768667138813e-06,-2.0426043050031277e-06,-4.0184810516673285e-07,636.3525042689587,636.352507700715,636.3519065562323,636.3507968393976
0.17200000000000001,1.0633306038177434e-07,-1.99999989362731,0.022209897369300995,-7.395084859327456e-05,7.38496050002994e-05,9.461131717047068e-06,-1.6545968848511347e-23,-2.0,0.06734832683942642,2.669560262181225e-22,2.0822882769289116e-06,2.08304211409435e-06,0.26100621843715033,0.0,0.0,0.0,4.0459583487126185,-9.628092692069064e-07,9.73723418675882e-07,-3.6499586106373607e-07,636.5633862077532,636.5633891623487,636.5620774795681,636.5626017238178
0.17600000000000002,1.1691854700950482e-07,-1.9999998830361714,0.02335539931800549,-5.507312718012725e-05,5.4978118377394e-05,9.410297133837386e-06,-1.6525150264432114e-23,-2.0,0.0697800412782689,2.6662013494888564e-22,2.2277452413384413e-06,2.2285955251497646e-06,0.275473309275037,0.0,0.0,0.0,4.05251425437946,-3.972773778959804e-06,3.981772723043593e-06,-3.291216822172567e-07,636.7139109573473,636.7139133928971,636.7118908826922,636.714043771078
0.18000000000000002,1.277215820794925e-07,-1.9999998722271128,0.02455953345621875,-3.519807977116588e-05,3.511077700877907e-05,9.33164955108556e-06,-1.6503986597952313e-23,-2.0,0.07225206306235925,2.662786760500215e-22,2.3709904636619394e-06,2.3719425550296847e-06,0.2900527474285122,0.0,0.0,0.0,4.056511852618797,-6.9229173663991845e-06,6.929891055683876e-06,-2.9454426911630436e-07,636.8056609404283,636.8056628275742,636.8029420686197,636.8066907736873
0.184,1.386651964323284e-07,-1.9999998612771326,0.025822660233475042,-1.4561286235041693e-05,1.4483057375284931e-05,9.227275394495565e-06,-1.6482482751952743e-23,-2.0,0.07476381951077025,2.659317286256059e-22,2.510684236726625e-06,2.51174281970209e-06,0.3047316270564763,0.0,0.0,0.0,4.058036551055121,-9.774756899537597e-06,9.779638193383832e-06,-2.612620399013772e-07,636.8406225746807,636.8406238955322,636.8372276847155,636.8425190034507
0.188,1.4966902923871124e-07,-1.999999850266626,0.02714508803253012,6.59376805872047e-06,-6.661689982254531e-06,9.099260781311158e-06,-1.6460643582726098e-23,-2.0,0.07731474338429796,2.6557937102805276e-22,2.6453808096558863e-06,2.6465496654740823e-06,0.3194974432067719,0.0,0.0,0.0,4.057175240342775,-1.249583011855462e-05,1.2498597169760996e-05,-2.2936030959560632e-07,636.820800465697,636.8208012144693,636.8167607043385,636.8235242773574
0.192,1.6065032384523587e-07,-1.99999983927839,0.02852707548397429,2.801863711443847e-05,-2.8075183214448717e-05,8.949675090992137e-06,-1.6438473900361193e-23,-2.0,0.07990427284058149,2.6522168086431326e-22,2.773585028285597e-06,2.774866901028023e-06,0.33433731710121445,0.0,0.0,0.0,4.054011852285883,-1.5055696095572816e-05,1.5056368402329006e-05,-1.9890518850766127e-07,636.7481170029963,636.7481171849455,636.7434714162364,636.7516207674798
0.196,1.715249794481349e-07,-1.9999998283965692,0.02996883420727943,4.946580995202735e-05,-4.9510099622933484e-05,8.780379179072747e-06,-1.6415978469124257e-23,-2.0,0.08253185138956737,2.648587350020275e-22,2.893761600241896e-06,2.8951580553599973e-06,0.34923899921613744,0.0,0.0,0.0,4.048626420086292,-1.7428999103661975e-05,1.742764544513527e-05,-1.697380630984472e-07,636.624392092371,636.6243917259541,636.6191869225987,636.6286221510595
0.2,1.822086777655896e-07,-1.999999817705531,0.0314705328761343,7.070172565814135e-05,-7.073307854491264e-05,8.593346801443217e-06,-1.6393162007837272e-23,-2.0,0.08519692784931539,2.6449060957562913e-22,3.0043894710427e-06,3.0059006325310397e-06,0.36419103403978537,0.0,0.0,0.0,4.041092302781308,-1.9603938975665838e-05,1.960064318268823e-05,-1.4206723155306348e-07,636.4512816717997,636.4512807794306,636.4455656655476,636.456180707807
0.20400000000000001,1.9261758850745164e-07,-1.9999998072891565,0.033032294058876886,9.148190385255331e-05,-9.149987044405014e-05,8.390525522443949e-06,-1.637002919025345e-23,-2.0,0.08789895630214385,2.641173799924028e-22,3.1039356435926866e-06,3.105560165531136e-06,0.3791822215879913,0.0,0.0,0.0,4.031490718179061,-2.1544571256436166e-05,2.1539492786851464e-05,-1.1594314676797536e-07,636.2306121009302,636.2306107254067,636.2244435342569,636.2361130306472
0.20800000000000002,2.026695378964296e-07,-1.9999997972296735,0.03465420056447991,0.00011157075166856782,-0.00011157512618010203,8.173836787083567e-06,-1.6346584645429785e-23,-2.0,0.0906373960511115,2.6373912093849547e-22,3.1908548505614775e-06,3.1925897062091645e-06,0.3942018135373878,0.0,0.0,0.0,4.0198915513954425,-2.3231387825034177e-05,2.3224708075208794e-05,-9.141527049242975e-08,635.9639407666348,635.9639389566395,635.957383034884,635.96997113483
0.21200000000000002,2.1228490723678367e-07,-1.9999997876067548,0.03633629063636957,0.00013073493055479517,-0.00013072576776345526,7.945144222699471e-06,-1.632283295809677e-23,-2.0,0.0934117115768337,2.6335590638488124e-22,3.2635827703105358e-06,3.26542316695563e-06,0.40923912661164746,0.0,0.0,0.0,4.0063757855301585,-2.463987487388354e-05,2.4631835186989292e-05,-6.849496325892781e-08,635.6530726863903,635.6530705068307,635.6461958129637,635.6595533813027
0.21600000000000003,2.2138767019813794e-07,-1.9999997784964823,0.03807856555598758,0.00014875424549099688,-0.00014873186543267267,7.706123503909132e-06,-1.6298778669025258e-23,-2.0,0.09622137249463046,2.629678095932805e-22,3.320593134058558e-06,3.3225322528408903e-06,0.42428397274221796,0.0,0.0,0.0,3.99101046859868,-2.5756039480938913e-05,2.5746894501796456e-05,-4.703919310520844e-08,635.2994859790077,635.2994834984236,635.292364247352,635.3063344705379
0.22000000000000003,2.2990632439834306e-07,-1.9999997699704115,0.03988099446189671,0.0001654265410452145,-0.00016539152595474745,7.458464767745505e-06,-1.627442627539052e-23,-2.0,0.09906585351200385,2.6257490312203366e-22,3.3604322364394704e-06,3.3624613669561323e-06,0.4393272637251009,0.0,0.0,0.0,3.973854121713437,-2.657279636011497e-05,2.656285388916756e-05,-2.7133663011559093e-08,634.9044571740104,634.9044544754278,634.8971666333717,634.9115886988407
0.22400000000000003,2.3777468381043867e-07,-1.9999997620947803,0.04174349825909731,0.00018056057355914312,-0.00018051376870685152,7.2038843709561185e-06,-1.6249780231133486e-23,-2.0,0.10194463438644233,2.6217725883192933e-22,3.381740656559989e-06,3.3838490667368636e-06,0.4543592465878259,0.0,0.0,0.0,3.954999021674558,-2.7076823065303693e-05,2.706640416423296e-05,-8.878404216084926e-09,634.4700356668935,634.4700328370621,634.4626558297007,634.4773614322919
0.22800000000000004,2.4493268999086806e-07,-1.9999997549296953,0.04366596402385982,0.0001939839645670586,-0.00019392646835923903,6.943757440075549e-06,-1.6224844947319213e-23,-2.0,0.10485719988354963,2.6177494789198833e-22,3.383258887789711e-06,3.385433892677537e-06,0.4693699455746413,0.0,0.0,0.0,3.9345098222931343,-2.7263879287702124e-05,2.7253331806301088e-05,8.0547149973963e-09,633.9976311598466,633.9976282929575,633.9902438004127,634.0050620110977
0.23200000000000004,2.5132713036769465e-07,-1.9999997485284133,0.04564825584611374,0.00020554875588737028,-0.0002054819008474414,6.679587239276593e-06,-1.619962479249261e-23,-2.0,0.10780303973549585,2.613680407852025e-22,3.3638694860189813e-06,3.3660964214516057e-06,0.4843511832773169,0.0,0.0,0.0,3.912430324699407,-2.71378620075262e-05,2.7127541788865263e-05,2.345954248444139e-08,633.4881700030852,633.488167195712,633.4808554330724,633.4956170614931
0.236,2.569122671839122e-07,-1.9999997429367105,0.04769019284207487,0.000215127703295752,-0.00021505303704944575,6.412658167429102e-06,-1.6174124093031394e-23,-2.0,0.11078164859978819,2.6095660731422985e-22,3.3226327973249685e-06,3.3248952960811835e-06,0.4992949960328554,0.0,0.0,0.0,3.8888497596799185,-2.6700381195334384e-05,2.6690660306504024e-05,3.7530018663650054e-08,632.9436238522788,632.9436212056643,632.9364627341006,632.9509990072348
0.24,2.6165027668882865e-07,-1.999999738192444,0.04979157773403303,0.00022261745056438145,-0.00022253671080291966,6.144111539988073e-06,-1.6148347133496365e-23,-2.0,0.11379252601835947,2.6054071660704558e-22,3.2587979562685237e-06,3.2610779429519268e-06,0.5141934850420662,0.0,0.0,0.0,3.863800861249688,-2.5959818542908686e-05,2.595104620673442e-05,5.0380546038572e-08,632.3646588237215,632.3646564331735,632.3577301075273,632.3718763259233
0.244,2.6551159289043466e-07,-1.9999997343252054,0.051952207165303924,0.00022793672561592315,-0.0002278518142147132,5.875026960479896e-06,-1.612229815697895e-23,-2.0,0.11683517637697123,2.6012043712254963e-22,3.171811017444625e-06,3.1740890159581915e-06,0.5290426549313495,0.0,0.0,0.0,3.837296023776522,-2.4924706617507962e-05,2.491725434432865e-05,6.203634781504096e-08,631.7514671249182,631.7514650921294,631.7448477633226,631.758443367858
0.248,2.6847542030773087e-07,-1.9999997313558084,0.054171832784954715,0.0002310310976324956,-0.00023094404534503054,5.606512200330613e-06,-1.6095981365446091e-23,-2.0,0.11990910886493009,2.596958366561312e-22,3.061339161785026e-06,3.0635945373952427e-06,0.5438366364886109,0.0,0.0,0.0,3.8094268860919978,-2.3608345039774674e-05,2.360255739049202e-05,7.242018743715225e-08,631.1060723205751,631.1060707402385,631.0998357054588,631.1127267937819
0.252,2.705299719740528e-07,-1.99999972929605,0.05645016061436868,0.0002318751516149601,-0.00023178807712334018,5.339558723899805e-06,-1.6069400920082472e-23,-2.0,0.12301383743511429,2.5926698234519023e-22,2.92730349380298e-06,2.929514820671741e-06,0.5585659658270858,0.0,0.0,0.0,3.7802878779755673,-2.203109044853744e-05,2.202728457056062e-05,8.162244129063304e-08,630.4305656044328,630.4305645641117,630.4247801283627,630.4368232988946
0.256,2.7167242377073444e-07,-1.999999728148756,0.05878687465866024,0.00023046832265186394,-0.00023038339431264343,5.075026756092316e-06,-1.6042560941630095e-23,-2.0,0.12614888076430864,2.588339406746161e-22,2.769898671588935e-06,2.772044061505027e-06,0.5732211487306824,0.0,0.0,0.0,3.749927034579093,-2.0213439586328565e-05,2.0211904827468478e-05,8.975570509439008e-08,629.7259652965264,629.7259648765371,629.7206943630669,629.731756823566
0.26,2.7190883882979215e-07,-1.999999727907856,0.06118164544408219,0.000226832408489385,-0.0002267518072349706,4.8137345312993755e-06,-1.6015465510725245e-23,-2.0,0.12931376221384513,2.5839677748222453e-22,2.5895735071832406e-06,2.5916310448299524e-06,0.5877967070190683,0.0,0.0,0.0,3.718375836140461,-1.8174981970797494e-05,1.8175978477233003e-05,9.683370680551764e-08,628.9929054357327,628.9929057087463,628.9882074104006,628.9981665021492
0.264,2.712542187937435e-07,-1.9999997285583324,0.0636341078308272,0.00022101828467973393,-0.00022094415642958453,4.556400231388033e-06,-1.598811866823287e-23,-2.0,0.1325080097905475,2.579555579641523e-22,2.3870477548257402e-06,2.3889958996223523e-06,0.6022869044570321,0.0,0.0,0.0,3.685711291349569,-1.5943174341965702e-05,1.594691781549083e-05,1.0293972425638816e-07,628.2330786844956,628.233079711338,628.2290049365963,628.2377524486926
0.268,2.697321005694606e-07,-1.999999730076624,0.06614388493756977,0.00021309719897909452,-0.00021303161655839597,4.30368825285881e-06,-1.5960524415578344e-23,-2.0,0.13573115610797695,2.5751034668021026e-22,2.163309720799421e-06,2.165127735778514e-06,0.6166859470018474,0.0,0.0,0.0,3.651963059636619,-1.3542473449778e-05,1.3549130133924097e-05,1.0810709640164551e-07,627.4470789555302,627.4470807837595,627.4436745040991,627.45111509071
0.272,2.673744608374708e-07,-1.9999997324307213,0.068710560522833,0.00020317086793918723,-0.000203115779210792,4.05619357917327e-06,-1.5932686715076714e-23,-2.0,0.13898273834797736,2.57061207559195e-22,1.9196430663056395e-06,1.9213115372361633e-06,0.6309872945921334,0.0,0.0,0.0,3.6172172956512405,-1.100716923906417e-05,1.101684949062664e-05,1.1238962638874316e-07,626.636818076713,626.6368207387895,626.6341189292604,626.6401755477204
0.276,2.64221144238644e-07,-1.9999997355807388,0.07133369717898502,0.00019136341895171162,-0.00019132060419841277,3.81443419476375e-06,-1.5904609490259358e-23,-2.0,0.14226229822251726,2.5660820390415986e-22,1.6576270192826505e-06,1.6591283987362883e-06,0.6451839667550807,0.0,0.0,0.0,3.5815245517711225,-8.369772040239993e-06,8.382535705274074e-06,1.1585282932409824e-07,625.803382913533,625.803386428225,625.8014165418016,625.8060295718616
0.28,2.603193225164177e-07,-1.999999739479457,0.0740128385714994,0.00017781925088977688,-0.0001777902828353225,3.5788614330876966e-06,-1.5876296626198164e-23,-2.0,0.14556938193582666,2.561513983976446e-22,1.3791266824686856e-06,1.3804458243655717e-06,0.659270124799987,0.0,0.0,0.0,3.54493157798863,-5.661878848131747e-06,5.677716377791722e-06,1.185532939782453e-07,624.947774517517,624.9477788846207,624.9465600393298,624.9496868628399
0.28400000000000003,2.5572284623423687e-07,-1.9999997440729709,0.07674751533367476,0.00016269890862441645,-0.00016268511774428937,3.349853458580058e-06,-1.584775196982716e-23,-2.0,0.14890354014682666,2.5569085310686515e-22,1.0862472683611024e-06,1.087371906430548e-06,0.6732416014318919,0.0,0.0,0.0,3.507473831193068,-2.913264252944375e-06,2.9321164828645425e-06,1.205579601355321e-07,624.070732372532,624.0707375782268,624.0702810393014,624.0718951321953
0.28800000000000003,2.5049146076273053e-07,-1.9999997493014758,0.07953726100436698,0.00014617029622669082,-0.0001461727474955866,3.1277294252800016e-06,-1.5818979330261694e-23,-2.0,0.15226432793184938,2.5522662948886325e-22,7.81274792558628e-07,7.821958529652671e-07,0.687096446323588,0.0,0.0,0.0,3.4691549042588994,-1.4662163754712403e-07,1.6836560353276996e-07,1.219202326209157e-07,623.1722502169295,623.1722562297805,623.1725672875364,623.1726543907924
0.29200000000000004,2.446901884171483e-07,-1.9999997550998863,0.08238160272314204,0.00012841106007256608,-0.0001284305286371262,2.9127663788326144e-06,-1.5789982479115123e-23,-2.0,0.15565130474764627,2.5475878839561575e-22,4.6662487260200455e-07,4.673368233451075e-07,0.7008339269499625,0.0,0.0,0.0,3.429997247606913,2.6134405658649874e-06,-2.5889711230787568e-06,1.2267619520540303e-07,622.2527626932033,622.2527694697282,622.2538468189467,622.2524060729748
0.29600000000000004,2.3838895660120964e-07,-1.999999761398208,0.08528000945445813,0.00010962948202158408,-0.00010966640793458486,2.7051950307149487e-06,-1.5760765150813064e-23,-2.0,0.1590640343946827,2.54287390079105e-22,1.4492233331005413e-07,1.4542359522797546e-07,0.7144476049782391,0.0,0.0,0.0,3.390128660804555,5.319650009482113e-06,-5.292700912763667e-06,1.22868597138365e-07,621.3151841910968,621.315191665595,621.3170211009418,621.3140777017625
0.30000000000000004,2.3166149495773228e-07,-1.999999768122642,0.0882319292994743,9.004595578340908e-05,-9.010042086679367e-05,2.50519141024234e-06,-1.57313310429052e-23,-2.0,0.16250208498071647,2.538124941963495e-22,-1.8094943399206174e-07,-1.8065602132114738e-07,0.7279289524232141,0.0,0.0,0.0,3.3496031379569278,7.935492607189751e-06,-7.906369580199093e-06,1.225518420758973e-07,620.3607052915588,620.3607133814377,620.363270728085,620.3588701322959
0.304,2.2458445531137993e-07,-1.9999997751964682,0.09123678611169936,6.989169514067965e-05,-6.996340532282643e-05,2.3128853751907115e-06,-1.5701683816374688e-23,-2.0,0.16596502888465847,2.53334159814396e-22,-5.078817378147494e-07,-5.077886134896587e-07,0.7412703946408596,0.0,0.0,0.0,3.308482271299513,1.042683790212247e-05,-1.039592175219976e-05,1.2177263734699324e-07,619.390701850512,619.3907104519391,619.3939621387975,619.3881688772708
0.308,2.1723642055522482e-07,-1.9999997825410354,0.0942939928353423,4.940126195072628e-05,-4.948953921277346e-05,2.128368203623519e-06,-1.567182709594515e-23,-2.0,0.1694524427207134,2.5285244541527264e-22,-8.326444450771703e-07,-8.327390802678247e-07,0.7544677577838959,0.0,0.0,0.0,3.2668014196195845,1.2765581727821944e-05,-1.273328661698805e-05,1.20570717778252e-07,618.4059368255037,618.4059458248905,618.4098504657339,618.40274493066
0.312,2.096967674498398e-07,-1.9999997900769018,0.09740299385892669,2.8794191187866363e-05,-2.8897984971485326e-05,1.9516975182020622e-06,-1.5641764470385314e-23,-2.0,0.17296390730279768,2.523674089009038e-22,-1.1520185596012166e-06,-1.1522834565869105e-06,0.7675215166468876,0.0,0.0,0.0,3.2245103955764547,1.4942313455574248e-05,-1.4909098465085932e-05,1.1898165003031058e-07,617.4051509253744,617.4051601960988,617.4096737540751,617.4013418518955
0.316,2.020448856500405e-07,-1.9999997977246162,0.10056325977181403,8.276634316499776e-06,-8.394533469294768e-06,1.782902648610493e-06,-1.561149949281126e-23,-2.0,0.17649900760923407,2.5187910759798695e-22,-1.4629292872734083e-06,-1.4633420330741257e-06,0.7804379986492861,0.0,0.0,0.0,3.181568713927791,1.6949976681268e-05,-1.691631906424032e-05,1.170361186025369e-07,616.3873056567011,616.3873150664809,616.3923914697139,616.3829233542078
0.32,1.9435952608816607e-07,-1.9999998054053723,0.10377425418333634,-1.1948555199125845e-05,1.1818313082042712e-05,1.6219786601784599e-06,-1.5581035680986355e-23,-2.0,0.1800573327477193,2.513875982628316e-22,-1.7624572082150122e-06,-1.7629907372044586e-06,0.7932200977759509,0.0,0.0,0.0,3.1380024574172314,1.877149461849452e-05,-1.8737914563669436e-05,1.147729453079962e-07,615.3529361058595,615.3529455097358,615.3585338449468,615.3480295843593
0.324,1.8671808123948016e-07,-1.999999813041728,0.1070354174928979,-3.167823333689888e-05,3.153775042612771e-05,1.4688907349781448e-06,-1.5550376517618833e-23,-2.0,0.18363847592056376,2.5089293708616065e-22,-2.0477627035583968e-06,-2.0483853684397046e-06,0.8058665323032013,0.0,0.0,0.0,3.093870931738853,2.0384509981985583e-05,-2.0351546728755007e-05,1.1222724115028748e-07,614.3033704116248,614.3033796585418,614.3094226218,614.2979952690511
0.328,1.7919576623837255e-07,-1.9999998205584273,0.11034618146217332,-5.071503831379047e-05,5.0566738423665255e-05,1.3235847552615995e-06,-1.5519525450657088e-23,-2.0,0.18724203439020096,2.5039517969787463e-22,-2.3160378809345947e-06,-2.316713685213812e-06,0.8183730560166531,0.0,0.0,0.0,3.0492046691105448,2.177195577946039e-05,-2.1740178771443157e-05,1.0942298110736023e-07,613.2392585396443,613.2392674692616,613.2457027735344,613.2334754898214
0.332,1.7186490656466076e-07,-1.9999998278831128,0.11370593490087358,-6.886209672155689e-05,6.87086973669104e-05,1.1859391943134575e-06,-1.548848589358266e-23,-2.0,0.19086760944496448,2.498943811717789e-22,-2.5645352220587344e-06,-2.5652241851614262e-06,0.8307333828454224,0.0,0.0,0.0,3.0041041790444307,2.291153261948783e-05,-2.2881520064864806e-05,1.0644113176140795e-07,612.1629253196614,612.1629337682805,612.1696927710716,612.1568019040566
0.336,1.6479422524906184e-07,-1.99999983494704,0.11711397316290473,-8.591542918785253e-05,8.575990076689997e-05,1.055817035729427e-06,-1.5457261225700957e-23,-2.0,0.1945148063651308,2.4939059603027417e-22,-2.790506883685576e-06,-2.7911654176328245e-06,0.8429338663793853,0.0,0.0,0.0,2.958773898941427,2.377148730625533e-05,-2.3743807233913807e-05,1.0330477779647834e-07,611.0791980708259,611.0792058766634,611.086210648706,611.0728112445084
0.34,1.580479436931288e-07,-1.999999841685978,0.12056958400126444,-0.00010168618196130175,0.00010153170609162389,9.33069799404322e-07,-1.5425854792429708e-23,-2.0,0.198183234389226,2.488838782490104e-22,-2.991235109260844e-06,-2.99181675082537e-06,0.8549605959560818,0.0,0.0,0.0,2.9132470616251607,2.4342733545964532e-05,-2.43179527229972e-05,1.0003293696244416e-07,609.9888339941549,609.9888409948899,609.996010681422,609.9822637453494
0.34400000000000003,1.5168508951695583e-07,-1.9999998480409014,0.1240720555358466,-0.00011600415685691488,0.00011585408055569595,8.175332768655549e-07,-1.5394269905585186e-23,-2.0,0.20187250668059403,2.4837428126150484e-22,-3.164183055150049e-06,-3.1646390152619796e-06,0.8668092557776743,0.0,0.0,0.0,2.8675410310531797,2.46229956053038e-05,-2.4601643418326943e-05,9.665007955047623e-08,608.8922143821055,608.8922204250936,608.8994731567269,608.8855418551208
0.34800000000000003,1.457589058328222e-07,-1.9999998539585808,0.12762068210092053,-0.00012871956767886367,0.0001285773561721784,7.090413837837495e-07,-1.5362509843666197e-23,-2.0,0.20558224029422514,2.4786185796372393e-22,-3.3071252273341373e-06,-3.307405193539258e-06,0.8784805582945128,0.0,0.0,0.0,2.821661351027017,2.4613867113327623e-05,-2.4596447910334358e-05,9.316513978623427e-08,607.7894387313833,607.7894436702228,607.7966976074426,607.7827450898561
0.35200000000000004,1.4031636865971654e-07,-1.999999859392068,0.13121478045137713,-0.00013970472880697575,0.0001395739228537085,6.074139572579394e-07,-1.5330577852135865e-23,-2.0,0.2093120561438421,2.4734666071862966e-22,-3.4181812019953904e-06,-3.418234061509308e-06,0.8899773756758627,0.0,0.0,0.0,2.7755805349528573,2.4321019188095543e-05,-2.430802034329052e-05,8.960138362459494e-08,606.6798109479316,606.6798146402149,606.686989181616,606.6731762538964
0.35600000000000004,1.3539772419094884e-07,-1.9999998643011574,0.13485366280420882,-0.00014885319869044835,0.00014873735873581842,5.124560347120708e-07,-1.529847714370122e-23,-2.0,0.21306157896924247,2.468287413606907e-22,-3.495834220957616e-06,-3.495608886284738e-06,0.9013021252061097,0.0,0.0,0.0,2.729325152208032,2.3750424135176878e-05,-2.374227928351731e-05,8.598349749480218e-08,605.56393488005,605.5639371978341,605.5709530479596,605.5574380343642
0.36000000000000004,1.310361139179785e-07,-1.9999998686527607,0.13853662865915425,-0.0001560811573911145,0.00015598380067890412,4.239495352059403e-07,-1.5266210898590617e-23,-2.0,0.21683043730389515,2.46308151200358e-22,-3.5389414274000983e-06,-3.5383876621241846e-06,0.9124539087150518,0.0,0.0,0.0,2.682938574422881,2.291168965474315e-05,-2.290876815211029e-05,8.234649309264125e-08,604.4428250811582,604.4428259140736,604.4496061486021,604.4365428214664
0.36400000000000005,1.2725720098418026e-07,-1.9999998724212817,0.14226293550994973,-0.00016133105234861724,0.00016125556883872635,3.416520879260744e-07,-1.5233782264828992e-23,-2.0,0.22061826344278904,2.457849410285061e-22,-3.5467595162394877e-06,-3.5458291073381786e-06,0.9234269218403849,0.0,0.0,0.0,2.636524077630289,2.181984829843489e-05,-2.1822440394701306e-05,7.872769993622619e-08,603.3189553566618,603.3189546162832,603.3254262335188,603.3129607203848
0.36800000000000005,1.2407912231628843e-07,-1.9999998755886628,0.14603183448929755,-0.00016457005570366098,0.00016451964531732336,2.6534957795043235e-07,-1.5201194358510974e-23,-2.0,0.22442469341053228,2.4525916112083936e-22,-3.518977310599306e-06,-3.517625233818817e-06,0.9342153704676639,0.0,0.0,0.0,2.590113991569842,2.0493368266268583e-05,-2.0501677164227773e-05,7.510406320180565e-08,602.1930953002412,602.1930929225393,602.1991876899021,602.1874564147396
0.372,1.2151254982219775e-07,-1.9999998781443227,0.14984260080507403,-0.00016578690644193506,0.00016576453814145817,1.9481387913816746e-07,-1.5168450264071864e-23,-2.0,0.22824936692969977,2.447308612422643e-22,-3.455703859063846e-06,-3.4538893877781986e-06,0.9448187994057223,0.0,0.0,0.0,2.5436791341727965,1.8949868811706383e-05,-1.896404163087625e-05,7.15007424562506e-08,601.0645237590822,601.0645196957257,601.0701741119608,601.0593041728026
0.376,1.1956062091896118e-07,-1.9999998800852254,0.15369450905899215,-0.00016499425870590136,0.00016500261504705038,1.2981379233175262e-07,-1.513555303455652e-23,-2.0,0.23209192738942783,2.442000906512274e-22,-3.357450840162605e-06,-3.3551383221205626e-06,0.9552402776917696,0.0,0.0,0.0,2.4972397026756803,1.7324664333739226e-05,-1.734463833350986e-05,6.791709448794251e-08,599.9337176735236,599.9337119361709,599.9389009367283,599.9289424930305
0.38,1.1821908552247542e-07,-1.9999998814157318,0.1575868399255243,-0.00016222658221139792,0.0001622680121411138,7.01292411002505e-08,-1.5102505691886113e-23,-2.0,0.23595202181425312,2.4366689810401948e-22,-3.225132053706789e-06,-3.222291744679296e-06,0.9654810356183605,0.0,0.0,0.0,2.450802413772896,1.552816681507341e-05,-1.555394548918956e-05,6.436775841138481e-08,598.8008283884262,598.8008209697236,598.8054936235054,598.796548676383
0.384,1.1747656327937707e-07,-1.9999998821473408,0.1615188905391269,-0.00015753595161291186,0.00015761243653232275,1.5523307643444636e-08,-1.5069311227122844e-23,-2.0,0.2398293008331952,2.4313133185904635e-22,-3.0600291615492523e-06,-3.056637895293984e-06,0.9755432975600027,0.0,0.0,0.0,2.404352764134838,1.3578806302649786e-05,-1.3610327548878705e-05,6.088107356108036e-08,597.6654891705648,597.6654800820069,597.6695905469605,597.6617510743677
0.388,1.1731458371933835e-07,-1.9999998822986484,0.16548993052438973,-0.00015099990929591563,0.00015111300051479752,-3.424286515020435e-08,-1.5035972600732556e-23,-2.0,0.24372341864907998,2.4259343968106596e-22,-2.863796206218705e-06,-2.859838182050896e-06,0.9854265932562637,0.0,0.0,0.0,2.35796501730655,1.150299726653271e-05,-1.1540097468409921e-05,5.746867941218037e-08,596.5295063722036,596.5294956546879,596.5330054462688,596.5263487531582
0.392,1.1770805658534772e-07,-1.9999998818948763,0.16949922791171274,-0.00014271509668639353,0.0001428658769841686,-7.940329353114813e-08,-1.5002492742845327e-23,-2.0,0.24763403300810277,2.420532688453928e-22,-2.6384636841371094e-06,-2.6339312657286395e-06,0.9951282112012863,0.0,0.0,0.0,2.311661771207696,9.326437658714122e-06,-9.368875344114012e-06,5.413439143604859e-08,595.3934312766987,595.3934189938972,595.3962968294989,595.3908858190875
0.396,1.1862569316996529e-07,-1.9999998809674473,0.1735460514719851,-0.00013279563410364156,0.00013298468653168564,-1.2018963411289447e-07,-1.4968874553514e-23,-2.0,0.25156080516962903,2.415108661420693e-22,-2.3864192556635565e-06,-2.3813136866020904e-06,1.0046468832597746,0.0,0.0,0.0,2.2654609895350144,7.074034733675471e-06,-7.121472923798287e-06,5.0884741122286546e-08,594.2577053458892,594.2576915895437,594.2599132201958,594.255796742355
0.4,1.200304067270691e-07,-1.9999998795535843,0.17762965786097143,-0.00012137556726776871,0.00012160294156681505,-1.5684724664200091e-07,-1.4935120902970725e-23,-2.0,0.25550339987623083,2.4096627788000456e-22,-2.110366981551314e-06,-2.1046987814760605e-06,1.013981508402554,0.0,0.0,0.0,2.2194067558114257,4.774801879655099e-06,-4.826825674353944e-06,4.7744943094248284e-08,593.1234173304254,593.1234022154744,593.1249517357301,593.122162087344
0.404,1.2187989024117125e-07,-1.99999987769573,0.1817492998290483,-0.00010860493293245039,0.00010887012389152197,-1.8958987827200925e-07,-1.4901234631881462e-23,-2.0,0.25946148532395785,2.404195498910809e-22,-1.8133318722518335e-06,-1.8071213351091559e-06,1.0231305224099954,0.0,0.0,0.0,2.1735269303126143,2.4569300229541496e-06,-2.5130384817933586e-06,4.468785586555523e-08,591.991263680274,591.9912473473918,591.9921168615784,591.9906701297763
0.40800000000000003,1.2412738449977421e-07,-1.9999998754407768,0.1859042612775114,-9.463769443459232e-05,9.493965023135606e-05,-2.1862497403445013e-07,-1.4867218551598523e-23,-2.0,0.2634347331328405,2.3987072753422827e-22,-1.498563919974686e-06,-1.4918412537821776e-06,1.032095621186476,0.0,0.0,0.0,2.127778402350941,1.3832008536718023e-07,-1.979626669834632e-07,4.171462138987229e-08,590.8601897747496,590.8601723798674,590.8603591644977,590.8602610869588
0.41200000000000003,1.2672222516349463e-07,-1.9999998728395187,0.19009384975039265,-7.963194558864488e-05,7.996907688874283e-05,-2.441581927129144e-07,-1.483307544441112e-23,-2.0,0.26742281831762377,2.3931985569946664e-22,-1.1694094085431997e-06,-1.16221463909435e-06,1.0408830170913184,0.0,0.0,0.0,2.0821323574816373,-2.164538092720992e-06,2.101955144854636e-06,3.883141257285959e-08,589.7294873584594,589.7294690710174,589.728975215102,589.7302219322144
0.41600000000000004,1.2961031120504867e-07,-1.9999998699461794,0.19431736990591394,-6.375613365320506e-05,6.41263144721301e-05,-2.6639457602973824e-07,-1.4798808063793968e-23,-2.0,0.2714254192587302,2.3876697881191698e-22,-8.292942713753253e-07,-8.216768831332038e-07,1.0494961569959893,0.0,0.0,0.0,2.0366131184425416,-4.4280108654876484e-06,4.363153514974013e-06,3.6045709123712e-08,588.5997627889494,588.5997438005259,588.5985783289929,588.6011521362852
0.42000000000000004,1.3273470405209545e-07,-1.9999998668178125,0.19857411598835709,-4.7189553344164175e-05,4.759012680231653e-05,-2.855452928809156e-07,-1.4764419134653926e-23,-2.0,0.27544221767345006,2.382121408357807e-22,-4.817701335631134e-07,-4.73788848160807e-07,1.057934606446276,0.0,0.0,0.0,1.9912604287474234,-6.625238363985515e-06,6.5588169959331005e-06,3.337285806055856e-08,587.4720109030168,587.471991419362,587.4701713293489,587.4740386622047
0.42400000000000004,1.360362309517927e-07,-1.999999863513696,0.20286335630301938,-3.012516312573424e-05,3.0552950630492397e-05,-3.018138101669399e-07,-1.4729911353574716e-23,-2.0,0.279472898587357,2.376553852782879e-22,-1.305723733762709e-07,-1.222949638371731e-07,1.0661944873938498,0.0,0.0,0.0,1.946145922134309,-8.724696018173804e-06,8.657480284726319e-06,3.081231808898469e-08,586.3480294758365,586.3480097213719,586.3455613681831,586.35066992704
0.42800000000000005,1.394543051442481e-07,-1.9999998600945104,0.2071843608598177,-1.2759190791465533e-05,1.3210519627281193e-05,-3.1539387743723587e-07,-1.4695287389059728e-23,-2.0,0.283517150305948,2.3709675519361503e-22,2.2042099862046924e-07,2.289181625305758e-07,1.074272545686133,0.0,0.0,0.0,1.9012860056609044,-1.0702956654498522e-05,1.0635744396145482e-05,2.8360891596533988e-08,585.2282501739811,585.2282303827416,585.2251871680991,585.2314705350453
0.432,1.429276563728032e-07,-1.9999998566216062,0.21153640996737172,4.7132955581055035e-06,-4.242556200199373e-06,-3.2646292801291556e-07,-1.4660549881772915e-23,-2.0,0.28757466438650475,2.365362931867713e-22,5.672869618411697e-07,5.759196143960094e-07,1.0821689871546567,0.0,0.0,0.0,1.8566796393363267,-1.2541790590011235e-05,1.2475407619243797e-05,2.6007286939214234e-08,584.1126711436951,584.1126515593144,584.1090524245581,584.1164330263335
0.436,1.4639504680535923e-07,-1.9999998531562873,0.21591880420419868,2.2103129035177866e-05,-2.1617524536067325e-05,-3.3520268199307855e-07,-1.46257014447778e-23,-2.0,0.291645135610177,2.359740414174549e-22,9.061927536807879e-07,9.148695172684658e-07,1.0898870668987688,0.0,0.0,0.0,1.8123052668086237,-1.4228049565840535e-05,1.4163321963185641e-05,2.376362243268524e-08,583.0007758205643,583.0007566881322,582.9966447309844,583.005036759994
0.44,1.4979581690864466e-07,-1.9999998497592624,0.2203308218564994,3.921771272384943e-05,-3.872215304755784e-05,-3.4178896341635316e-07,-1.4590744663774614e-23,-2.0,0.29572826195428326,2.3541004160387933e-22,1.2333972128815196e-06,1.2420206586312351e-06,1.0974274167351408,0.0,0.0,0.0,1.768227114396545,-1.5739333152083177e-05,1.5677100598128663e-05,2.1630309942432298e-08,581.8941992521999,581.8941808222826,581.8896060413656,581.8989098891675
0.444,1.530706188706916e-07,-1.999999846489912,0.22477174388360527,5.5869631406591884e-05,-5.5369335117232654e-05,-3.4638774930945587e-07,-1.4555682097335568e-23,-2.0,0.29982374456482985,2.348443350265689e-22,1.5452499508381401e-06,1.5537176766327071e-06,1.104788484272123,0.0,0.0,0.0,1.724459499074654,-1.7060319413183602e-05,1.7001394722890653e-05,1.9602916161510644e-08,580.7933323014458,580.7933148180628,580.7883320541654,580.7984384108776
0.448,1.5616205955799608e-07,-1.9999998434056439,0.22924085608687753,7.18791115846448e-05,-7.137954428880625e-05,-3.491576044495334e-07,-1.4520516277138287e-23,-2.0,0.30393128772924555,2.3427696253212526e-22,1.8382287293997127e-06,1.8464346035998705e-06,1.1119700917395288,0.0,0.0,0.0,1.6810122981430504,-1.8179193464099636e-05,1.8124374330357098e-05,1.7679459207786688e-08,579.6984566469913,579.6984403510365,579.6931082826094,579.7039001577745
0.452,1.5901530294285253e-07,-1.9999998405612884,0.2337374491046039,8.70758299501847e-05,-8.658263803188878e-05,-3.502497794195808e-07,-1.44852497081974e-23,-2.0,0.30805059884933,2.337079645369638e-22,2.1090249271651748e-06,2.116860517807838e-06,1.1189734518785044,0.0,0.0,0.0,1.6378952918193201,-1.9086561076529547e-05,1.903662356798172e-05,1.58577784424503e-08,578.6098534669707,578.6098385942358,578.6042190440219,578.6155731540882
0.456,1.6157863233367408e-07,-1.9999998380085393,0.23826081843996658,0.00010130060909039567,-0.00010081954955807462,-3.498083158806168e-07,-1.4449884869094305e-23,-2.0,0.3121813884144149,2.331373810310209e-22,2.3545810217195388e-06,2.361936924552274e-06,1.1257997766236278,0.0,0.0,0.0,1.5951180958440547,-1.977551426693679e-05,1.9731159179133173e-05,1.4135546416172676e-08,577.5278017050344,577.5277884701445,577.521945699121,577.5337338944363
0.46,1.6380396712239974e-07,-1.9999998357954332,0.24281026451199633,0.00011440697371186847,-0.0001139438409276978,-3.4797017776119835e-07,-1.441442421220516e-23,-2.0,0.3163233699747358,2.325652515814322e-22,2.572124570345565e-06,2.578891954802111e-06,1.1324502860813022,0.0,0.0,0.0,1.5526901135039433,-2.0241572392562633e-05,2.020347701264029e-05,1.2510302964193853e-08,576.4525767854348,576.452565397145,576.4465653774073,576.458656080165
0.464,1.6564732943988759e-07,-1.9999998339658849,0.24738509272488457,0.00012626255055393768,-0.0001258231010677371,-3.4486540391633924e-07,-1.4378870163927047e-23,-2.0,0.3204762601150138,2.3199161533618164e-22,2.7591989260951577e-06,2.76527101253127e-06,1.1389262141021554,0.0,0.0,0.0,1.5106204963186787,-2.0482809775049168e-05,2.045156818693369e-05,1.097948517892597e-08,575.3844495654972,575.3844402087527,575.3783498842827,575.390609584106
0.468,1.670692567513059e-07,-1.9999998325592752,0.2519846135517192,0.00013675029840403885,-0.00013634017470900522,-3.4061727769559326e-07,-1.4343225124902368e-23,-2.0,0.3246397784282443,2.31416511027722e-22,2.9136902653030873e-06,2.9189639148412465e-06,1.145228812645991,0.0,0.0,0.0,1.4689181121292658,-2.0499774097550554e-05,2.0475906407669034e-05,9.540452947736577e-09,574.3236854371925,574.3236782757016,574.3175648196568,574.3298595557786
0.47200000000000003,1.6803515709304982e-07,-1.9999998316100944,0.256608142629311,0.00014576955613144503,-0.00014539421042080204,-3.3534250906401116e-07,-1.430749147024149e-23,-2.0,0.32881364748969266,2.308399769765669e-22,3.0338505919151673e-06,3.038227914588314e-06,1.151359355197807,0.0,0.0,0.0,1.4275915194951017,-2.029544618813073e-05,2.027940710972257e-05,8.190510108077549e-09,573.2705435897743,573.2705387684143,573.2644688454969,573.2766656790734
0.47600000000000003,1.685156043453116e-07,-1.9999998311476508,0.26125500086128955,0.00015323689915023862,-0.00015290151819659768,-3.2915142511522373e-07,-1.4271671549743614e-23,-2.0,0.332997592831094,2.302620510948545e-22,3.1183164388649917e-06,3.1217061784726697e-06,1.1573191393797837,0.0,0.0,0.0,1.3866489474657024,-1.9875232476649183e-05,1.9867359385285987e-05,6.926921270380195e-09,572.2252764105502,572.2252740395695,572.2193130818697,572.2312815596506
0.48000000000000004,1.6848657164132843e-07,-1.9999998311958347,0.26592451452708743,0.00015908679735404798,-0.0001587962293894805,-3.221481653353629e-07,-1.4235767688115922e-23,-2.0,0.33719134291505654,2.296827708898832e-22,3.16612304416542e-06,3.1684422110538035e-06,1.1631094888833164,0.0,0.0,0.0,1.3460982799248127,-1.924676336013663e-05,1.9247331962273805e-05,5.7469247452561755e-09,571.1881289709095,571.188129142455,571.182340646902,571.1939541894426
0.48400000000000004,1.679296017269476e-07,-1.9999998317729522,0.270616015394803,0.00016327206936673504,-0.00016303075418346445,-3.1443087835372323e-07,-1.4199782185190988e-23,-2.0,0.3413946291096666,2.291021734676195e-22,3.1767138393109372e-06,3.177889063531225e-06,1.1687317548268215,0.0,0.0,0.0,1.3059470438271814,-1.8419894785191817e-05,1.842905477839277e-05,4.647741866434326e-09,570.1593386413462,570.1593414098728,570.1537862650715,570.1649235323526
0.48800000000000004,1.6683191379409262e-07,-1.9999998328916186,0.2753288408362531,0.00016576413113712917,-0.00016557603418622345,-3.0609191752059685e-07,-1.4163717316142488e-23,-2.0,0.34560718566329346,2.2852029553617816e-22,3.149945149093352e-06,3.149914003428185e-06,1.1741873166297137,0.0,0.0,0.0,1.2662024007432384,-1.7406472106936294e-05,1.7424277951543087e-05,3.626583281688201e-09,569.1391347553033,569.1391401466085,569.1338759963968,569.1444221514262
0.49200000000000005,1.6518644701093722e-07,-1.999999834558717,0.28006233394280017,0.0001665530385685168,-0.00016642159011416954,-2.9721803311834117e-07,-1.4127575331699188e-23,-2.0,0.3498287496795929,2.279371734092748e-22,3.086086064159342e-06,3.0847982301886938e-06,1.1794775824797628,0.0,0.0,0.0,1.226871141207904,-1.622020861943537e-05,1.624661017731153e-05,2.6806526463881624e-09,568.1277383628557,568.1277463710269,568.1228270215636,568.1326749190315
0.49600000000000005,1.6299184165239276e-07,-1.9999998367754188,0.2848158436407678,0.00016564732663706884,-0.00016557536688381386,-2.87890559684416e-07,-1.4091358458357266e-23,-2.0,0.35405906109270824,2.273528430096516e-22,2.985813509725324e-06,2.9832319091281164e-06,1.1846039894595488,0.0,0.0,0.0,1.1879596814567912,-1.487649998551317e-05,1.4911338784941544e-05,1.8071484151455283e-09,567.1253620373128,567.1253726233617,567.1208474999645,567.1298987737366
0.5,1.6025235938964167e-07,-1.999999839537265,0.2895887248054612,0.00016307364976471045,-0.00016306338069761058,-2.78185597450422e-07,-1.4055068898590947e-23,-2.0,0.3582978626426669,2.267673398724755e-22,2.850202594984113e-06,2.846304284503136e-06,1.1895680033883893,0.0,0.0,0.0,1.1494740621712054,-1.3392219802896902e-05,1.3435233852859699e-05,1.0032642823680702e-09,566.1322097323302,566.1322228254232,566.1281364847072,566.1363025221314
0.504,1.5697771626002966e-07,-1.9999998428343362,0.29438034385019063,0.00015887495879245234,-0.00015892791052481712,-2.681710191215125e-07,-1.4018708831061474e-23,-2.0,0.3625448998509709,2.261806991487101e-22,2.680707500550872e-06,2.675484417647178e-06,1.194371666149024,0.0,0.0,0.0,1.1114088328337597,-1.1784373045496955e-05,1.183519645396251e-05,2.6248776285544726e-10,565.1481890797754,565.1482045769037,565.1445966136198,565.1517987180678
0.508,1.5318284750928486e-07,-1.99999984665149,0.29919008738327363,0.0001531077852125912,-0.00015322480154596354,-2.5791381772631756e-07,-1.3982280410824436e-23,-2.0,0.3667999209963806,2.255929556084605e-22,2.479111283620223e-06,2.472570538885243e-06,1.1990184499048748,0.0,0.0,0.0,1.073740646622632,-1.0068767215532372e-05,1.0126960104379115e-05,-4.1344328827027864e-10,564.172742763896,564.1727605388137,564.1696659283416,564.1758346784424
0.512,1.4888786380605353e-07,-1.9999998509684067,0.30401732578439516,0.00014584982509052643,-0.00014603101048218172,-2.4747663903490244e-07,-1.3945785769535452e-23,-2.0,0.3710626770908895,2.25004143644292e-22,2.2475367668959824e-06,2.2397011162936923e-06,1.2035096034353936,0.0,0.0,0.0,1.0365194758892573,-8.268915558263175e-06,8.333911344739459e-06,-1.026873145393092e-09,563.2072127715305,563.207232658416,563.2046793771229,563.2097593759452
0.516,1.4411764498376823e-07,-1.9999998557599972,0.30886143465267224,0.00013719394996648988,-0.00013743865260962368,-2.3691666239612348e-07,-1.3909227015654234e-23,-2.0,0.37533292185588907,2.2441429727452233e-22,1.9884550025074635e-06,1.979363078741546e-06,1.2078445188132239,0.0,0.0,0.0,0.9997523214096944,-6.407013108484174e-06,6.478153320519132e-06,-1.5816275807642864e-09,562.2518322766507,562.2518540805443,562.2498634341308,562.2538126323561
0.52,1.3890148711811488e-07,-1.9999998609967597,0.31372179668782657,0.00012724660111318735,-0.00012755340755539216,-2.2628659714542252e-07,-1.3872606234647026e-23,-2.0,0.37961041169852183,2.2382345014648802e-22,1.7046589289210709e-06,1.69436547863797e-06,1.212023776179847,0.0,0.0,0.0,0.963442239594472,-4.504124453953837e-06,4.580660348347783e-06,-2.080588881743216e-09,561.3067327441034,561.3067562412264,561.3053431652467,561.3081322658112
0.524,1.3327269165276805e-07,-1.9999998666451928,0.31859780685468314,0.00011612482762515091,-0.0001164915714960227,-2.156328502930917e-07,-1.383592548918746e-23,-2.0,0.3838949056882218,2.2323163553978484e-22,1.3991868264132868e-06,1.3877623803249705e-06,1.216049668811996,0.0,0.0,0.0,0.927581618563625,-2.5797396873756427e-06,2.660855628199488e-06,-2.5289596388690327e-09,560.371767587002,560.3717925317856,560.3709660153094,560.3725776038067
0.528,1.2726808291716842e-07,-1.9999998726682797,0.3234888855595483,0.00010395063685548833,-0.00010437442862213547,-2.0499842459875038e-07,-1.3799186819355797e-23,-2.0,0.38818616553344065,2.2263888636948266e-22,1.0752381317297937e-06,1.0627683866466088e-06,1.2199263222422265,0.0,0.0,0.0,0.8921357528609357,-6.486678149487935e-07,7.335001748449906e-07,-2.928812587350042e-09,559.4460805266988,559.4461066575218,559.4458711488359,559.4462968966012
0.532,1.2092772548187396e-07,-1.9999998790257738,0.32839445217530716,9.085778147506524e-05,-9.133502274214311e-05,-1.9442485834493448e-07,-1.3762392242836617e-23,-2.0,0.39248395555855764,2.2204523518931485e-22,7.3613747749349e-07,7.227224534001489e-07,1.2236570489315672,0.0,0.0,0.0,0.8571228958754202,1.2679258710421726e-06,-1.1803047580067255e-06,-3.280091287434711e-09,558.5301955781694,558.5302226122674,558.530576041705,558.5298206791498
