Time_s,X,Y,Z,Roll_deg,Pitch_deg,Yaw_deg,Ref_X,Ref_Y,Ref_Z,Ref_Yaw,vx,vy,vz,p,q,r,T_pert,tau_x,tau_y,tau_z,RPM_0,RPM_1,RPM_2,RPM_3
0.0040000000000000036,3.540239794309915e-22,-6.0,0.010006999594037988,1.030927412343402e-18,1.9273866450044995e-18,-5.1486728461073835e-21,2.3110657071748654e-22,-6.0,0.010074639714689831,1.7916199615202707e-22,-1.8465271353911924e-19,-1200.0,2.0013999188075973,0.0,0.0,0.0,0.13727673356390743,-1.2038473377160515e-18,-3.683021169308074e-18,1.800587151680914e-20,539.3555031529193,539.3555031529194,539.3555031529193,539.3555031529194
0.008,1.9812678274751357e-22,-6.0,0.01001099936604295,6.771774911299838e-19,3.7479884741046936e-19,6.830176131541204e-20,2.3109003058650283e-22,-6.0,0.01021705724096241,1.7914917365687059e-22,-1.199125285063292e-19,-666.6666666666666,1.112333262893661,0.0,0.0,0.0,0.2830776344539666,3.4258798127161285e-19,4.8269216329353804e-18,-8.516963572556561e-20,543.2938902409246,543.2938902409246,543.2938902409246,543.2938902409246
0.012000000000000004,4.650549306256663e-22,-6.0,0.01001499914698505,3.027955750893863e-20,9.871865462471403e-19,1.5846828908970345e-19,2.310653696959898e-22,-6.0,0.010429397942859043,1.7913005566140433e-22,3.90395359161479e-20,1.1343985423201047e-23,0.000999943862433142,0.0,0.0,0.0,0.42940121623182737,7.090966710491004e-19,-5.538464626732496e-18,-1.0771323909531772e-19,547.2178991685612,547.2178991685613,547.2178991685612,547.2178991685613
0.016,5.075233000202943e-22,-6.0,0.010018998945963373,-6.816521489606633e-19,9.245242708082065e-19,1.5291310966245684e-19,2.310326863828539e-22,-6.0,0.010710815098006973,1.7910471839987987e-22,2.610540233470647e-20,1.5666600637901504e-24,0.0009999466248114888,0.0,0.0,0.0,0.5762362187384306,8.292751296896483e-19,2.3975923167033747e-18,4.0186235336995506e-22,551.1275383014704,551.1275383014704,551.1275383014704,551.1275383014704
0.020000000000000004,6.816960171416141e-22,-6.0,0.01002299876728328,-2.972496074534435e-19,1.7899303423716418e-18,9.593391647499975e-20,2.3099207809276586e-22,-6.0,0.0110604696579496,1.790732374156313e-22,3.469552393277871e-20,-5.668925576628486e-24,0.0009999512590329676,0.0,0.0,0.0,0.7235715098530257,-4.0226631005874556e-19,-2.6466149663764547e-18,6.070088482549216e-20,555.0228180262478,555.0228180262479,555.0228180262478,555.0228180262479
0.024000000000000007,7.078402493678578e-22,-6.0,0.010026998612211397,-5.546435652759537e-19,1.6319128670663177e-18,-1.2469290472667881e-20,2.309436413873475e-22,-6.0,0.011477530186265229,1.7903568756664676e-22,2.2947406644798705e-20,-9.505230741590313e-24,0.0009999568344295356,0.0,0.0,0.0,0.8713960697332805,3.2089389645537035e-19,1.6380850800870076e-18,1.231115333388141e-19,558.903750270111,558.9037502701111,558.903750270111,558.903750270111
0.027999999999999997,6.375296286056188e-22,-6.0,0.010030998480293771,-9.72148519757252e-20,5.912151018944167e-19,1.8529614503463325e-19,2.308874719513042e-22,-6.0,0.011961172797154362,1.789921430310976e-22,1.0631091330961619e-20,-5.94091866647397e-24,0.000999962660502146,0.0,0.0,0.0,1.0196989906545977,-4.962264848785597e-19,2.201045219485889e-18,-2.300909605071533e-19,562.7703484464471,562.7703484464471,562.7703484464471,562.7703484464471
0.032,5.272521965756402e-22,-6.0,0.010034998370126438,4.54186055204959e-20,5.6554948920713645e-19,1.7974096560738668e-19,2.308236645995032e-22,-6.0,0.012510581094492131,1.7894267731282594e-22,-7.05494615034138e-21,-4.213958897207263e-24,0.0009999683319838332,0.0,0.0,0.0,1.1684694770959172,-1.5990992694269518e-19,5.092897905104326e-19,-7.0171514699703315e-22,566.6226274095269,566.622627409527,566.6226274095269,566.6226274095269
0.036000000000000004,5.304354193700835e-22,-6.0,0.010038998279825285,-3.9918689945875704e-19,7.44480671069475e-19,2.9366189444462153e-19,2.307523132839982e-22,-6.0,0.013124946111342446,1.7888736324679027e-22,-6.187736430344774e-21,-3.610808797931717e-24,0.000999973640765546,0.0,0.0,0.0,1.3176968453495645,5.160744197916861e-19,-1.4815523691193746e-18,-1.4004109660835226e-19,570.4606033994031,570.4606033994032,570.4606033994031,570.4606033994031
0.04000000000000001,5.723237972840672e-22,-6.0,0.010042998207493459,-9.266151686869683e-19,8.388803189343713e-19,5.365606919715151e-19,2.3067351110100106e-22,-6.0,0.013803466249930549,1.7882627300447015e-22,-6.349972507879495e-22,-7.83270840483699e-24,0.000999978487971169,0.0,0.0,0.0,1.467370522543077,6.4319242385534805e-19,-6.1805037418206455e-19,-2.9538611916245055e-19,574.2842939745711,574.2842939745713,574.2842939745711,574.2842939745713
0.044,6.074005516049327e-22,-6.0,0.010046998151263817,-9.05073193673355e-19,1.0001469216054274e-18,1.86125725438826e-19,2.3058735029780027e-22,-6.0,0.014545347222070593,1.787594780992297e-22,9.931874505560092e-21,-1.32566079666473e-23,0.0009999828641553063,0.0,0.0,0.0,1.6174800465261765,3.820888117956735e-20,-2.0470248456994313e-19,3.8774680922422917e-19,578.0937179696871,578.0937179696872,578.0937179696871,578.0937179696871
0.048,6.794712449301267e-22,-6.0,0.010050998109266442,-1.4252990925549187e-18,1.432349325248666e-18,2.6608638983817576e-19,2.3049392227962713e-22,-6.0,0.015349801990044966,1.7868704939164056e-22,1.205013064431078e-20,-1.880273029105693e-23,0.000999986774697162,0.0,0.0,0.0,1.7680150650684396,6.693756874965092e-19,-1.0373006836936524e-18,-1.0063389291192575e-19,581.8888954380959,581.888895438096,581.8888954380959,581.8888954380959
0.052000000000000005,6.480867728422513e-22,-6.0,0.01005499807982371,-1.3379232948953559e-18,1.2913926369350723e-18,-5.1092415206392544e-20,2.3039331761647e-22,-6.0,0.016216050707932004,1.786090570947644e-22,4.8091232479691445e-21,-2.2073259345867583e-23,0.000999990235053816,0.0,0.0,0.0,1.9189653344529098,-4.5662166455943415e-21,1.207681424075468e-18,3.6000382203061805e-19,585.6698475819666,585.6698475819667,585.6698475819666,585.6698475819666
0.05600000000000001,6.561048869601032e-22,-6.0,0.010058998061596236,-1.438744561790523e-18,1.3660927725964086e-18,2.53567825084154e-19,2.302856260498366e-22,-6.0,0.01714332066337891,1.7852557077939534e-22,-5.063060076806984e-22,-2.427199883679737e-23,0.0009999932987439161,0.0,0.0,0.0,2.0703207186314576,2.0922262822917657e-19,-6.13189131781046e-19,-3.53378683042666e-19,589.4365966994745,589.4365966994746,589.4365966994745,589.4365966994745
0.06,6.438368636654794e-22,-6.0,0.010062998053341215,-1.499304600790459e-18,1.2852353175507254e-18,3.667846509716245e-19,2.30170936499465e-22,-6.0,0.01813084621981657,1.7843665937926265e-22,-4.1872471147056817e-22,-2.49582837711659e-23,0.0009999960263551086,0.0,0.0,0.0,2.222071189075992,1.6910268548892168e-19,2.2613632127874483e-19,-1.422533914799466e-19,593.1891661515476,593.1891661515477,593.1891661515476,593.1891661515476
0.064,6.241776701869257e-22,-6.0,0.010067295865644756,2.5803512566162477e-18,1.570666434404491e-18,-1.258913230562885e-18,2.3004933706998385e-22,-6.0,0.019177868759113068,1.783423911961939e-22,-3.0726998281461565e-21,-1.7967742377137368e-23,0.001029779627406864,0.0,0.0,0.0,2.373602409579964,-4.661420305655501e-18,-3.294165308144901e-19,1.884424346187411e-18,596.9127744223648,596.9127744223649,596.9127744223648,596.9127744223648
0.068,1.9032497779215201e-22,-6.0,0.01007547222920789,6.208343996219369e-17,4.287034704305788e-17,-9.068074066803891e-18,2.2992091505752197e-22,-6.0,0.02028363662466268,1.7824283390523892e-22,-4.647101947158034e-20,5.439133134129769e-22,0.001447417289692464,0.0,0.0,0.0,2.518232327968377,-6.96601349064007e-17,-4.34958637277522e-17,9.174442677990274e-18,600.4452578865836,600.4452578865837,600.4452578865836,600.4452578865836
0.07200000000000001,-7.125667730495934e-22,-6.0,0.01009269464256497,1.840322035018271e-16,1.384867569794882e-16,-1.8109739896133425e-17,2.2978575695626755e-22,-6.0,0.02144740506490721,1.781380545597548e-22,-1.3831072183138471e-19,4.7889500244376354e-21,0.002769658996511215,0.0,0.0,0.0,2.6526166964598796,-1.46648934778993e-16,-1.0876072874183752e-16,1.0934872095519053e-17,603.7089761825208,603.7089761825208,603.7089761825208,603.7089761825208
0.076,-1.747418771713161e-21,-6.0,0.010123758012839637,3.41082403228379e-16,2.795676733757829e-16,-2.801527653038309e-17,2.296439484649778e-22,-6.0,0.022668436177286463,1.7802811959645234e-22,-2.3842445502527497e-19,2.0248099027065916e-20,0.005318719496796853,0.0,0.0,0.0,2.7773373179824086,-1.9597716470312662e-16,-1.7191979490029669e-16,1.2315289102531432e-17,606.7222886053604,606.7222886053603,606.7222886053604,606.7222886053603
0.08,-2.0291848984179423e-21,-6.0,0.010172987673965572,5.280596044359564e-16,4.1922465176775173e-16,-4.663201478248672e-17,2.2949557449343874e-22,-6.0,0.023945998852614787,1.7791309484040405e-22,-2.28561396564874e-19,5.812039319228371e-20,0.009034949023114039,0.0,0.0,0.0,2.8931847825299006,-2.4166335905978267e-16,-1.9009813574835296e-16,2.2898102703695983e-17,609.5078760167158,609.5078760167158,609.5078760167158,609.5078760167158
0.084,-1.3459464180981005e-21,-6.0,0.010244328447742444,7.530913287350386e-16,5.81105538552737e-16,-6.776531860015609e-17,2.293407191688764e-22,-6.0,0.025279368719880478,1.7779304551001407e-22,-1.113198341872174e-19,1.331464288322005e-19,0.013811022829803182,0.0,0.0,0.0,3.000783982798905,-2.9888680305529245e-16,-2.2869056217140657e-16,2.660231180208198e-17,612.0837761143258,612.0837761143257,612.0837761143258,612.0837761143258
0.08800000000000001,4.883079195743134e-22,-6.0,0.010341298381932668,1.0169147979733088e-15,7.976479041003469e-16,-9.123799720962589e-17,2.2917946584231875e-22,-6.0,0.026667828091465066,1.7766803622195042e-22,4.246817165833365e-20,2.633653916058965e-19,0.01954553946281936,0.0,0.0,0.0,3.1008659158646097,-3.5957338344488327e-16,-3.0656445766447797e-16,3.0202872330399783e-17,614.4700215570787,614.4700215570786,614.4700215570787,614.4700215570787
0.09200000000000001,-3.557628276865908e-11,-6.000000000035576,0.01046705342807081,-3.4648585059753163e-06,3.464839591185951e-06,1.4663167162417164e-06,2.2901189709490944e-22,-6.0,0.028110665908779347,1.7753813099603955e-22,-3.831320544214592e-09,-3.831291899674926e-09,0.02613877952009347,0.0,0.0,0.0,3.194044004807072,3.631462645309586e-06,-3.631437104653589e-06,-1.7128897931101868e-06,616.6858977197371,616.6858977268744,616.6818353891847,616.6798058408788
0.09600000000000002,-2.2583690200294482e-10,-6.0000000002258425,0.010624500676555262,-2.2793553637242452e-05,2.2792920246502235e-05,4.0239152866670845e-06,2.2883809474417365e-22,-6.0,0.02960717768831314,1.7740339326012374e-22,-2.6892981443054326e-08,-2.689362555857131e-08,0.03350935472472988,0.0,0.0,0.0,3.2807134896635795,2.097523833219259e-05,-2.097459086793143e-05,-3.047891245847173e-06,618.7394871733004,618.7394873536263,618.7363248843596,618.724641236244
0.10000000000000002,-5.010591113399155e-10,-6.0000000005010845,0.010816338622427797,-5.615505801965024e-05,5.615219976604472e-05,7.118451924950618e-06,2.286581398502359e-22,-6.0,0.03115666546809575,1.7726388585488156e-22,-6.886768125874842e-08,-6.887093946405739e-08,0.041594698398366034,0.0,0.0,0.0,3.361195910218946,3.9365818980003247e-05,-3.9363345575078735e-05,-3.7801430425981616e-06,620.6396452046854,620.6396458914463,620.6394422958002,620.617582117297
0.104,-7.308952095380842e-10,-6.000000000730957,0.01104503804568316,-0.00010079586024507163,0.00010078831985972142,1.0605580379458832e-05,2.284721127219908e-22,-6.0,0.0327584377545641,1.771196710386115e-22,-1.1249705534720299e-07,-1.1250604439660267e-07,0.05033966458027224,0.0,0.0,0.0,3.4358583461603143,5.626408451724394e-05,-5.62586268427492e-05,-4.3658239969036164e-06,622.3970710417052,622.3970725527937,622.3998273342709,622.3686720743127
0.108,-7.436026050027682e-10,-6.000000000743709,0.01131286107048546,-0.00015414166976125262,0.00015412633147750471,1.4363267267913221e-05,2.282800929232266e-22,-6.0,0.03441180946983568,1.769708104919793e-22,-1.4358922435282683e-07,-1.436069035019708e-07,0.059689981095020696,0.0,0.0,0.0,3.5050365419306466,7.151852829746398e-05,-7.150904270602479e-05,-4.825071746907744e-06,624.0208674882008,624.0208701076808,624.0264839268128,623.9869854570265
0.112,-3.3399129479291283e-10,-6.000000000334133,0.01162188104338015,-0.00021377999437023891,0.00021375327699537812,1.8286397117397527e-05,2.2808215927870237e-22,-6.0,0.036116101899383087,1.7681736532272897e-22,-1.5604738953752642e-07,-1.5607660709789052e-07,0.06959464100239607,0.0,0.0,0.0,3.569032636980099,8.508550163146242e-05,-8.507108537309412e-05,-5.172638002596902e-06,625.5191597394628,625.5191637110283,625.5274846342345,625.4806067040892
0.116,7.283666152157411e-10,-5.999999999271767,0.01197399117142652,-0.00027747079706407597,0.0002774288435783119,2.2286268573823496e-05,2.278783898801784e-22,-6.0,0.037870642640107546,1.7665939607035804e-22,-1.446321061042625e-07,-1.4467486841142732e-07,0.08000658449437112,0.0,0.0,0.0,3.628137343926786,9.693554703770014e-05,-9.691546539743353e-05,-5.4233806707486645e-06,626.8996502081228,626.8996557282736,626.9104830331241,626.8571948658052
0.12000000000000001,2.690866988443119e-09,-5.999999997309164,0.012370897804179786,-0.00034317428861810133,0.00034311313909732907,2.6287177251528075e-05,2.2766886209240103e-22,-6.0,0.03967476554880827,1.76496962710757e-22,-1.0490055192057386e-07,-1.0495770161543494e-07,0.09087990577534641,0.0,0.0,0.0,3.682660838639336,0.00010707629117825568,-0.00010704988716481618,-5.588839902655754e-06,628.1703525591455,628.1703598025426,628.18346386884,628.1247212428684
0.12400000000000001,5.81101825505273e-09,-5.999999994188748,0.012814172567705697,-0.00040900172948413004,0.00040891749885130896,3.022495132281991e-05,2.2745365255904167e-22,-6.0,0.04152781069104483,1.763301246608136e-22,-3.304366318082059e-08,-3.311453652033372e-08,0.10217320221921793,0.0,0.0,0.0,3.7328135331596206,0.00011548122739593784,-0.00011544812487351747,-5.679378883981531e-06,629.3368357428212,629.3368448069845,629.3519611855518,629.2887262397248
0.128,1.0349493680371772e-08,-5.999999989649764,0.01330527267390103,-0.00047320756086447337,0.0004730966137168061,3.404582324081908e-05,2.272328372085905e-22,-6.0,0.04342912429038967,1.7615894078298172e-22,7.426965059514693e-08,7.418704222563009e-08,0.11385282223692886,0.0,0.0,0.0,3.7787690022145117,0.00012211848186521136,-0.0001220784567462445,-5.704516358193516e-06,630.4037182230364,630.4037291642036,630.420559480334,630.3538046608531
0.132,1.6563686025238383e-08,-5.999999983434719,0.013845567203769803,-0.0005341759889462303,0.0005340351167277038,3.770585247573516e-05,2.2700649126020523e-22,-6.0,0.04537805867806792,1.7598346938981565e-22,2.1998484807903392e-07,2.1989428369033078e-07,0.12589207530276839,0.0,0.0,0.0,3.82065121119548,0.00012695040116552536,-0.00012690344071441105,-5.673523966700107e-06,631.3743893438232,631.3744021610798,631.3926132076726,631.3233252343383
0.136,2.4700756966558434e-08,-5.999999975296338,0.0144363144632908,-0.0005904570868375674,0.000590283647154706,4.1169817749098435e-05,2.267746892295152e-22,-6.0,0.04737397224298161,1.7580376824846954e-22,4.066423369381447e-07,4.0654976035064726e-07,0.138265816861418,0.0,0.0,0.0,3.8586329768178813,0.00012997911190217027,-0.00012992538417649585,-5.594782834265585e-06,632.2533011720507,632.2533158159634,632.2725528166649,632.201711996947
0.14,3.499167115009321e-08,-5.999999965003528,0.015078667931628171,-0.0006407703741352336,0.0006405624082828395,4.441005783975495e-05,2.265375049343812e-22,-6.0,0.049416229382115595,1.7561989458516264e-22,6.363544339907585e-07,6.362683912165222e-07,0.15094784809305414,0.0,0.0,0.0,3.89287866000096,0.00013122783914345677,-0.00013116772474482507,-5.47567800427066e-06,633.0446430775788,633.0446594417476,633.0645544705935,632.9931241207433
0.14400000000000002,4.764578271448418e-08,-5.9999999523467995,0.015773679050855045,-0.0006840063908105435,0.0006837627140360857,4.740510173203222e-05,2.2629501150061117e-22,-6.0,0.051504200451322216,1.7543190508961035e-22,9.108055122443137e-07,9.107371333117527e-07,0.16391192535292393,0.0,0.0,0.0,3.9235503860801697,0.00013073458358249808,-0.00013066864530640308,-5.322304756820671e-06,633.7524925751997,633.7525105046794,633.7726899604385,633.7016092816986
0.14800000000000002,6.284598916433026e-08,-5.999999937143114,0.016522296435521958,-0.000719228380426566,0.0007189486400775919,5.013984417516462e-05,2.2604728136763237e-22,-6.0,0.053637261716482115,1.7523985591942145e-22,1.23125729128558e-06,1.2312201532100833e-06,0.17713242138952529,0.0,0.0,0.0,3.9508152214852315,0.0001285529470278824,-0.00012848187837003573,-5.141217642947771e-06,634.3809894609055,634.3810087662579,634.4010959901177,634.3312724716018
0.15200000000000002,8.074507750041158e-08,-5.999999919239538,0.01732540372614044,-0.0007456650773916786,0.0007453498215416647,5.260429382290082e-05,2.257943862941201e-22,-6.0,0.0558147953050383,1.7504380270446173e-22,1.598540584770219e-06,1.5985514813756092e-06,0.1905873041201953,0.0,0.0,0.0,3.974766770114139,0.00012474953722238746,-0.00012467418355206766,-4.937770241581005e-06,634.932532781395,634.932553232963,634.9521752824861,634.8844782432413
0.15600000000000003,1.0146203588256027e-07,-5.999999898516936,0.018183806333439464,-0.000762713208020768,0.0007623639088243591,5.4792708483679553e-05,2.2553639736358333e-22,-6.0,0.05803618915790083,1.7484380055118416e-22,2.0130334470867564e-06,2.013112296433193e-06,0.2042576419105031,0.0,0.0,0.0,3.995527693127197,0.00011940143337329118,-0.00011932278865865281,-4.7165159604877385e-06,635.4101522306645,635.4101735594031,635.4289660493307,635.3642217718195
0.16000000000000003,1.250792568437821e-07,-5.999999874892778,0.019098231727035515,-0.0007699310841819547,0.0007695501319797107,5.6702301824242906e-05,2.2527338498990793e-22,-6.0,0.06030083698171933,1.746399040469261e-22,2.4746342077887546e-06,2.47480407176764e-06,0.21812450242562095,0.0,0.0,0.0,4.013222642459695,0.00011259672211626613,-0.00011251589890810036,-4.480671916711985e-06,635.8168857540808,635.8169076596129,635.8345213080861,635.7735077484231
0.16400000000000003,1.5164045405091044e-07,-5.999999848323215,0.02006932674821297,-0.0007670226607555006,0.0007666133283803644,5.833363418267347e-05,2.2500541892285698e-22,-6.0,0.06260813820152066,1.7443216726417344e-22,2.982761913587658e-06,2.9830488480742304e-06,0.23216809756055773,0.0,0.0,0.0,4.027984290790977,0.00010442161502546936,-0.00010433975565615996,-4.234033135778232e-06,636.1559243183777,636.1559464929167,636.1720446682056,636.1154931007717
0.16800000000000004,1.81149154269423e-07,-5.999999818804601,0.021097677038855504,-0.0007538545215158377,0.0007534209210437321,5.969115425787651e-05,2.2473256825352944e-22,-6.0,0.06495749791370911,1.742206437647923e-22,3.536311289607393e-06,3.5367445074659754e-06,0.24637025947551033,0.0,0.0,0.0,4.039908531689049,9.499665457800906e-05,-9.491497850103894e-05,-3.981164847278063e-06,636.4295858876412,636.4296080030153,636.443873621373,636.3924504581711
0.172,2.135677152536856e-07,-5.999999786374472,0.022183815822897864,-0.0007304715977510026,0.0007300186156933634,6.078150525911321e-05,2.2445490141977673e-22,-6.0,0.0673483268394264,1.740053866042282e-22,4.133532730330944e-06,4.134144469043309e-06,0.26071579709500964,0.0,0.0,0.0,4.049075468980094,8.447635470328112e-05,-8.439611571104328e-05,-3.7248132642175843e-06,636.6397985400688,636.6398202591506,636.6519699894188,636.6062588396377
0.176,2.4881738679230183e-07,-5.999999751111493,0.02332821524048162,-0.0006970585414492528,0.0006965917460884741,6.161205966024072e-05,2.241724862115779e-22,-6.0,0.06978004127826888,1.737864483356731e-22,4.772003915238211e-06,4.7728287715033906e-06,0.2751904975885268,0.0,0.0,0.0,4.055584545852865,7.299325349800469e-05,-7.291570073866352e-05,-3.466103074513223e-06,636.7889102010323,636.7889311880895,636.7987139453082,636.759227956635
0.18,2.8677896004655173e-07,-5.999999713134808,0.024531286503350645,-0.0006539167509735578,0.0006534422844498424,6.219283704636252e-05,2.2388538977637386e-22,-6.0,0.07225206306235923,1.735638810142006e-22,5.448718343363635e-06,5.44979324225888e-06,0.28977945963566926,0.0,0.0,0.0,4.0595369177726655,6.066911413382e-05,-6.059546426742321e-05,-3.208429260188961e-06,636.8792911190078,636.8793110470492,636.8864984054758,636.8536863912599
0.184,3.27293123765216e-07,-5.999999672603688,0.025793392346345936,-0.0006015357450308976,0.0006010601846878883,6.25365165667316e-05,2.2359367862436033e-22,-6.0,0.07476381951077025,1.7333773620086924e-22,6.159951958382813e-06,6.161315573135422e-06,0.30446862037048633,0.0,0.0,0.0,4.061010491908448,4.771375276365704e-05,-4.76451385355153e-05,-2.9553100491348106e-06,636.9127599374069,636.9127785019393,636.9171880484726,636.8913870326456
0.188,3.701627437460352e-07,-5.999999629715255,0.027114843675955923,-0.0005405260030931923,0.0005400562195629807,6.265344972656318e-05,2.232974186337405e-22,-6.0,0.07731474338429796,1.7310806496679463e-22,6.901161904476268e-06,6.902853854064782e-06,0.319245060634306,0.0,0.0,0.0,4.060091602005366,3.4293700382664623e-05,-3.4231183751288055e-05,-2.7045470317141184e-06,636.8913045934281,636.8913215087409,636.8928214564368,636.8742802468885
0.192,4.151558597734062e-07,-5.999999584701484,0.02849589877385361,-0.0004715437382627679,0.0004710867690195467,6.255651346601267e-05,2.2299667505593726e-22,-6.0,0.07990427284058149,1.7287491789719012e-22,7.667237464335176e-06,7.669297454523395e-06,0.33409594325259434,0.0,0.0,0.0,4.056869929327242,2.050580948996759e-05,-2.0450360478662236e-05,-2.459515381398458e-06,636.816983592225,636.8169985969814,636.8154728918739,636.8043898418501
0.196,4.6200698814223554e-07,-5.999999537827902,0.0299367680428676,-0.00039541402554194754,0.00039497689026986153,6.226047732183426e-05,2.2269151252076564e-22,-6.0,0.08253185138956737,1.7263834509537655e-22,8.452460470487284e-06,8.454927882190403e-06,0.3490085461649305,0.0,0.0,0.0,4.051427279086439,6.576271286635198e-06,-6.528643536275663e-06,-2.222954718891598e-06,636.6916610718702,636.6916739626946,636.6870590655345,636.6835120819861
0.2,5.10421051281905e-07,-5.99999948938966,0.03143761655301374,-0.000313050326820775,0.00031263986595492563,6.177733727982484e-05,2.2238199504156534e-22,-6.0,0.08519692784931536,1.7239839618676131e-22,9.250304580629746e-06,9.253216955285135e-06,0.36397100848824326,0.0,0.0,0.0,4.043841893449144,-7.319921698975154e-06,7.359056142673825e-06,-1.9922315828011443e-06,636.5171005263888,636.517111121338,636.5093976505335,636.5133717563222
0.20400000000000001,5.600830769244177e-07,-5.999999439712797,0.032998567459029314,-0.0002259293765461664,0.0002244786554000089,6.097008746693649e-05,2.2206818602029394e-22,-6.0,0.08789895630214382,1.7215512032278675e-22,1.0054850256455953e-05,1.005590587080887e-05,0.3789722024498928,0.0,0.0,0.0,4.034186601125719,-2.0504621587607366e-05,2.166055789346285e-05,-1.5937808341347308e-06,636.2945332953743,636.2948463537953,636.2844015527122,636.2958210915018
0.20800000000000002,6.106561988803701e-07,-5.999999389146529,0.03461969933807499,-0.0001358399890456865,0.00013080186973709725,5.994904526909573e-05,2.217501482525811e-22,-6.0,0.09063739605111147,1.7190856618484825e-22,1.0862345565373758e-05,1.0851523874599095e-05,0.39400133532396875,0.0,0.0,0.0,4.022541047017819,-3.245139223290124e-05,3.650132477791716e-05,-1.31088924653634e-06,636.0260587883436,636.0271560805387,636.013498861561,636.0321810804724
0.21200000000000002,6.617718603024715e-07,-5.9999993380429855,0.03630105323153945,-4.3593323046827164e-05,3.2901106343110135e-05,5.8743236858289495e-05,2.2142794393274365e-22,-6.0,0.09341171157683367,1.7165878198818237e-22,1.1667326897733048e-05,1.1629411905848578e-05,0.40904796348545974,0.0,0.0,0.0,4.008972081943579,-4.3965983389050905e-05,5.084798787980695e-05,-1.0531258144207469e-06,635.7132757681667,635.7151413006609,635.6983294544015,635.7240311794002
0.21600000000000003,7.130436328861232e-07,-5.99999928676426,0.038042626375217825,4.989664182450525e-05,-6.787245393446366e-05,5.737599173922432e-05,2.2110163465876273e-22,-6.0,0.09622137249463043,1.7140581548572489e-22,1.2460275070732714e-05,1.2381954127583145e-05,0.42410194880478463,0.0,0.0,0.0,3.9935605537867236,-5.496095246430735e-05,6.441150377405661e-05,-8.1502783761823e-07,635.3579989371607,635.360562167005,635.3407470794917,635.3731240447818
0.22000000000000003,7.640738766807298e-07,-5.9999992356775,0.03984438911919671,0.00014373799573613285,-0.00017023446814948018,5.5870286150405114e-05,2.2077128143722185e-22,-6.0,0.09906585351200382,1.7114971397193943e-22,1.3230386956664482e-05,1.3102362146890788e-05,0.4391540819107185,0.0,0.0,0.0,3.9763544429775646,-6.535414392786344e-05,7.711855102474461e-05,-5.971406298800948e-07,634.9612614785914,634.9644542770644,634.9418053529341,634.9804718008786
0.22400000000000003,8.144577899011017e-07,-5.999999185152141,0.04170626796583668,0.00023697697035983663,-0.00027285668055237534,5.42475017309665e-05,2.204369446882077e-22,-6.0,0.1019446343864423,1.708905242866164e-22,1.3966964932459122e-05,1.3783280492220721e-05,0.4541954851402741,0.0,0.0,0.0,3.9574370864253403,-7.498798882751907e-05,8.87960765216157e-05,-3.9854492527776994e-07,634.5249068614633,634.5286568795625,634.5033930078887,634.5478737741378
0.22800000000000004,8.637893800069063e-07,-5.999999135555522,0.04362815710926974,0.00032865832185014453,-0.0003744378616242308,5.252640403198527e-05,2.2009868425017296e-22,-6.0,0.1048571998835496,1.706282928186429e-22,1.4659207097720483e-05,1.4417076301922596e-05,0.4692169312871249,0.0,0.0,0.0,3.936869873458737,-8.37499906042962e-05,9.932520800842162e-05,-2.1706271818632446e-07,634.0502667659365,634.0544998682232,634.0268785471644,634.0766355930649
0.23200000000000004,9.116669702058956e-07,-5.999999087248787,0.045609924580132515,0.00041785505188860893,-0.00047373666891716395,5.072504543813994e-05,2.1975655938476164e-22,-6.0,0.10780303973549582,1.7036306550974365e-22,1.529637785554249e-05,1.4995992086162331e-05,0.48421045416443,0.0,0.0,0.0,3.9147028261952306,-9.156199212135699e-05,0.00010862779049233868,-5.2631491393696385e-08,633.5384095830585,633.5430515479749,633.5133519183962,633.5678043472186
0.23600000000000004,9.57697632728828e-07,-5.9999990405835675,0.04765138950016443,0.0005036137804099416,-0.0005695026842138607,4.8860945262803886e-05,2.194106287815974e-22,-6.0,0.1107816485997882,1.7009488785819281e-22,1.586789091100188e-05,1.5512225836056185e-05,0.4991671149367384,0.0,0.0,0.0,3.891033036108057,-9.828970681149672e-05,0.00011655715342165876,9.463017767217485e-08,632.9914897335822,632.9964628434524,632.9650040541595,633.0234937053879
0.24000000000000005,1.0015025920680654e-06,-5.999998995897825,0.04975233095242416,0.0005849959836517515,-0.000660523875644996,4.694941477844604e-05,2.1906095056303496e-22,-6.0,0.11379252601835949,1.698238049224977e-22,1.636322057422643e-05,1.595786984674611e-05,0.5140764739415035,0.0,0.0,0.0,3.8659412242443336,-0.00010383245159051476,0.00012300638403385715,2.2658223056125737e-07,632.4112808059718,632.41650548452,632.3836418234575,632.4454527626564
0.24400000000000005,1.0427224367372057e-06,-5.999998953511778,0.05191250765173169,0.0006611284554737161,-0.0007456844050515466,4.500367818119877e-05,2.1870758228887504e-22,-6.0,0.11683517637697124,1.6954986132505373e-22,1.677214293182807e-05,1.6325124194920058e-05,0.5289299352526771,0.0,0.0,0.0,3.839469538736239,-0.00010814700149912463,0.00012793632944725224,3.4503397234502455e-07,631.7986633895912,631.804060984312,631.7701634566056,631.8345557458431
0.24800000000000005,1.0810215899181538e-06,-5.99999891372438,0.05413166186716629,0.0007312147570425232,-0.0008239758649083124,4.303613960247375e-05,2.183505809610426e-22,-6.0,0.1199091088649301,1.6927310125577139e-22,1.7085206994235212e-05,1.660670352550196e-05,0.5437221018535903,0.0,0.0,0.0,3.8116528878900677,-0.00011121086185582843,0.00013133167882077769,4.5040034024580507e-07,631.1543502738887,631.1598438851543,631.125289839601,631.1915113893647
0.25200000000000006,1.1160922310971734e-06,-5.999998876810222,0.056409512100679966,0.0007945271037861734,-0.000894485719487458,4.10576738625683e-05,2.179900030282296e-22,-6.0,0.1230138374351143,1.6899356847567522e-22,1.729387250543771e-05,1.6795965052279416e-05,0.5584481740238495,0.0,0.0,0.0,3.7825416342214035,-0.00011299903454035005,0.00013317344266638949,5.439584579230853e-07,630.479409639918,630.4849237798114,630.4501005763383,630.5173851318644
0.256,1.147657845709281e-06,-5.999998843016688,0.05874576453941491,0.0008504213638570921,-0.0009564128022366427,3.9078196585011874e-05,2.1762590439050133e-22,-6.0,0.1261488807643086,1.6871130632047508e-22,1.7390562129093823e-05,1.688696621051974e-05,0.5731034744313905,0.0,0.0,0.0,3.752163725775441,-0.00011350902431028085,0.00013346810887219336,6.263822637632362e-07,629.7743897156747,629.7798511098646,629.7451475260968,629.8127275588456
0.26,1.1754764543545052e-06,-5.9999988125613495,0.06114009864158909,0.0008983304204362583,-0.0010090585380722284,3.710678266831447e-05,2.1725834040386774e-22,-6.0,0.1293137622138451,1.684263577041098e-22,1.7368719308080944e-05,1.6874522950589375e-05,0.5876831226834651,0.0,0.0,0.0,3.7205768268165897,-0.0001127363861865363,0.0001322200263889,6.982466901223858e-07,629.0405277552118,629.0458652739915,629.0116719585646,629.0787772439932
0.264,1.199343640379521e-06,-5.999998785629482,0.06359215395997007,0.000937772864725981,-0.0010518366944631853,3.515223508017187e-05,2.1688736588481923e-22,-6.0,0.13250800979054744,1.6813876512226355e-22,1.7222880215374044e-05,1.675427783196226e-05,0.6021796875183527,0.0,0.0,0.0,3.6878662651096343,-0.0001106910957992297,0.00012945128924939277,7.594967506564933e-07,628.2797069942906,628.2848525500182,628.2515554699667,628.3174216180969
0.268,1.2190948307911156e-06,-5.999998762372189,0.06610153150819867,0.0009683593531855306,-0.001084279563186542,3.3221438811101854e-05,2.1651303511482744e-22,-6.0,0.1357311561079769,1.6784857065585506e-22,1.694876390449458e-05,1.6522777983571017e-05,0.6165839405600441,0.0,0.0,0.0,3.6541159365604265,-0.00010740111314811753,0.00012520472186474107,8.120114678176614e-07,627.4937795998989,627.4986689001561,627.4666493483576,627.5305282788316
0.272,1.2346056929895343e-06,-5.999998742906104,0.06866785836821072,0.0009897857590645948,-0.0011060245727777293,3.132068782118761e-05,2.161354018448114e-22,-6.0,0.1389827383479773,1.6755581597449985e-22,1.654332023629808e-05,1.6177537736841198e-05,0.6308921437843107,0.0,0.0,0.0,3.6192799123581794,-0.00010290922259515809,0.00011953529969988761,8.561985387467539e-07,626.6815771896735,626.6861490300936,626.6557759010277,626.7169434753384
0.276,1.2457949002846472e-06,-5.999998727311033,0.07129072234464272,0.0010018541862804604,-0.0011168421844615882,2.9455817675961118e-05,2.1575451929956915e-22,-6.0,0.1422622982225172,1.6726054233994582e-22,1.600482595586866e-05,1.5717133233420843e-05,0.6451021969622635,0.0,0.0,0.0,3.583444120458177,-9.726396039944478e-05,0.0001125094381065338,8.923349905106853e-07,625.8450022339458,625.8492000420041,625.8208264794004,625.8785868732366
0.28,1.2526246395073173e-06,-5.999998715629514,0.07396968417471195,0.001004471300304233,-0.0011166320947339355,2.7631850288423862e-05,2.1537044018217503e-22,-6.0,0.1455693819358266,1.6696279060948222e-22,1.533301394628349e-05,1.5141315044355437e-05,0.6592083393280468,0.0,0.0,0.0,3.5466710281484906,-9.053922802380272e-05,0.000104221812192035,9.211316708284519e-07,624.9854144590053,624.9891871107757,624.9631439387144,625.0168444975843
0.28400000000000003,1.2551008896123663e-06,-5.999998707866536,0.07670427838604946,0.000997653672503878,-0.0011054284886083537,2.5853249987100883e-05,2.1498321667834306e-22,-6.0,0.1489035401468266,1.6666260123932224e-22,1.4529199903497053e-05,1.4451115224288897e-05,0.6732028645261268,0.0,0.0,0.0,3.5090222914973137,-8.282345970394675e-05,9.478388756258908e-05,9.430337106311147e-07,624.1041595044288,624.1074619698153,624.084052210591,624.1330922222337
0.28800000000000003,1.2532735554133074e-06,-5.999998703989375,0.07949400085433343,0.0009815434658599785,-0.0010834183215126106,2.4123808041708285e-05,2.1459290046075664e-22,-6.0,0.15226432793184932,1.6636001428795955e-22,1.3596409590197674e-05,1.3648965686192177e-05,0.6870781978473988,0.0,0.0,0.0,3.470585720493726,-7.423160254178504e-05,8.433869793149137e-05,9.586440293429282e-07,623.2032009881174,623.2059957544318,623.1854862689378,623.2293331822146
0.29200000000000004,1.247234858119598e-06,-5.999998703928898,0.08233833081742904,0.0009563865710324278,-0.0010509132907605223,2.244667710073531e-05,2.141995426933647e-22,-6.0,0.1556513047476462,1.6605506941949885e-22,1.2539425886906607e-05,1.2738747321478991e-05,0.7008272521422305,0.0,0.0,0.0,3.4314057452156486,-6.487834706602906e-05,7.302675890432025e-05,9.685529558072227e-07,622.2834928963811,622.2857493878063,622.268371316695,622.3065603862655
0.29600000000000004,1.2371178273802627e-06,-5.9999987075807715,0.085236733067048,0.0009225277945132588,-0.0010083431975453794,2.0824453598713877e-05,2.138031940356445e-22,-6.0,0.15906403439468264,1.6574780590696057e-22,1.1364701206716753e-05,1.1725729315279403e-05,0.7144452256560295,0.0,0.0,0.0,3.391522943587479,-5.487941834514876e-05,6.0989092194145555e-05,9.732807779881123e-07,621.3459026299287,621.3475970995248,621.333545329174,621.3656803937362
0.30000000000000004,1.2230943797887196e-06,-5.999998714807011,0.08818865842326531,0.0008804063510686665,-0.0009562498342559624,1.925922307321145e-05,2.1340390464683164e-22,-6.0,0.16250208498071642,1.654382626355601e-22,1.0080230524786626e-05,1.0616474958764397e-05,0.7279285388786434,0.0,0.0,0.0,3.3509774559641565,-4.435666358733683e-05,4.837331570884968e-05,9.733176863710301e-07,620.3912909007222,620.392406601976,620.3818376424676,620.407595032657
0.30400000000000005,1.2053727549135125e-06,-5.999998725438088,0.09119355000033083,0.0008305411821837775,-0.0008952687610705646,1.77525983108174e-05,2.1300172419011726e-22,-6.0,0.16596502888465847,1.6512647810596157e-22,8.69547028712359e-06,9.418781500469078e-06,0.7412743074082202,0.0,0.0,0.0,3.309797215961283,-3.342870583457728e-05,3.532211110734006e-05,9.69130289970719e-07,619.4202343901492,619.4207611440908,619.4137942027003,619.4329209037444
0.30800000000000005,1.1841942751622662e-06,-5.9999987392756156,0.09425085857828266,0.0007735008514594536,-0.000826092720784002,1.6305784875736233e-05,2.125967018368126e-22,-6.0,0.1694524427207134,1.648124904375064e-22,7.221051087236291e-06,8.14144748538072e-06,0.7544818348347878,0.0,0.0,0.0,3.2679792698003074,-2.219257871744827e-05,2.1951484741680166e-05,9.611280627194752e-07,618.4325825458677,618.4325153652793,618.4292393808937,618.4415400223053
0.31200000000000006,1.1598314364932677e-06,-5.999998756093869,0.09736001387869742,0.0007099414550066682,-0.0007495167124737179,1.4919587232681067e-05,2.121888862704815e-22,-6.0,0.17296390730279768,1.6449633737141695e-22,5.66869954575049e-06,6.79421349217409e-06,0.7675496910143191,0.0,0.0,0.0,3.2255787789692447,-1.078140956411145e-05,8.420824825427161e-06,9.497300479033396e-07,617.4295578106194,617.4288989672266,617.4293603559493,617.4347197092645
0.31600000000000006,1.1325851510378797e-06,-5.999998775642033,0.10052040854469083,0.000640625794471245,-0.00066646032497575,1.3594450340759149e-05,2.117783256910406e-22,-6.0,0.17649900760923407,1.641780562739752e-22,4.051526097756363e-06,5.38800908275623e-06,0.7804722002083155,0.0,0.0,0.0,3.182684151949804,6.339142767969018e-07,-5.0662654577902526e-06,9.353231710086792e-07,616.4131771881883,616.4119380707477,616.4161279681445,616.4145344210506
0.32,1.1027799586872103e-06,-5.999998797648246,0.10373142947390042,0.0005663653635316962,-0.0005778982258803889,1.2330552185380874e-05,2.1136506781882814e-22,-6.0,0.18005733274771923,1.6385768413967688e-22,2.3840518742772236e-06,3.934979015069098e-06,0.7932436470349067,0.0,0.0,0.0,3.139321450851683,1.192038401398275e-05,-1.8353176861575805e-05,9.182010280771405e-07,615.3839900309105,615.3821886573128,615.3900554078813,615.381577946711
0.324,1.0707597282993376e-06,-5.9999988218232,0.10699246971637444,0.00048799247348122317,-0.00048482680561543634,1.1127730370693165e-05,2.1094915989864073e-22,-6.0,0.1836384759205637,1.635352575943611e-22,6.81649654419007e-07,2.4480191275741983e-06,0.8058624935590745,0.0,0.0,0.0,3.095492835881611,2.297625545723589e-05,-3.132047131126654e-05,8.987539295951324e-07,614.341980329748,614.3396397364952,614.3510993146282,614.3358688841861
0.328,1.0368848571048335e-06,-5.999998847862425,0.11030288821047211,0.000406415496170486,-0.0003883291414150502,9.985556369363063e-06,2.1053064870373923e-22,-6.0,0.1872420343902009,1.6321081289831574e-22,-1.0396013076286608e-06,9.406602405836285e-07,0.8183260680456683,0.0,0.0,0.0,3.0512820490980577,3.3646424221156836e-05,-4.378546863545289e-05,8.772994277108638e-07,613.289074997304,613.2862260619775,613.3011438096554,613.2793865803271
0.332,1.0015271207919379e-06,-5.999998875450663,0.11366204024597983,0.0003225611862132442,-0.0002895067256614117,8.90346262478422e-06,2.101095805398232e-22,-6.0,0.19086760944496442,1.6288438594935856e-22,-2.7629110094303133e-06,-5.729237699676786e-07,0.8306303301953,0.0,0.0,0.0,3.006712155522075,4.381179565673787e-05,-5.560976767936541e-05,8.54017527311579e-07,612.2257657146538,612.2224448840605,612.2406472018105,612.2126626639964
0.336,9.650650661603486e-07,-5.99999890426577,0.11706928970534922,0.00023734653494228607,-0.00018944622043117094,7.880594118566434e-06,2.0968600124897474e-22,-6.0,0.19451480636513074,1.625560122858947e-22,-4.471166849913662e-06,-2.0782429392511714e-06,0.8427742500268296,0.0,0.0,0.0,2.961781553098846,5.3386906609823476e-05,-6.669471497744352e-05,8.29267334917751e-07,611.1519574509182,611.1482050567773,611.1694908694177,611.1356316694389
0.34,9.278807296886799e-07,-5.999998933981436,0.12052396749338101,0.00015172922362916876,-8.927814881571232e-05,6.915905327371052e-06,2.092599562135715e-22,-6.0,0.19818323438922594,1.6222572708995012e-22,-6.147146665646416e-06,-3.560667251176205e-06,0.8547556315007885,0.0,0.0,0.0,2.916572793332171,6.223874331190333e-05,-7.68858532811931e-05,8.033065002401951e-07,610.069569972173,610.0654326071715,610.0895570067236,610.0502586763779
0.34400000000000003,8.903547243540002e-07,-5.999998964271383,0.12402539641323952,6.666129541204365e-05,9.877422756773557e-06,6.008217897282119e-06,2.0883149036016941e-22,-6.0,0.20187250668059398,1.6189356519018163e-22,-7.773514683708086e-06,-5.005418498834773e-06,0.8665702059442107,0.0,0.0,0.0,2.8711190521693974,7.026602825505374e-05,-8.606747356574855e-05,7.76333122950427e-07,608.979351787707,608.9748803660722,609.0015650810504,608.9573267019515
0.34800000000000003,8.528619287984611e-07,-5.9999989948130485,0.12757289361484672,-1.6924353974190904e-05,0.00010692679929313134,5.156222178253958e-06,2.0840064816335517e-22,-6.0,0.2055822402942251,1.615595610648635e-22,-9.33302786280726e-06,-6.397744355825392e-06,0.8782151351733247,0.0,0.0,0.0,2.825448853725895,7.738636325849155e-05,-9.414611764782421e-05,7.485489646934861e-07,607.8819450284768,607.8771938659464,607.9061333120081,607.8575063655722
0.35200000000000004,8.157673721797224e-07,-5.9999990252911,0.13116577090166717,-9.812422791767426e-05,0.00020081470293312987,4.358495446849605e-06,2.0796747364956884e-22,-6.0,0.20931205614384205,1.6122374884485088e-22,-1.0808973648984996e-05,-7.723290393139685e-06,0.8896890274821698,0.0,0.0,0.0,2.779590338168968,8.352936459775823e-05,-0.00010104286587413057,7.201398915159511e-07,606.777987329305,606.7730134559177,606.8038785882629,606.7514598508935
0.35600000000000004,7.794223103519988e-07,-5.999999055400809,0.13480333506719494,-0.0001760741075835647,0.0002905358199875698,3.613518651803143e-06,2.0753201040089655e-22,-6.0,0.2130615789692424,1.6088616231652e-22,-1.2185377438568756e-05,-8.968277086928742e-06,0.9009905681377836,0.0,0.0,0.0,2.733571191164489,8.863695915752177e-05,-0.00010669364874379732,6.912768511569406e-07,605.6681101578898,605.6629726198444,605.6954149128201,605.6398391125526
0.36000000000000004,7.441605364879957e-07,-5.99999908485123,0.13848488825093302,-0.0002499583828935443,0.0003751456498783724,2.919691627572369e-06,2.070943015588339e-22,-6.0,0.2168304373038951,1.6054683492468568e-22,-1.344720600160314e-05,-1.011967261754428e-05,0.9121185274857379,0.0,0.0,0.0,2.687418593100224,9.266403801493207e-05,-0.00011104984272229719,6.621169750509692e-07,604.5529375856232,604.5476967568112,604.581352394557,604.5232844416762
0.36400000000000005,7.1029496503769e-07,-5.999999113368162,0.14220972830905693,-0.0003190187246827012,0.00045377052886143234,2.2753468984863055e-06,2.0665438982801987e-22,-6.0,0.22061826344278898,1.6020579977549609e-22,-1.4580561815553212e-05,-1.1165360429128623e-05,0.9230717656370617,0.0,0.0,0.0,2.6411591774484586,9.557865089778014e-05,-0.00011407865863890492,6.328046000186258e-07,603.433085294795,603.427802126106,603.4622963480326,603.4024233235745
0.36800000000000005,6.781145238583867e-07,-5.9999991406968585,0.14597714919566754,-0.0003825619983471876,0.0005256167161565154,1.67876220261753e-06,2.062123174799418e-22,-6.0,0.22442469341053223,1.5986308963930485e-22,-1.557286524966482e-05,-1.2094296245474637e-05,0.9338492359052145,0.0,0.0,0.0,2.5948189969745203,9.736240701407383e-05,-0.00011576332987773324,6.034721969877022e-07,602.309159699771,602.3038950217015,602.3388465677467,602.2778694639837
0.37200000000000005,6.478814354994809e-07,-5.999999166604424,0.14978644794576376,-0.000439968901009905,0.000589979934248178,1.1282781055107928e-06,2.0576812635661139e-22,-6.0,0.22824936692969977,1.595187369535209e-22,-1.641302690793469e-05,-1.2896658711321638e-05,0.9444506467157042,0.0,0.0,0.0,2.5484101128020877,9.801264781664692e-05,-0.00011610543120468028,5.741170951527189e-07,601.18143192414,601.1762456976026,601.211271607054,601.1498956641252
0.37600000000000006,6.198289795240805e-07,-5.999999190881833,0.15363694196500322,-0.0004907031311663334,0.0006462549375314339,6.221795272002153e-07,2.053218578742121e-22,-6.0,0.23209192738942783,1.5917277382543602e-22,-1.7091630449014882e-05,-1.3564016400560515e-05,0.9548781529392114,0.0,0.0,0.0,2.5019094535060264,9.777572865140032e-05,-0.0001154143888496379,5.447936703167586e-07,600.0493272881349,600.0442616955395,600.0790659085799,600.0178406634024
0.38000000000000006,5.941592712981654e-07,-5.999999213345845,0.15752793575048177,-0.0005343067109666824,0.0006939314639221781,1.5857919864836935e-07,2.0487355302671815e-22,-6.0,0.23595202181425312,1.5882523203503043e-22,-1.7601035043681247e-05,-1.4089418798176451e-05,0.9651329894484604,0.0,0.0,0.0,2.455360893946382,9.648020745212346e-05,-0.00011347681176923086,5.158875942634874e-07,598.9138855410635,598.9089950852454,598.9432195790407,598.8828085222764
0.38400000000000006,5.710413875666987e-07,-5.999999233840676,0.16145870293297415,-0.0005704036852418031,0.0007325991077847006,-2.6441480644160993e-07,2.0442325238948516e-22,-6.0,0.2398293008331952,1.5847614303775647e-22,-1.793542247768331e-05,-1.4467428435297484e-05,0.9752115086801094,0.0,0.0,0.0,2.4088452205684088,9.414808948004572e-05,-0.00011032445386270859,4.874788378106789e-07,597.7770650820556,597.7724017842481,597.8056957747634,597.7467508867786
0.388,5.506104328548562e-07,-5.999999252238938,0.165428514559885,-0.0005987047694928347,0.0007619508524792751,-6.486695611368183e-07,2.0397099612281295e-22,-6.0,0.24372341864907993,1.5812553796730043e-22,-1.8090837191773664e-05,-1.4694154773905633e-05,0.985109290909613,0.0,0.0,0.0,2.3623868572302302,9.081876985810248e-05,-0.00010600861668539567,4.596132221816627e-07,596.6394582544482,596.63507100019,596.667096616262,596.6102474746871
0.392,5.32966872765698e-07,-5.999999268442325,0.16943664813456177,-0.0006190067295551852,0.000781781553068623,-9.959451851228776e-07,2.0351682397548037e-22,-6.0,0.24763403300810272,1.5777344763832304e-22,-1.8065245148425337e-05,-1.4767318667666405e-05,0.9948254896396567,0.0,0.0,0.0,2.3159920183982665,8.653844780840043e-05,-0.00010058747245514626,4.3223977243276706e-07,595.5012149560974,595.497149448382,595.5275835453147,595.4734331542688
0.396,5.181764497801006e-07,-5.999999282381817,0.17348240471853146,-0.0006311853443834643,0.0007919784450170093,-1.3080151066249868e-06,2.0306077528825266e-22,-6.0,0.251560805169629,1.5741990254917839e-22,-1.7858484520075426e-05,-1.468623080857505e-05,1.004363094325643,0.0,0.0,0.0,2.2696320566513086,8.135533598805461e-05,-9.412060280472283e-05,4.054437295906637e-07,594.361628272313,594.3579271769977,594.3864623170391,594.3355858392907
0.4,5.062694671117037e-07,-5.999999294018348,0.17756507533369106,-0.0006352086625287569,0.0007925381587848044,-1.586775681472628e-06,2.0260288899736132e-22,-6.0,0.2555033998762308,1.570649328846117e-22,-1.7472267245490513e-05,-1.445179833319149e-05,1.013724112252493,0.0,0.0,0.0,2.2233458134990185,7.533246049480901e-05,-8.668569064200062e-05,3.7943905738372867e-07,593.2216496648574,593.2183516436702,593.2447017850087,593.1976369201584
0.404,4.972406562585166e-07,-5.9999993033430075,0.18168392290843383,-0.000631149501453965,0.0007835819476265965,-1.834088328447713e-06,2.0214320363795678e-22,-6.0,0.2594614853239578,1.56708568518436e-22,-1.691036210949049e-05,-1.4066672370622004e-05,1.0229056150687925,0.0,0.0,0.0,2.1772091433302374,6.8558065244083e-05,-7.839129849835197e-05,3.5426048885748874e-07,592.0831531050918,592.080291139083,592.1042002091064,592.0614306239042
0.40800000000000003,4.9105050729523e-07,-5.999999310376053,0.18583821041342916,-0.0006191685735424504,0.0007653340837876845,-2.0517563290492663e-06,2.0168175734753411e-22,-6.0,0.26343473313284044,1.563508390161877e-22,-1.6178674965532576e-05,-1.3535315355296567e-05,1.0319038646367087,0.0,0.0,0.0,2.1312417459330764,6.11211224063487e-05,-6.934570735652006e-05,3.2991435083791493e-07,590.9466374136917,590.944239042545,590.9654810814413,590.9274357160118
0.41200000000000003,4.87626608262703e-07,-5.999999315165888,0.1900272096906331,-0.0005995042325207052,0.0007381090899073641,-2.2414557814581204e-06,2.0121858786933202e-22,-6.0,0.2674228183176237,1.5599177363776183e-22,-1.5285083893905454e-05,-1.2863874584273914e-05,1.0407186555276131,0.0,0.0,0.0,2.085445452516246,5.310546451782573e-05,-5.9650119015046624e-05,3.063240520523852e-07,589.812162095965,589.8102499392218,589.8286270339934,589.7956832013506
0.41600000000000004,4.868655130622648e-07,-5.999999317787589,0.19425021823443817,-0.0005724520290220054,0.0007022867240156857,-2.4048455310085545e-06,2.0075373255570505e-22,-6.0,0.27142541925873015,1.5563140134002611e-22,-1.4239044916162566e-05,-1.2059865431245958e-05,1.049353557585887,0.0,0.0,0.0,2.0397878047666596,4.458217317723655e-05,-4.938962335383895e-05,2.8353631185984847e-07,588.6789346881935,588.6775273884762,588.6928655834321,588.6653569707383
0.42000000000000004,4.886335614692599e-07,-5.999999318342273,0.19850652580027173,-0.0005383920732412817,0.0006583451963240058,-2.5436625371730665e-06,2.002872283714696e-22,-6.0,0.27544221767345,1.5526975077941498e-22,-1.3051491607257836e-05,-1.1132091313591731e-05,1.0578111332371734,0.0,0.0,0.0,1.994303345353997,3.56493323437197e-05,-3.8681627848424697e-05,2.617086606896892e-07,587.5478246643597,587.5469353026804,587.5590945597667,587.537293578996
0.42400000000000004,4.927683874012915e-07,-5.999999316955897,0.20279539653499895,-0.0004978049890409694,0.0006068801691865432,-2.659584257029023e-06,1.998191118972236e-22,-6.0,0.27947289858735697,1.5490685031450311e-22,-1.1735102709595308e-05,-1.0090866086473304e-05,1.0660890381180457,0.0,0.0,0.0,1.9490631802242997,2.6436441562012732e-05,-2.7680968244270154e-05,2.408411999795876e-07,586.4206210182099,586.4202553014204,586.4291402778432,586.4132373483823
0.42800000000000005,4.990816647318377e-07,-5.999999313777023,0.20711608398114778,-0.00045125288287894066,0.000548581390245869,-2.7543204859847454e-06,1.9934941933264025e-22,-6.0,0.28351715030594793,1.5454272800855887e-22,-1.0304457753350588e-05,-8.948145183018947e-06,1.074182837501295,0.0,0.0,0.0,1.9041088299534592,1.707054465985713e-05,-1.6538809172324756e-05,2.2103898940682872e-07,585.2983870014493,585.2985435568468,585.3041032474079,585.2942078771276
0.43200000000000005,5.073620364090572e-07,-5.99999930897442,0.21146784115408251,-0.0003993608561112575,0.00048421044003463357,-2.8293414044371e-06,1.9887818649973592e-22,-6.0,0.28757466438650475,1.5417741163207766e-22,-8.775859430563488e-06,-7.717383382974585e-06,1.082090440784055,0.0,0.0,0.0,1.859461750569225,7.66647809778035e-06,-5.39119636917048e-06,2.020908514229903e-07,584.1816917668008,584.1823629433476,584.1845856015702,584.1807337729106
0.43600000000000005,5.173788572543574e-07,-5.999999302733965,0.21584995464279483,-0.0003427675277169245,0.00041454161681395857,-2.8860492520470136e-06,1.9840544884611246e-22,-6.0,0.291645135610177,1.5381092866529546e-22,-7.166607606877255e-06,-6.412930372131112e-06,1.0898143194923453,0.0,0.0,0.0,1.8150742555477706,-1.7041910833834667e-06,5.67791726628366e-06,1.8397641445479417e-07,583.0693731106737,583.0705475404543,583.069446193249,583.0716279639383
0.44000000000000006,5.28884725372204e-07,-5.99999929525654,0.22026173064028973,-0.0002821339576996136,0.0003403726416214894,-2.925876286153988e-06,1.9793124144817402e-22,-6.0,0.29572826195428326,1.534433063006827e-22,-5.4943613966419455e-06,-5.0494967194016064e-06,1.0973606715996618,0.0,0.0,0.0,1.7709259878400343,-1.0967483027205099e-05,1.658203754774334e-05,1.6678704587680939e-07,581.9609463479997,581.9626088823466,581.9582226016662,581.9663803250968
0.44400000000000006,5.41617465842483e-07,-5.999999286756393,0.22470245275024248,-0.00021818935861642218,0.00026257875355793515,-2.950204525904283e-06,1.9745559901431871e-22,-6.0,0.29982374456482985,1.5307457144541844e-22,-3.7772989500382364e-06,-3.6422903414132325e-06,1.1047306904300547,0.0,0.0,0.0,1.7270816452153719,-1.99979222055809e-05,2.7173942788252597e-05,1.5052169412737862e-07,580.8580656670771,580.8601946032453,580.8526064466876,580.8666010843087
0.44800000000000006,5.553036440456574e-07,-5.999999277458201,0.22917139464152603,-0.0001517067206891263,0.00018208356087039772,-2.9604207099594805e-06,1.9697855588810514e-22,-6.0,0.30393128772924555,1.5270475072384534e-22,-2.0344060205385903e-06,-2.207260377439396e-06,1.1119215057946474,0.0,0.0,0.0,1.683581010332547,-2.8677171182565088e-05,3.731535315007592e-05,1.3524154048015837e-07,579.7617689551511,579.764336521044,579.7536714270805,579.7732866691193
0.452,5.696620690579085e-07,-5.999999267594124,0.23366782995816765,-8.348215784770164e-05,9.983465281739681e-05,-2.957703179559787e-06,1.9650014605139416e-22,-6.0,0.30805059884932995,1.5233387047990505e-22,-2.8544133534683216e-07,-7.610697578676711e-07,1.1189311780172961,0.0,0.0,0.0,1.6404441171018418,-3.690505588898134e-05,4.688994621486829e-05,1.2075910253770414e-07,578.6726025641851,578.6755760032765,578.6619937881189,578.6869474093002
0.456,5.844077298495709e-07,-5.999999257400482,0.23819106544930493,-1.4285621601980656e-05,1.674576104548227e-05,-2.9431615778338187e-06,1.9602040312746585e-22,-6.0,0.3121813884144148,1.5196195677955477e-22,1.449870181650194e-06,6.795884597309929e-07,1.1257622274079768,0.0,0.0,0.0,1.5976238089835622,-4.46302667356037e-05,5.583886072100231e-05,1.0704161358203047e-07,577.5894141911828,577.5927583003016,577.5764372193781,577.6064123909991
0.46,5.992546733824443e-07,-5.999999247115326,0.2427404274845093,5.5130066967826117e-05,-6.629259435900524e-05,-2.9179135131887522e-06,1.955393603841121e-22,-6.0,0.3163233699747357,1.5158903541316464e-22,3.1524827494359275e-06,2.0985411378677073e-06,1.1324208052289897,0.0,0.0,0.0,1.5550992874683849,-5.179980988087986e-05,6.410165289912325e-05,9.414311835979273e-08,576.5117110383661,576.5153881807491,576.4965258040785,576.5311698781355
0.464,6.139184901474822e-07,-5.999999236976329,0.24731522135629824,0.00012399059296397914,-0.00014836825149716845,-2.883023020437753e-06,1.9505705073670479e-22,-6.0,0.3204762601150137,1.512151318978963e-22,4.803917221988494e-06,3.480037482561211e-06,1.138908240232737,0.0,0.0,0.0,1.5129317703050087,-5.831814886618592e-05,7.15687131504287e-05,8.20461795871056e-08,575.4410816421108,575.4450497346983,575.4238776452514,575.46277431789
0.468,6.281198083520042e-07,-5.9999992272178115,0.2519147614301701,0.00019154155256924255,-0.00022859555584824629,-2.8394319217971765e-06,1.9457350675123983e-22,-6.0,0.3246397784282442,1.5084027148006286e-22,6.386103773681211e-06,4.8086141158843495e-06,1.145223736262436,0.0,0.0,0.0,1.471122002340899,-6.412421700129543e-05,7.817074124537532e-05,7.065105315041648e-08,574.3775859143886,574.381800157451,574.3585717976392,574.4012631635486
0.47200000000000003,6.415873491559053e-07,-5.999999218068122,0.2565383827146435,0.0002570674410964479,-0.00030613732069412376,-2.788081339626783e-06,1.940887606473574e-22,-6.0,0.32881364748969255,1.5046447913747014e-22,7.881729006455772e-06,6.069395703669727e-06,1.151369391224328,0.0,0.0,0.0,1.4296470023492596,-6.918159613609795e-05,8.38674494936314e-05,5.999498834062645e-08,573.3206779490845,573.3250921255843,573.3000746316923,573.3460770844747
0.47600000000000003,6.540604005209059e-07,-5.999999209747525,0.2611854009088326,0.0003198616429828466,-0.00038017056116380617,-2.7298610875467825e-06,1.9360284430133825e-22,-6.0,0.33299759283109387,1.500877795817396e-22,9.274496326568931e-06,7.2483163316034785e-06,1.157346200830681,0.0,0.0,0.0,1.3885642593957865,-7.342470659524101e-05,8.858541226316677e-05,5.005615223494299e-08,572.2718643869698,572.2764296423217,572.2499138055496,572.2986989592486
0.48000000000000004,6.652916730563006e-07,-5.999999202465743,0.2658551243897873,0.00037924814870633094,-0.0004499116956778715,-2.66564658434444e-06,1.931157892490765e-22,-6.0,0.3371913429150564,1.4971019726061287e-22,1.0549103369886158e-05,8.332097370186122e-06,1.1631519671201545,0.0,0.0,0.0,1.3479075935341909,-7.680748158492757e-05,9.227438746702878e-05,4.0853788409432395e-08,571.2320561336876,571.2367220708179,571.2090156125624,571.2600229179092
0.48400000000000004,6.750498306687252e-07,-5.9999991964197585,0.27054686345712614,0.00043459452358214385,-0.0005146312869359946,-2.596168999059264e-06,1.9262762668902892e-22,-6.0,0.3413946291096665,1.4933175636023827e-22,1.169131579321909e-05,9.308309322504982e-06,1.1687853594002164,0.0,0.0,0.0,1.3076923396735518,-7.930156811262578e-05,9.490472694417205e-05,3.225491938332327e-08,570.2016961139616,570.2064116602619,570.177832599792,570.2304807661603
0.48800000000000004,6.831217683478648e-07,-5.999999191791815,0.2752599555617069,0.00048533382878285713,-0.000573678615769609,-2.5221408735428354e-06,1.921383874851411e-22,-6.0,0.34560718566329335,1.489524808074392e-22,1.2688443918010473e-05,1.016579218924742e-05,1.174248646498294,0.0,0.0,0.0,1.2678826126056602,-8.090695110685194e-05,9.647928648263325e-05,2.426744237679128e-08,569.1799132962675,569.184627975703,569.1554952201985,569.209200660822
0.49200000000000005,6.893146981314203e-07,-5.999999188747608,0.27999373248643716,0.0005309536911396331,-0.0006264699947733824,-2.444271274025767e-06,1.9164810216975046e-22,-6.0,0.34982874967959277,1.4857239427196466e-22,1.352957421122903e-05,1.0894859615705296e-05,1.1795448965395527,0.0,0.0,0.0,1.228508311341664,-8.161535104823753e-05,9.699227650651993e-05,1.691623888866813e-08,568.167523017283,568.1721868300377,568.1428229114476,568.1969944982762
0.49600000000000005,6.934579747498669e-07,-5.999999187434669,0.2847475164687975,0.0005710015896460318,-0.0006724949451081504,-2.3631911955167943e-06,1.911568009464664e-22,-6.0,0.3540590610927081,1.4819152016872202e-22,1.420559705525007e-05,1.148731803469907e-05,1.1846734879641687,0.0,0.0,0.0,1.1896074272942565,-8.142853049755076e-05,9.64502885544688e-05,1.0138957742111173e-08,567.1655544129438,567.1701185528973,567.1408455916949,567.1948914481086
0.5,6.954043147082629e-07,-5.999999187981255,0.289520651662396,0.0006050957045293081,-0.00071132719077446,-2.2794477614923426e-06,1.906645136930277e-22,-6.0,0.3582978626426668,1.4780988165999223e-22,1.470925414074228e-05,1.1936511663254779e-05,1.1896350121717458,0.0,0.0,0.0,1.1511544463978702,-8.036886279933579e-05,9.488261110822269e-05,3.863310276649867e-09,566.1734029376844,566.1778204545279,566.1489530974605,566.2022939922562
0.504,6.950307701786298e-07,-5.999999190495436,0.29431251475163067,0.0006329244727249432,-0.0007426232921435774,-2.1935328775081617e-06,1.9017126996413729e-22,-6.0,0.36254489985097077,1.4742750165762743e-22,1.5035260531136847e-05,1.2237446969146868e-05,1.1944348749833025,0.0,0.0,0.0,1.1131016548061579,-7.846401355551916e-05,9.232387413592589e-05,-1.9529260573934575e-09,565.1898848702697,565.1941107063027,565.1659544812485,565.2180272719102
0.508,6.922394414893868e-07,-5.999999195064427,0.29912251976739984,0.0006542425247948343,-0.0007661173092651693,-2.1059406063400606e-06,1.8967709899427487e-22,-6.0,0.3667999209963805,1.4704440282523133e-22,1.5180285268645664e-05,1.2386796129295236e-05,1.199081507232712,0.0,0.0,0.0,1.0753905690748284,-7.574312976207782e-05,8.880974974505662e-05,-7.2871836566201986e-09,564.2135286551148,564.2175195290918,564.1903706352039,564.2406292203333
0.512,6.869592680296283e-07,-5.999999201753022,0.3039500435979135,0.0006688843351125519,-0.0007816403323827726,-2.0171575403521494e-06,1.89182029700487e-22,-6.0,0.3710626770908894,1.4666060758032227e-22,1.5142990472887625e-05,1.238291931852501e-05,1.2035764877600026,0.0,0.0,0.0,1.038112732714719,-7.224437859592361e-05,8.439026797685194e-05,-1.212801843945602e-08,563.246746246861,563.2504622748966,563.2246032529697,563.2725255385208
0.516,6.79173201974336e-07,-5.99999921063074,0.30879445439130343,0.0006741072427144464,-0.0007917776914295379,-2.7507152331557925e-06,1.8868609068515536e-22,-6.0,0.37533292185588896,1.4627613809647922e-22,1.493629804438108e-05,1.2213763749891469e-05,1.2079166243238553,0.0,0.0,0.0,1.0013032699792626,-6.524146750622474e-05,8.192717779843044e-05,9.449911302192911e-07,562.288081379836,562.2931950608133,562.2711584147496,562.3162610431579
0.52,6.688953630426894e-07,-5.999999221749312,0.31365512423116126,0.0006662477199621648,-0.0008002012266288624,-3.735058965952471e-06,1.8818931023874304e-22,-6.0,0.3796104116985217,1.4589101630547083e-22,1.4613774560580446e-05,1.1830623476522728e-05,1.2120993227131593,0.0,0.0,0.0,0.9649718984523181,-5.3208044242376265e-05,8.30843554070917e-05,1.268263157267356e-06,561.3399373042871,561.3491089499719,561.327732682638,561.3695723996213
0.524,6.560985195784389e-07,-5.999999235071385,0.3185314463195617,0.000646554707763826,-0.0008058044138003886,-4.902215335639473e-06,1.8769171634251907e-22,-6.0,0.3838949056882217,1.4550526389936754e-22,1.4222889877687665e-05,1.119443972509313e-05,1.216126786479497,0.0,0.0,0.0,0.9290933765768292,-4.0776536274668794e-05,8.33511903451404e-05,1.522498302846339e-06,560.4021934301531,560.4152851292031,560.3946204479626,560.4327893650611
0.528,6.407655894962951e-07,-5.999999250522302,0.3234228202655424,0.0006162300119978604,-0.0008076827854248341,-6.1984631106636e-06,1.8719333667126147e-22,-6.0,0.38818616553344054,1.4511890233263712e-22,1.3769159153285635e-05,1.0311357084505267e-05,1.2200025252899414,0.0,0.0,0.0,0.893671685940975,-2.8498270661539863e-05,8.232095277868478e-05,1.7215669130822061e-06,559.4751310038803,559.4917088421964,559.4719777664262,559.5061106752343
0.532,6.228920589260769e-07,-5.999999267993909,0.32832865223471136,0.0005764670471941559,-0.0008050894082619698,-7.578147812706805e-06,1.8669419859593877e-22,-6.0,0.39248395555855753,1.4473195282422347e-22,1.3234214028013017e-05,9.21458453714578e-06,1.2237285804140232,0.0,0.0,0.0,0.8587103389731516,-1.645072596557682e-05,8.007720843714166e-05,1.872695276987807e-06,558.5588823983226,558.5785119827451,558.5599354515487,558.5897152283949
