Time_s,X,Y,Z,Roll_deg,Pitch_deg,Yaw_deg,Ref_X,Ref_Y,Ref_Z,Ref_Yaw,vx,vy,vz,p,q,r,T_pert,tau_x,tau_y,tau_z,RPM_0,RPM_1,RPM_2,RPM_3
0.0040000000000000036,8.271650413055271e-22,6.0,0.010118993191965117,-4.388027744899744e-17,1.0680728101995782e-17,6.622882088393322e-20,1.0470916111042799e-21,6.0,0.010186629280847435,1.1630311928036212e-21,-2.5737553738776552e-20,-7.496587661023768e-22,0.0009999428386350817,0.0,0.0,0.0,0.13726855102156926,5.1240421539611934e-17,-9.909440822307979e-18,4.76559344272225e-22,539.3552813183275,539.3552813183276,539.3552813183275,539.3552813183275
0.008000000000000007,8.891203567710397e-22,6.0,0.010122992963319657,-4.5829966867857706e-17,1.1265924907421757e-17,8.185913748401245e-20,1.0470166715110618e-21,6.0,0.01032903879210734,1.16294795549796e-21,-2.3040923142113002e-20,-7.737342941311111e-22,0.0009999428386350817,0.0,0.0,0.0,0.2830612406316899,5.2773529589158074e-18,-4.514877770125801e-18,-1.824750046108741e-20,543.2934490144019,543.2934490144019,543.2934490144019,543.2934490144019
0.01200000000000001,8.367756362308642e-22,6.0,0.010126992734674198,-4.7862677668623124e-17,1.0352007219807172e-17,8.69752433870052e-20,1.0469049385927878e-21,6.0,0.010541367543835611,1.1628238509135689e-21,-1.1158625362358551e-20,-8.004336466652128e-22,0.0009999428386350817,0.0,0.0,0.0,0.429376598550943,5.507624103534791e-18,1.578492727398437e-18,-6.610001958889568e-21,547.2172413545236,547.2172413545237,547.2172413545236,547.2172413545237
0.016000000000000014,8.75422083166016e-22,6.0,0.010130992506028738,-4.9213504964454396e-17,1.1097405516638718e-17,1.0233745795307971e-19,1.0467568578917439e-21,6.0,0.010822768861311565,1.1626593739255576e-21,2.3835257798866028e-20,-8.312374943660518e-22,0.0009999428386350817,0.0,0.0,0.0,0.5762033671667982,4.8503682306694324e-18,-2.5936548437747913e-18,-1.879215499811718e-20,551.1266666950607,551.1266666950609,551.1266666950607,551.1266666950607
0.020000000000000018,9.178162843142308e-22,6.0,0.010134992277383278,-5.0959813025884973e-17,1.2150244551687574e-17,1.0208935178956102e-19,1.0465728709122283e-21,6.0,0.0111724037432988,1.1624550149239411e-21,1.1274042919796846e-20,-8.622988252994728e-22,0.0009999428386350817,0.0,0.0,0.0,0.7235304055467127,5.404556707632315e-18,-2.0628117622266106e-18,-1.1907101908669853e-21,555.0217351148082,555.0217351148083,555.0217351148082,555.0217351148082
0.023999999999999994,7.403596934594649e-22,6.0,0.010138992048737819,-5.393862627168721e-17,1.1055656451976403e-17,1.1248500733434826e-19,1.0463534151531142e-21,6.0,0.011589440800167427,1.1622112598498068e-21,-7.853042790225558e-21,-8.96818245876076e-22,0.0009999428386350817,0.0,0.0,0.0,0.871346688439052,6.963209627844981e-18,2.9748471662399765e-18,-1.361723653059384e-20,558.9024583311989,558.902458331199,558.9024583311989,558.9024583311989
0.027999999999999997,4.824203205534891e-22,6.0,0.010142991820092359,-5.56284617570753e-17,1.0203696701521812e-17,1.1227774371310055e-19,1.0460989241401639e-21,6.0,0.012073056192484827,1.1619285902312075e-21,-5.150650351271758e-20,-9.34823984305362e-22,0.0009999428386350817,0.0,0.0,0.0,1.0196413052818194,5.661726854663829e-18,1.3262950291069353e-18,-1.6614074418251084e-21,562.7688496208289,562.768849620829,562.7688496208289,562.7688496208289
0.032,6.34580360140233e-22,6.0,0.0101469915914469,-5.716857891319063e-17,1.096848800574013e-17,1.176734557056983e-19,1.0458098274580999e-21,6.0,0.012622433570071489,1.161607483218783e-21,-2.2674432449408138e-20,-9.695753481398922e-22,0.0009999428386350817,0.0,0.0,0.0,1.16840345921916,5.602450870237033e-18,-6.150839364675134e-18,-8.201295731065544e-21,566.6209237440435,566.6209237440435,566.6209237440435,566.6209237440435
0.036000000000000004,4.587790922393561e-22,6.0,0.01015099136280144,-5.820807232679328e-17,1.1277996214294915e-17,1.2509256085920813e-19,1.0454865507824322e-21,6.0,0.013236764011518588,1.1612484116211117e-21,-4.8960573532571324e-21,-9.959389584566517e-22,0.0009999428386350817,0.0,0.0,0.0,1.3176224661255844,5.123173172195877e-18,2.587665684573093e-18,-1.0789800673541642e-20,570.4586968733499,570.45869687335,570.4586968733499,570.4586968733499
0.04000000000000001,5.285895812918547e-22,6.0,0.010154991134291278,-5.956330142732406e-17,1.2477231321405856e-17,7.431042571622364e-20,1.0451295159110443e-21,6.0,0.013915245964163908,1.1608518439397941e-21,-7.408189807173933e-21,-1.0191538978027928e-21,0.000999942852164884,0.0,0.0,0.0,1.4672877533632358,5.562950987951268e-18,-4.882701197370661e-18,5.689044457579443e-20,574.2821865184435,574.2821865184436,574.2821865184435,574.2821865184435
0.04400000000000001,7.075030686969267e-22,6.0,0.010158990912011142,-6.168276892018923e-17,1.338026601099276e-17,8.439871729958359e-20,1.0447391407955402e-21,6.0,0.014657085184522774,1.1604182444042706e-21,-5.705743929413579e-21,-1.0436740855168613e-21,0.000999943488697204,0.0,0.0,0.0,1.6173888472714488,6.548050697914228e-18,-3.2323638613615355e-18,-1.2133972973713925e-20,578.0914111697094,578.0914111697095,578.0914111697094,578.0914111697095
0.048000000000000015,8.084024952368092e-22,6.0,0.010162990706513438,-6.296557993751926e-17,1.2969867377320663e-17,-1.6257224720375164e-20,1.0443158395723536e-21,6.0,0.015461494679170691,1.1599480730063747e-21,3.0903699755940006e-20,-1.0734606143249142e-21,0.000999945803472832,0.0,0.0,0.0,1.7679153868960666,5.715994041596952e-18,3.2787503926658335e-19,1.1681507820238185e-19,581.8863906155449,581.886390615545,581.8863906155449,581.8863906155449
0.05200000000000002,1.004993952280153e-21,6.0,0.010166990523884714,-6.371951095842209e-17,1.3589535890686408e-17,-3.93593118108856e-20,1.0438600225936206e-21,6.0,0.01632769464607438,1.1594417855346253e-21,4.2004230834719424e-20,-1.098168895238293e-21,0.000999950228249176,0.0,0.0,0.0,1.9188571381544064,5.186125396325911e-18,-2.807443335880367e-18,3.034964548871746e-20,585.6671462586195,585.6671462586196,585.6671462586195,585.6671462586195
0.05600000000000002,1.0259594664868141e-21,6.0,0.010170990367323418,-6.420789542509721e-17,1.4663559703654125e-17,-1.2017606440222464e-19,1.043372096457819e-21,6.0,0.017254912416367972,1.1588998336082576e-21,3.23858103787592e-20,-1.1119823394091989e-21,0.0009999560620871026,0.0,0.0,0.0,2.0702039718691037,4.9275936738361085e-18,-3.000172313770251e-19,9.871456903420631e-20,589.4337005241537,589.4337005241538,589.4337005241537,589.4337005241538
0.060000000000000026,1.0832295576113479e-21,6.0,0.010174990237091765,-6.472461344085779e-17,1.440814031386332e-17,-6.726406809131634e-20,1.0428524640401747e-21,6.0,0.018242382396571048,1.1583226647109965e-21,2.946946788303091e-20,-1.1210258458007721e-21,0.0009999625024089895,0.0,0.0,0.0,2.2219458660868434,4.9940765653497814e-18,-1.1453078602813036e-18,-5.4186792430884646e-20,593.1860768898634,593.1860768898636,593.1860768898634,593.1860768898634
0.06400000000000003,1.0465330293906032e-21,6.0,0.010178990131914215,-6.455132456531467e-17,1.4107422356358424e-17,-3.3002247466055404e-19,1.0423015245228366e-21,6.0,0.019289346011245413,1.1577107222245729e-21,3.3730785027064094e-21,-1.1236754523324545e-21,0.0009999689644121443,0.0,0.0,0.0,2.374072902220636,4.223667568283948e-18,4.1241042187131985e-19,3.123897328597028e-19,596.9242997638352,596.9242997638353,596.9242997638352,596.9242997638352
0.06800000000000003,1.0327890540226556e-21,6.0,0.01018299004983674,-6.43900647346143e-17,1.4122907219390743e-17,-1.8138877114810775e-19,1.0417196734248237e-21,6.0,0.02039505164608728,1.1570644454619864e-21,-1.2759817473039528e-22,-1.1265323923625185e-21,0.0009999750869741503,0.0,0.0,0.0,2.5265752651833533,4.225864369271265e-18,-1.2204977030739341e-18,-1.5739533712481766e-19,600.6483944644721,600.6483944644722,600.6483944644721,600.6483944644721
0.07200000000000004,1.0741377778999751e-21,6.0,0.01018698998857881,-6.44980281097816e-17,1.435852919749719e-17,-1.3560309515608248e-19,1.0411073026317437e-21,6.0,0.021558754591451783,1.1563842697005143e-21,-2.7079357557461786e-21,-1.126599547068717e-21,0.0009999807102986993,0.0,0.0,0.0,2.679443243481013,4.529217698869586e-18,-1.8720594782430024e-18,-4.3359745207157494e-20,604.3583872005211,604.3583872005212,604.3583872005211,604.3583872005211
0.07599999999999998,1.0668601306656621e-21,6.0,0.010190989945922815,-6.446337330137329e-17,1.4217649371479074e-17,3.678500941930725e-20,1.0404648004252859e-21,6.0,0.022779716986306604,1.1556706262144707e-21,6.109556498237787e-21,-1.1253079759950564e-21,0.0009999857807136206,0.0,0.0,0.0,2.8326672282237126,4.37006061729152e-18,-2.8598785996402043e-19,-1.9313534890340256e-19,608.0543050261074,608.0543050261075,608.0543050261074,608.0543050261074
0.07999999999999999,1.0782320623828834e-21,6.0,0.010194989919929605,-6.448196113385549e-17,1.4180784129133876e-17,1.7729699591621046e-20,1.0397925515124902e-21,6.0,0.024057207762611676,1.1549239423077157e-21,4.004013309344133e-22,-1.1250439271950734e-21,0.0009999903167455873,0.0,0.0,0.0,2.9862377125714814,4.42986399592391e-18,-1.1414302438775633e-18,2.341813128779029e-20,611.7361758080838,611.7361758080839,611.7361758080838,611.7361758080839
0.08399999999999999,1.107061493299017e-21,6.0,0.010198989908589392,-6.455601498642702e-17,1.429911708492967e-17,-2.0702166527690718e-19,1.0390909370547936e-21,6.0,0.025390502590121634,1.1541446413459188e-21,2.722941762866116e-21,-1.1255174237756097e-21,0.0009999943545765944,0.0,0.0,0.0,3.1401452919856805,4.495904544558702e-18,-1.3218471441295269e-18,2.644821827651933e-19,615.4040282139664,615.4040282139664,615.4040282139664,615.4040282139664
0.088,1.1124624470956225e-21,6.0,0.010203528024453968,-6.070674399163975e-17,1.8202187898426726e-17,2.985966279091402e-18,1.0383603346968556e-21,6.0,0.02677888382160823,1.153333142788575e-21,4.317180881165748e-21,-1.1734044846053454e-21,0.0010538093497868342,0.0,0.0,0.0,3.293288550184553,-8.042500314527018e-20,-5.287843632912974e-18,-3.718752751234006e-18,619.0320951338442,619.0320951338442,619.0320951338442,619.0320951338442
0.092,1.1272116871889885e-21,6.0,0.010214115508712308,-5.3161755547918036e-17,2.5800114887723682e-17,8.34351368160114e-18,1.0376011185951635e-21,6.0,0.028221640438499406,1.1524898622207789e-21,2.339980214823842e-21,-1.7476091952809987e-21,0.0017125596177855126,0.0,0.0,0.0,3.435548080557036,-4.659256277745183e-18,-1.0231959258216044e-17,-6.378418876148917e-18,622.3833715256136,622.3833715256136,622.3833715256136,622.3833715256136
0.096,1.2268964381098786e-21,6.0,0.01023802645785424,-3.4900556728627866e-17,3.191978024699551e-17,1.2148838910879384e-17,1.0368136594464225e-21,6.0,0.029718067996932104,1.1516152113847564e-21,8.570201749583585e-21,-3.0124659903287905e-21,0.0037034236499042597,0.0,0.0,0.0,3.563161320109034,-1.768886650725124e-17,-9.914048802882596e-18,-4.7851801455518685e-18,625.3743376912465,625.3743376912466,625.3743376912465,625.3743376912465
0.1,1.403770224078841e-21,6.0,0.010281698726358614,-1.553036595527724e-17,3.951715060043841e-17,1.513613080020685e-17,1.0359983245157263e-21,6.0,0.031267468574215716,1.1507095982111564e-21,2.4784320006031054e-20,-4.007952901772554e-21,0.00741081202388378,0.0,0.0,0.0,3.6775844883577626,-2.0232616432513393e-17,-1.2039243324345547e-17,-3.985850878471492e-18,628.0440467596446,628.0440467596446,628.0440467596446,628.0440467596446
0.10400000000000001,1.699783023645903e-21,6.0,0.010350795260229185,3.840126047528315e-18,4.7114143579659394e-17,1.835762402585069e-17,1.0351554776645157e-21,6.0,0.03286915071570326,1.149773426850104e-21,4.356812612171764e-20,-2.9260875370647806e-21,0.01268111747418782,0.0,0.0,0.0,3.780176057026188,-2.1557547781570847e-17,-1.3112944850088823e-17,-4.3821070674362964e-18,630.4280898147654,630.4280898147656,630.4280898147654,630.4280898147655
0.10800000000000001,2.135406924350748e-21,6.0,0.010450379900894443,2.4319255101005906e-17,5.5449698417954836e-17,2.0373446202525017e-17,1.0342854793783238e-21,6.0,0.034522429382067184,1.1488070977020175e-21,6.720996723060829e-20,1.807038446824199e-21,0.019335505956851427,0.0,0.0,0.0,3.87196247759766,-2.4176739373923557e-17,-1.4835188382217843e-17,-3.105981729205187e-18,632.5534251755337,632.5534251755338,632.5534251755337,632.5534251755337
0.11200000000000002,2.0495680680468887e-21,6.0,0.010584902815946505,5.107992542371552e-17,1.3251252073324675e-16,2.4752397572062725e-17,1.0333886867943086e-21,6.0,0.036226625896976984,1.1478110074481908e-21,1.653692433276238e-20,1.2780426696807324e-20,0.02721653009982346,0.0,0.0,0.0,3.9540189439659366,-3.2912310037046496e-17,-8.807690873951711e-17,-5.9492707185972304e-18,634.4474337025974,634.4474337025976,634.4474337025974,634.4474337025974
0.11600000000000002,1.41862400402104e-21,6.0,0.01075834023299865,8.596950457482522e-17,2.997455233571919e-16,2.7053009430235366e-17,1.032465453728577e-21,6.0,0.03798106789517558,1.1467855490811419e-21,-1.4743110897153447e-19,3.387845197437374e-20,0.03618525943319476,0.0,0.0,0.0,4.027156697793684,-4.4234658339656435e-17,-1.9793279746735076e-16,-3.7012596655245115e-18,636.1308294491672,636.1308294491672,636.1308294491672,636.1308294491671
0.12000000000000002,7.655967111563469e-22,6.0,0.01097418260926327,1.3489992357706056e-16,5.567311978386614e-16,2.7090964682958742e-17,1.0315161307033e-21,6.0,0.03978508927095156,1.1457311119347307e-21,-4.0186258274048707e-19,7.204576000291665e-20,0.04611688973295454,0.0,0.0,0.0,4.09222617727152,-6.301643409120666e-17,-3.1981242008368756e-16,-1.1525938352094681e-18,637.6247835343768,637.6247835343768,637.6247835343768,637.6247835343767
0.12400000000000003,1.1629182036557649e-21,6.0,0.011235547612334067,1.8715540054040848e-16,8.802379249982223e-16,2.4954858717115517e-17,1.030541064973621e-21,6.0,0.04163803012700448,1.1446480817140468e-21,-6.206142577396789e-19,1.340048892692363e-19,0.0569017026285746,0.0,0.0,0.0,4.149864088991928,-7.024519011287639e-17,-4.2753672660275093e-16,1.3854904926516768e-18,638.9451960699367,638.9451960699367,638.9451960699367,638.9451960699366
0.12800000000000003,4.03172862353579e-21,6.0,0.01154516974163524,2.360844607666042e-16,1.2425916296950033e-15,2.4892341382424767e-17,1.029540600554359e-21,6.0,0.04353923672370019,1.1435368405250694e-21,-7.572083430431678e-19,2.2036911134687722e-19,0.06844131363127215,0.0,0.0,0.0,4.200740166761944,-6.993417899648458e-17,-5.124567700989913e-16,-9.490779761926108e-19,640.1084402655584,640.1084402655584,640.1084402655584,640.1084402655583
0.13200000000000003,1.0650983975317656e-20,6.0,0.011905497178422975,2.9388037084915743e-16,1.646695619276066e-15,2.3686618544477922e-17,1.0285150782465082e-21,6.0,0.045488061428713505,1.1423977669041009e-21,-7.441563787787187e-19,3.3220196416041982e-19,0.0806499953659853,0.0,0.0,0.0,4.245339881076616,-8.363417203193387e-17,-6.029692201213492e-16,3.8892951215079886e-19,641.1264439515616,641.1264439515616,641.1264439515616,641.1264439515614
0.13600000000000004,-3.151171116746233e-11,5.999999999968488,0.012318696775613841,-3.0833368378618106e-06,3.0833010857009018e-06,8.837486375881988e-07,1.0274648356635348e-21,6.0,0.047483862667055225,1.1412312358469754e-21,-4.115377040836275e-09,-4.115382477715157e-09,0.09345301760883662,0.0,0.0,0.0,4.284147783761625,3.2333085337370728e-06,-3.2332664443423227e-06,-1.0323581557125836e-06,642.0124038106035,642.0124038219011,642.0103324275852,642.0085966955799
0.14000000000000004,-1.3015139516222273e-10,5.999999999869845,0.012786681247114857,-1.3514956527033068e-05,1.3514479909432379e-05,2.0745096974209204e-06,1.0263902072574732e-21,6.0,0.04952600487148083,1.1400376188380449e-21,-2.148498347480172e-08,-2.148561239413979e-08,0.10678275060660551,0.0,0.0,0.0,4.317602294983925,1.1583467854436266e-05,-1.1582998406084312e-05,-1.427286775677569e-06,642.7744651343534,642.774465260211,642.7735117823552,642.7673008942621
0.144,-2.493779082483687e-10,5.999999999750606,0.013311130680108505,-2.9938440728974895e-05,2.9936657417617753e-05,3.495352281371229e-06,1.0252915243448231e-21,6.0,0.051613858433277926,1.1388172838789434e-21,-5.428430644339909e-08,-5.4287273081510814e-08,0.12057682333143623,0.0,0.0,0.0,4.346106358382115,1.9779367982758165e-05,-1.9777909101710057e-05,-1.7449548595444042e-06,643.4230211220278,643.4230215127545,643.4233613528108,643.4127667928224
0.148,-3.1974860122373133e-10,5.999999999680216,0.013893522877152141,-5.11219975313242e-05,5.111767852962617e-05,5.083214876083999e-06,1.0241691151322484e-21,6.0,0.053746799653429884,1.1375705955171314e-21,-9.475743609344859e-08,-9.476543736087983e-08,0.1347791972385975,0.0,0.0,0.0,4.370008835183735,2.725189890928049e-05,-2.7248906685103466e-05,-1.9984050116790234e-06,643.9663547487825,643.9663555495027,643.9679749286944,643.9533903679283
0.152,-2.5290343884648397e-10,5.999999999747042,0.014535154888554381,-7.59136636570284e-05,7.590531407397428e-05,6.7837124814518775e-06,1.0230233047420796e-21,6.0,0.055924210694152494,1.1362979148742225e-21,-1.3745514343426648e-07,-1.374712905595029e-07,0.1493403861999961,0.0,0.0,0.0,4.389621416456675,3.398330380282515e-05,-3.397831105653779e-05,-2.195183262902641e-06,644.4118154867843,644.4118168219213,644.414676458013,644.3965023051895
0.156,5.411801261211239e-11,6.0000000000540545,0.01523715911247024,-0.00010324256463382026,0.00010322851966419489,8.550905278448871e-06,1.0218544152376224e-21,6.0,0.058145479530801444,1.1349995996740932e-21,-1.7867173271559218e-07,-1.7869963042900979e-07,0.16421602283558806,0.0,0.0,0.0,4.405228961547639,3.9955703079922576e-05,-3.994838833002952e-05,-2.342921697040136e-06,644.7660772414504,644.7660791964521,644.7701140354203,644.7487579772375
0.16,7.14597304429907e-10,6.0000000007145555,0.016000513289357563,-0.00013213212078761548,0.000132110634268332,1.0345474064560518e-05,1.02066276564827e-21,6.0,0.0604099999041475,1.133676004270777e-21,-2.1490779476907423e-07,-2.1495118261795056e-07,0.17936539009531438,0.0,0.0,0.0,4.417101376224987,4.516938218586707e-05,-4.515937963127888e-05,-2.447467804292219e-06,645.0354170810094,645.0354197532599,645.040548791091,645.0164165892287
0.164,1.848681179328303e-09,6.000000001848719,0.016826073018241256,-0.00016166161178861392,0.0001616309519894096,1.213304396171286e-05,1.0194486719944266e-21,6.0,0.06271717127301685,1.132327479676147e-21,-2.4282497986865617e-07,-2.428873317126191e-07,0.19475265851004275,0.0,0.0,0.0,4.4254475855541875,4.959214005919545e-05,-4.957926185769372e-05,-2.5129827644676897e-06,645.2246820241978,645.2246854636878,645.2308078432375,645.2043210088691
0.168,3.5798545982591376e-09,6.000000003580065,0.017714588555252195,-0.0001909526094560365,0.00019091115984939461,1.3885376473322989e-05,1.0182124473122373e-21,6.0,0.06506639876729393,1.1309543735873842e-21,-2.591503910554304e-07,-2.5923464315257465e-07,0.2103476883840437,0.0,0.0,0.0,4.4304463964479766,5.317622145195097e-05,-5.31603828306207e-05,-2.545223298382369e-06,645.3380021783579,645.3380064077693,645.3449926560359,645.3165971127565
0.17200000000000001,6.0308856210091595e-09,6.000000006031405,0.01866669788171599,-0.00021921378266646387,0.00021916011520757504,1.557951645669744e-05,1.0169544016781311e-21,6.0,0.06745709314128408,1.1295570304142374e-21,-2.6072127139222345e-07,-2.608294615957325e-07,0.226123013858129,0.0,0.0,0.0,4.432294123168397,5.5920072843138605e-05,-5.590123874964799e-05,-2.5492016352949345e-06,645.3798725423696,645.3798775713402,645.387583937914,645.3577257252713
0.17600000000000002,9.320488293891104e-09,6.000000009321501,0.01968293656161548,-0.00024574530863081655,0.00024567824104222805,1.719667664960303e-05,1.0156748422331738e-21,6.0,0.06988867072743325,1.1281357913060734e-21,-2.4460784830735405e-07,-2.447410983315445e-07,0.24205177786606819,0.0,0.0,0.0,4.431170733705947,5.7838158066567896e-05,-5.781642403985672e-05,-2.5288439066215113e-06,645.3543902926942,645.3543960962173,645.3626718226299,645.3317888442209
0.18000000000000002,1.3560488934533658e-08,6.000000013562235,0.0207637502051603,-0.00026992948233109127,0.0002698481291729202,1.8721867100922953e-05,1.0143740732072356e-21,6.0,0.07236055339040245,1.1266909941787203e-21,-2.0814769919029126e-07,-2.0830552943024422e-07,0.2581091868197168,0.0,0.0,0.0,4.427234246078248,5.894336926873474e-05,-5.891888749852963e-05,-2.487814506770246e-06,645.2651334936114,645.2651400317543,645.2738275499952,645.2423507134077
0.18400000000000002,1.8853368164748552e-08,6.000000018856145,0.021909504253392685,-0.00029121677654532713,0.0002911206033785468,2.0143301885437682e-05,1.0130523959429732e-21,6.0,0.07487216848149397,1.1252229737411052e-21,-1.4890351914514904e-07,-1.49084092316843e-07,0.27427329943851897,0.0,0.0,0.0,4.420625767643518,5.923985184000835e-05,-5.921288943419429e-05,-2.4292407090113186e-06,645.1152784951174,645.1152856974156,645.1242197297147,645.0925778551707
0.18800000000000003,2.528983446016658e-08,6.0000000252940024,0.023120491391601612,-0.000309136765760033,0.0003090256159998992,2.145209737426031e-05,1.011710108919628e-21,6.0,0.07742294879342705,1.1237320615216866e-21,-6.468561221735699e-08,-6.488506234897916e-08,0.29052444967361235,0.0,0.0,0.0,4.411473995153698,5.874746649687195e-05,-5.871832281198169e-05,-2.356028886384731e-06,644.9077051889273,644.9077129764026,644.9167252371892,644.8853369140784
0.19200000000000003,3.294687051122633e-08,6.000000032952851,0.02439693637731202,-0.0003232926289270587,0.0003231667477055229,2.2641938500781096e-05,1.0103475077766418e-21,6.0,0.08001233251546037,1.1222185858946862e-21,4.641269926184685e-08,4.620026327974851e-08,0.30684466899275825,0.0,0.0,0.0,4.399900225163519,5.748836534610193e-05,-5.7457455153277266e-05,-2.2708147354072747e-06,644.6451129147272,644.6451211775951,644.6540416814993,644.6233142251846
0.19600000000000004,4.188601939695726e-08,6.000000041894297,0.025738999210864394,-0.0003333621275516304,0.00033322217556662194,2.3709027743716622e-05,1.0089648853370914e-21,6.0,0.08263976318885874,1.1206828721061177e-21,1.8597818636845654e-07,1.8576089535672478e-07,0.32321711862281904,0.0,0.0,0.0,4.386021563422863,5.549200736123368e-05,-5.545976240714699e-05,-2.176279830162524e-06,644.3300957927279,644.3301044166163,644.3387631880208,644.3090889374198
0.20000000000000004,5.215188532157993e-08,6.000000052163005,0.027146771116595088,-0.0003391043031019624,0.00033895136359111077,2.4651925704583207e-05,1.0075625316309436e-21,6.0,0.08530468966270152,1.1191252422996162e-21,3.5523410492764994e-07,3.5502242859052885e-07,0.3396251103059381,0.0,0.0,0.0,4.369965414361602,5.280163617828866e-05,-5.276856423931817e-05,-2.0750228925259732e-06,643.9654735217738,643.9654823718469,643.9737133014235,643.9454623865249
0.20400000000000004,6.37711791238311e-08,6.000000063785739,0.028620286383788652,-0.0003403548315516735,0.00034019039565655226,2.5469991264536962e-05,1.0061407339181307e-21,6.0,0.08800656605003034,1.11754601554207e-21,5.549883699225578e-07,5.547952842562038e-07,0.35605281084604185,0.0,0.0,0.0,4.351837421112232,4.946556217762971e-05,-4.943222897280944e-05,-1.967917333015068e-06,643.5535633779692,643.5535723036667,643.5612193437934,643.534737059333
0.208,7.675214979846634e-08,6.0000000767708,0.030159534918668917,-0.00033701706241156724,0.0003368429979226279,2.6164216486663295e-05,1.0046997767114506e-21,6.0,0.09074485168433337,1.1159455078490548e-21,7.856264536197087e-07,7.854673462714995e-07,0.3724866309994323,0.0,0.0,0.0,4.331719644507794,4.553046616206213e-05,-4.549741207258947e-05,-1.856844639975225e-06,643.096143016157,643.0961518734106,643.103065682337,643.0786734324298
0.212,9.108408091394087e-08,6.0000000911075135,0.03176445829048268,-0.0003290662008792665,0.00032888471448079207,2.6736764532391455e-05,1.0032399417992891e-21,6.0,0.09351901107636416,1.1143240322100733e-21,1.0471008549621208e-06,1.0469932917910604e-06,0.3889147982729622,0.0,0.0,0.0,4.309703661443335,4.1052581489921684e-05,-4.102037315107878e-05,-1.7432135787603294e-06,642.5952011000506,642.595209737403,642.6012515593233,642.5792417782106
0.216,1.0673719898511852e-07,6.000000106766139,0.03343495276220865,-0.00031654673171342565,0.0003163603216641568,2.719077371478107e-05,1.0017615082681688e-21,6.0,0.09632851387129183,1.1126818986135998e-21,1.338893629666239e-06,1.3388573839858874e-06,0.40532561954425333,0.0,0.0,0.0,4.285876515019488,3.6094271518345774e-05,-3.606345819035955e-05,-1.6282521070445156e-06,642.0526198563449,642.0526281265784,642.0576719257773,642.0383048007776
0.22,1.2366288038774432e-07,6.000000123698074,0.035170872027011864,-0.00029956938165659773,0.0002993807821167456,2.75301853414185e-05,1.0002647525251242e-21,6.0,0.09917283480618101,1.111019414071934e-21,1.6599923277031064e-06,1.6600486413450706e-06,0.42170793041721516,0.0,0.0,0.0,4.260321214627309,3.072225928383409e-05,-3.06934032865425e-05,-1.5130271186456247e-06,641.4701873476015,641.4701950995235,641.4741292024638,641.4576302882139
0.224,1.4179423021892124e-07,6.000000141836437,0.03697203454134901,-0.0002783014692025604,0.0002781135897483464,2.775893229525119e-05,9.987499483199053e-22,6.0,0.1020514536677985,1.1093368826458618e-21,2.0088932698458e-06,2.009064864345e-06,0.43805172078335797,0.0,0.0,0.0,4.2331073192344615,2.500095774083452e-05,-2.497451262153172e-05,-1.3976906150256659e-06,640.8493822543761,640.849389365518,640.8521184382137,640.8386798574953
0.228,1.6104711806584914e-07,6.000000161097096,0.03883824254964673,-0.0002529417377038457,0.0002527576059836933,2.7882036955988842e-05,9.972173667670094e-22,6.0,0.10496385525074453,1.107634605469127e-21,2.3836965182122512e-06,2.3840071705560546e-06,0.45434974988947346,0.0,0.0,0.0,4.204266974852626,1.897473647662422e-05,-1.8951191386008944e-05,-1.2836767975146256e-06,640.1908292300268,640.1908355678586,640.1922716383061,640.1820627363028
0.232,1.813201978889087e-07,6.0000001813786925,0.040769234739813656,-0.00022377842274274416,0.00022360110077751955,2.7905402418654167e-05,9.956672763675446e-22,6.0,0.1079095293159062,1.1059128807727163e-21,2.7820024832354256e-06,2.7824763054614512e-06,0.47059255078639345,0.0,0.0,0.0,4.173929004775375,1.2746892829844582e-05,-1.2726611656318788e-05,-1.1722207159381784e-06,639.4973589965934,639.4973644617692,639.4974433280901,639.4905789373063
0.23600000000000002,2.0249654692245333e-07,6.000000202564276,0.04276471190362078,-0.00019115460637398837,0.0001909871133055476,2.78349198427063e-05,9.940999430309243e-22,6.0,0.11088797054923054,1.1041720039089546e-21,3.2008251445494284e-06,3.2014859350537346e-06,0.48676888041690597,0.0,0.0,0.0,4.142172253868472,6.404974711852607e-06,-6.388317262701672e-06,-1.0635508277482696e-06,638.770663024887,638.7706675186828,638.7693475140841,638.765896162504
0.24000000000000002,2.2444522708880592e-07,6.000000224522869,0.044824343717604735,-0.00015545674295707647,0.0001553019794180475,2.7676666845878647e-05,9.925156300963942e-22,6.0,0.11389867852081521,1.1024122673754173e-21,3.636593808370025e-06,3.6374643003217607e-06,0.5028685124816639,0.0,0.0,0.0,4.1090630862667314,2.7339762977235214e-08,-1.4495766704978452e-08,-9.581268556587912e-07,638.0121493892241,638.0121528583576,638.0094117622111,638.0094004624837
0.24400000000000002,2.470229363673913e-07,6.000000247111119,0.04694777028959849,-0.00011710909120805202,0.0001169697644532559,2.7436832082935143e-05,9.909145983543951e-22,6.0,0.11694115764431413,1.1006339608386569e-21,4.085303794638073e-06,4.086405296039473e-06,0.5188837637039301,0.0,0.0,0.0,4.07466579193287,-6.3091241772861195e-06,6.318008439066147e-06,-8.563280750213533e-07,637.2231802642949,637.2231826668846,637.2190176684933,637.2224324634698
0.24800000000000003,2.700758136455268e-07,6.000000270175104,0.04913460362493628,-7.656776622989282e-05,7.644631833580816e-05,2.712164775367485e-05,9.892971060677593e-22,6.0,0.12001491713665587,1.0988373711577476e-21,4.542543162722117e-06,4.543894956976663e-06,0.5348073309541099,0.0,0.0,0.0,4.039042699857853,-1.2528801252266775e-05,1.2533685321938518e-05,-7.584594794022099e-07,636.4050749027799,636.4050762252871,636.3995038814002,636.4062903179644
0.252,2.934413690498578e-07,6.000000293552259,0.0513844290119632,-3.431454579347485e-05,3.42130864795712e-05,2.67373314157632e-05,9.876634089927446e-22,6.0,0.12311947097807258,1.0970227824076474e-21,5.0035361221555415e-06,5.005154123359191e-06,0.5506322727188614,0.0,0.0,0.0,4.002254294570171,-1.855830614334109e-05,1.8559232615569086e-05,-6.647598786526774e-07,635.5591126915836,635.5591129427875,635.5521688832372,635.5622329685968
0.256,3.1695051159972595e-07,6.000000317073414,0.053696806335722325,9.149500039382647e-06,-9.229254598669935e-06,2.6290036149252602e-05,9.860137603999063e-22,6.0,0.1262543378724371,1.0951904759023817e-21,5.463193953882163e-06,5.4650905266216656e-06,0.5663519896449963,0.0,0.0,0.0,3.964359317210245,-2.432724127937258e-05,2.4324389168187476e-05,-5.754092656505135e-07,634.686535798619,634.6865350242342,634.6782734158198,634.6914829965306
0.26,3.4042964556621524e-07,6.000000340564881,0.0560712713274259,5.331048915725209e-05,-5.3367270186840036e-05,2.5785808189566693e-05,9.843484110948077e-22,6.0,0.12941904120790582,1.0933407302180466e-21,5.916172822665329e-06,5.918355803567266e-06,0.5819602070207228,0.0,0.0,0.0,3.9254148534563424,-2.9769142732353117e-05,2.976272991702861e-05,-4.905354942413083e-07,633.7885515172849,633.7885497736559,633.7790425517449,633.7952291619588
0.264,3.637028067472406e-07,6.000000363850604,0.058507336756249,9.764824860882764e-05,-9.768127972989198e-05,2.5230551229192124e-05,9.826676094385708e-22,6.0,0.13261310901786544,1.0914738212156359e-21,6.356937800842911e-06,6.359410130965049e-06,0.5974509590975855,0.0,0.0,0.0,3.8854764102276436,-3.482199377564379e-05,3.481241257505523e-05,-4.1022032961744557e-07,632.866334271795,632.8663316628933,632.8556675426856,632.8746285970052
0.268,3.865938421719954e-07,6.000000386754331,0.06100449923688688,0.00014164714061345047,-0.00014165617057121808,2.4629710352153866e-05,9.80971601368269e-22,6.0,0.1358360739421809,1.0895900220636902e-21,6.779843232670329e-06,6.782602399209351e-06,0.6128191417763043,0.0,0.0,0.0,3.8445864798845757,-3.943387115749085e-05,3.942155076211921e-05,-3.3417046918734435e-07,631.9207607883777,631.9207574285904,631.9090403955356,631.9305444022145
0.272,4.0892856923670907e-07,6.000000409101781,0.06356224917408115,0.00018480920557287426,-0.00018479452511744574,2.398887988880389e-05,9.792606304171616e-22,6.0,0.1390874731887426,1.0876896032607737e-21,7.1792679905976615e-06,7.1823056329226755e-06,0.6280613850718229,0.0,0.0,0.0,3.802767956139631,-4.3566870833197066e-05,4.355234311905429e-05,-2.627838489333811e-07,630.9522571829709,630.9522532151638,630.9395967860324,630.9633908026188
0.276,4.3053660105231693e-07,6.000000430722469,0.06618003400954976,0.00022663142505268378,-0.00022659389070149843,2.3313488586205072e-05,9.775349377347726e-22,6.0,0.1423668484953108,1.0857728326577747e-21,7.549618009285561e-06,7.552919713575332e-06,0.6431722612947399,0.0,0.0,0.0,3.7601185899982017,-4.715987566305436e-05,4.714374473000789e-05,-1.9609676259686454e-07,629.9629866798476,629.962982267251,629.949517020419,629.9753136822851
0.28,4.512534916397171e-07,6.000000451451855,0.06885728131233275,0.00026662846976404855,-0.0002665695059868129,2.26086545963648e-05,9.757947621068137e-22,6.0,0.14567374609165437,1.0838399754800361e-21,7.885342126127892e-06,7.888886855067356e-06,0.6581446537873867,0.0,0.0,0.0,3.7166907077680884,-5.0172696754874384e-05,5.015563546816476e-05,-1.3396930786250353e-07,628.9540675898836,628.9540629153033,628.939931390108,628.9674201227913
0.28400000000000003,4.709226757645549e-07,6.0000004711332835,0.07159340776813301,0.0003043423444168841,-0.0003042639320397366,2.187902348018656e-05,9.740403399749544e-22,6.0,0.1490077166619825,1.081891294349313e-21,8.181023033089445e-06,8.184783488884968e-06,0.6729735152255054,0.0,0.0,0.0,3.672519092680588,-5.257815680121816e-05,5.256091580588428e-05,-7.605959138164198e-08,627.9262146798993,627.9262099483486,627.9115637583403,627.9404177211088
0.28800000000000003,4.893972609876551e-07,6.000000489619781,0.07438782965419291,0.0003393517141682337,-0.00033925636507755566,2.1129255307650577e-05,9.722719054564383e-22,6.0,0.15236831530766687,1.079927049305562e-21,8.431566168879258e-06,8.435508622271992e-06,0.6876568329713958,0.0,0.0,0.0,3.6276176828576934,-5.4361947142355204e-05,5.434527336661668e-05,-2.2575323730169885e-08,626.8796602340287,626.8796556505042,626.8646504431405,626.8945334328029
0.29200000000000004,5.065417085331114e-07,6.0000005067757405,0.0772399225266826,0.00037125942952848524,-0.00037115015465601455,2.0363787088527656e-05,9.70489690363548e-22,6.0,0.15575510151025196,1.0779474978285611e-21,8.632228346698949e-06,8.636313235147859e-06,0.702190268911534,0.0,0.0,0.0,3.582082310845335,-5.549730565903204e-05,5.548204727584329e-05,2.6552707219677315e-08,625.816549461021,625.8165452594545,625.8013450270053,625.8319044307987
0.29600000000000004,5.222333379159634e-07,6.0000005224784205,0.08014904606632921,0.0003997069850052788,-0.0003995872483959063,1.9586729866955128e-05,9.686939242229193e-22,6.0,0.15916763909475165,1.0759528948593623e-21,8.77865187199286e-06,8.782833904464736e-06,0.7165675700693592,0.0,0.0,0.0,3.535959748581342,-5.597672705732356e-05,5.596365067415686e-05,7.152308297336225e-08,624.73789228243,624.7378886754847,624.7226609305205,624.7535381767116
0.30000000000000004,5.363636306330151e-07,6.0000005366192575,0.08311455343811518,0.00042437966864231286,-0.0004242533320238079,1.880176202974132e-05,9.668848342947062e-22,6.0,0.16260549619322995,1.073943492821579e-21,8.866939080888992e-06,8.871167837130279e-06,0.7307846496160513,0.0,0.0,0.0,3.489278343793186,-5.5802182436284096e-05,5.579211141882982e-05,1.1267240300574547e-07,623.6442721866958,623.644269403869,623.6291829664907,623.6600187228962
0.30400000000000005,5.488392623716969e-07,6.000000549104897,0.08613580883356052,0.00044501041238639567,-0.00044488167565480717,1.8012344544107457e-05,9.65062645591597e-22,6.0,0.16606824520866353,1.0719195416425076e-21,8.893772188663793e-06,8.897992723121737e-06,0.7448412813113613,0.0,0.0,0.0,3.4420311143913556,-5.498516202079754e-05,5.497888779607857e-05,1.5010360137581305e-07,622.5354461726786,622.5354444358949,622.5206661506078,622.5511055528227
0.30800000000000005,5.595832636575721e-07,6.000000559858356,0.089212154775995,0.00046137943242280523,-0.0004612527568308817,1.722188576450055e-05,9.632275808976837e-22,6.0,0.1695554627790844,1.0698812887740857e-21,8.856462709709725e-06,8.860616965102525e-06,0.75873641132084,0.0,0.0,0.0,3.394277145473125,-5.3537460796792514e-05,5.353575370728622e-05,1.8373601967214398e-07,621.4127232817073,621.4127228083099,621.3984169628887,621.4281096913816
0.31200000000000006,5.685358916044007e-07,6.000000568819896,0.09234290086023561,0.0004733176434462273,-0.0004731976611270832,1.6433391487081122e-05,9.613798607871851e-22,6.0,0.17306672974200019,1.067828979213689e-21,8.752995264189097e-06,8.757022440592913e-06,0.7724648514816669,0.0,0.0,0.0,3.346099129627466,-5.148039717097124e-05,5.148392850810781e-05,2.1389995162827706e-07,620.2779769612289,620.2779779423049,620.2643048673737,620.2929103817079
0.31600000000000006,5.756548453815669e-07,6.000000575947239,0.09552736301379816,0.00048070585877866987,-0.00048059729316601,1.5649722283377458e-05,9.595197036430242e-22,6.0,0.17660163109909027,1.0657628555247656e-21,8.582053427593826e-06,8.585891639579016e-06,0.7860224287556629,0.0,0.0,0.0,3.297501191188897,-4.884449960233916e-05,4.8853928308530416e-05,2.4064161491611647e-07,619.1312384412961,619.1312410656307,619.1183536530074,619.1455464664912
0.32000000000000006,5.809162004688738e-07,6.0000005812165025,0.09876480729166918,0.0004834882011353005,-0.00048339574718523454,1.4873647036469425e-05,9.576473256752621e-22,6.0,0.1801597559811757,1.0636831578573102e-21,8.343103691367227e-06,8.346691184763993e-06,0.7994037954433436,0.0,0.0,0.0,3.248601384776649,-4.5670725194569714e-05,4.568656393867081e-05,2.6395065186994695e-07,617.9752343707509,617.9752387874668,617.9632794668291,617.9887548877106
0.32400000000000007,5.843140155254577e-07,6.000000584621803,0.10205449458527002,0.0004816611498067162,-0.0004815893797428244,1.4107286650090709e-05,9.557629409393888e-22,6.0,0.1837406976134608,1.0615901239681815e-21,8.03646028671225e-06,8.039736719017773e-06,0.8126032432521079,0.0,0.0,0.0,3.1994286796740563,-4.20060591004233e-05,4.202871986453004e-05,2.8447030558154937e-07,616.8105984705978,616.8106048016008,616.7997056631757,616.8231834104596
0.32800000000000007,5.8585941696961e-07,6.000000586174345,0.10539574530625619,0.000475250443434603,-0.0004752037617475266,1.3352735714750964e-05,9.538667613544722e-22,6.0,0.18734405328104436,1.0594839892412595e-21,7.663151312208693e-06,7.666059144441214e-06,0.8256234696404375,0.0,0.0,0.0,3.1498809947963426,-3.788032918769442e-05,3.791017470756971e-05,3.021442229252065e-07,615.6348572593301,615.6348656135468,615.625150999191,615.6463658871138
0.3320000000000001,5.855817300857193e-07,6.000000585903545,0.10878782598985996,0.0004643518542331232,-0.00046433436502386964,1.2611899500967016e-05,9.519589967211658e-22,6.0,0.19096942429469882,1.0573649867074478e-21,7.224935185226757e-06,7.227420949538195e-06,0.8384663431134312,0.0,0.0,0.0,3.100084553099042,-3.33497102078929e-05,3.3386956907717976e-05,3.1710754896304423e-07,614.4509505873544,614.4509610333627,614.4425407908334,614.461257367072
0.3360000000000001,5.835271603218406e-07,6.000000583855723,0.11223001366708678,0.0004491022886277925,-0.00044911771760268454,1.1886429853672421e-05,9.500398547395772e-22,6.0,0.1946164159569148,1.0552333470645204e-21,6.7243485798330555e-06,6.72636456034365e-06,0.8511293582435782,0.0,0.0,0.0,3.05003671136586,-2.846884445972937e-05,2.851362022278428e-05,3.295780883119611e-07,613.2587678279793,613.2587804099599,613.2517503923797,613.2677624280325
0.3400000000000001,5.797583713028581e-07,6.000000580093662,0.11572157712207262,0.0004296871987123601,-0.0004297388022619846,1.1177806050210956e-05,9.481095410269969e-22,6.0,0.19828463752820977,1.0530892986968139e-21,6.164739743003448e-06,6.166245045132905e-06,0.8636100757297095,0.0,0.0,0.0,2.9997725904772294,-2.3294435273510002e-05,2.334663956478941e-05,3.396895971363557e-07,612.0590995035215,612.0591142016698,612.0535553839536,612.0666871836822
0.3440000000000001,5.743536228269666e-07,6.00000057469576,0.11926177806278085,0.00040633759373903634,-0.000406428073623435,1.0487298529221674e-05,9.461682591354905e-22,6.0,0.20197370219369817,1.0509330676947667e-21,5.550170955016741e-06,5.551132845532085e-06,0.875907675833246,0.0,0.0,0.0,2.949325257954281,-1.7888123602831596e-05,1.7947631167064525e-05,3.4762528817898283e-07,610.852692795713,610.8527095831912,610.8486866415226,610.858796128156
0.3480000000000001,5.674055446262989e-07,6.0000005677547925,0.12284988694899994,0.0003793179835916029,-0.00037944942315690835,9.816044837867759e-06,9.442162105693534e-22,6.0,0.20568322702992173,1.048764877874307e-21,4.885379116935159e-06,4.8857743855394774e-06,0.8880218059646211,0.0,0.0,0.0,2.8986959429119783,-1.2305596610822945e-05,1.237206758922418e-05,3.5348823139902633e-07,609.6395370574427,609.6395558466616,609.6371185202396,609.6440940942124
0.3520000000000001,5.590209061912325e-07,6.000000559377682,0.12648511539017546,0.00034896601748757555,-0.00034913976502521775,9.165038315585193e-06,9.422535948024294e-22,6.0,0.20941283297193752,1.0465849507960894e-21,4.175885330458506e-06,4.175701538509857e-06,0.899947237764995,0.0,0.0,0.0,2.8480228538228185,-6.640250303142492e-06,6.713195904239484e-06,3.574001728782928e-07,608.4229133476086,608.4229340082275,608.4221063455409,608.4258884786615
0.3560000000000001,5.493185538733154e-07,6.0000005496834365,0.13016666562688115,0.00031565800136798235,-0.00031587460681245494,8.535077950856089e-06,9.402806092952957e-22,6.0,0.21316214478066214,1.0443935057845817e-21,3.4280451774324356e-06,3.4272822387769955e-06,0.9116772937387756,0.0,0.0,0.0,2.7973457101259847,-9.71652622223869e-07,1.0504544831571514e-06,3.595473555498218e-07,607.2037570585637,607.2037794226832,607.2045636588435,607.2051375356959
0.3600000000000001,5.384277433576827e-07,6.000000538801472,0.13389374045065713,0.00027979839246900564,-0.00028005756493027607,7.926809169511665e-06,9.38297449512313e-22,6.0,0.21693079101046997,1.042190759947004e-21,2.648953313244797e-06,2.6476244997693015e-06,0.9232079333532681,0.0,0.0,0.0,2.7466844553444396,4.633179897877117e-06,-4.549345310724361e-06,3.6007635583450924e-07,605.9825339486172,605.9825577889821,605.984937633743,605.9823263683077
0.3640000000000001,5.264865197669023e-07,6.000000526869993,0.13766554306109086,0.0002418150336213731,-0.0002421156116957166,7.340735006870714e-06,9.363043089385436e-22,6.0,0.22071840397704373,1.039976928192119e-21,1.8461530020828915e-06,1.8442853234484704e-06,0.934539292491239,0.0,0.0,0.0,2.696059362878607,1.0110273463746588e-05,-1.0022302551388006e-05,3.591270051054637e-07,604.7597214808222,604.7597465480331,604.7636878400868,604.7579510958859
0.3680000000000001,5.136400278485959e-07,6.0000005140343,0.14148127702336138,0.00020215404496228294,-0.00020249398141547925,6.777226675795241e-06,9.343013790965377e-22,6.0,0.22452461972547544,1.0377522232488779e-21,1.0275445957184815e-06,1.0251792208126948e-06,0.9456714733399257,0.0,0.0,0.0,2.645490836166955,1.5397882770851232e-05,-1.5306804046892755e-05,3.5683263658834525e-07,603.5358041411259,603.5358301465342,603.541281336909,603.5325143445035
0.3720000000000001,5.000387042601488e-07,6.000000500444976,0.14534015349454835,0.00016126997723721757,-0.00016164634120964427,6.2365400473796415e-06,9.322888495629884e-22,6.0,0.22834907799861584,1.0355168556849185e-21,2.0127946398686977e-07,1.9847222567444061e-07,0.9566052910598248,0.0,0.0,0.0,2.5949846574635087,2.0441838373684023e-05,-2.0348768666416287e-05,3.533127445120316e-07,602.310915401311,602.3109420292401,602.3178361516913,602.3061656792712
0.376,4.858365512280847e-07,6.000000486256159,0.1492413883779544,0.00011962189854317178,-0.00012003089408066874,5.7187974250195034e-06,9.302669079852574e-22,6.0,0.2321914222056705,1.033271033924922e-21,-6.243967385839138e-07,-6.275762738256172e-07,0.9673419976514179,0.0,0.0,0.0,2.544552198211782,2.51914239096101e-05,-2.5097599008119684e-05,3.4871285017926824e-07,601.0853257462818,601.0853526450113,601.0936082645832,601.0791908933686
0.38,4.711897096938023e-07,6.000000471624112,0.15318417043068533,7.768893745267495e-05,-7.812592077824639e-05,5.22405521495667e-06,9.282357400977718e-22,6.0,0.2360512993910412,1.0310149642688243e-21,-1.4410842866429779e-06,-1.444552352116572e-06,0.9778800935207901,0.0,0.0,0.0,2.494269460092887,2.9452810677311374e-05,-2.9359058385001706e-05,3.4270566233761247e-07,599.8608839527575,599.8609108855342,599.870389248134,599.8534940434591
0.384,4.5625405397133007e-07,6.000000456704814,0.15716773173554952,3.592188246589962e-05,-3.638141403688651e-05,4.752250844580136e-06,9.261955297382923e-22,6.0,0.23992836020340938,1.028748850909886e-21,-2.240441888952878e-06,-2.2441017725542856e-06,0.9882202896251571,0.0,0.0,0.0,2.4440703412636755,3.335346209558393e-05,-3.326110625990267e-05,3.3586163777888486e-07,598.6359816600051,598.6360082459012,598.646608344282,598.6274324585927
0.388,4.4118403794518513e-07,6.000000441652804,0.1611912827871963,-5.224812975956775e-06,4.74891799433061e-06,4.303249953505157e-06,9.241464588640561e-22,6.0,0.24382225886506181,1.0264728959526222e-21,-3.014300222696251e-06,-3.0180428174681805e-06,0.9983649850750469,0.0,0.0,0.0,2.394019156789611,3.6847044120904136e-05,-3.675742125895464e-05,3.282656040440448e-07,597.4121900906049,597.4122159426262,597.4238230190966,597.4025915948907
0.392,4.2613077380667756e-07,6.000000426619255,0.1652540519282799,-4.531947194913697e-05,4.483407996546519e-05,3.876815491177611e-06,9.220887075677916e-22,6.0,0.2477326531414553,1.0241872994305912e-21,-3.75480952594809e-06,-3.7585147540898897e-06,1.0083148554623143,0.0,0.0,0.0,2.3441009275193814,3.990757876498556e-05,-3.982207079957756e-05,3.2004144477589335e-07,596.1891485181309,596.189173233795,596.201664710793,596.1786192790308
0.396,4.112407020501683e-07,6.000000411750643,0.1693552402324104,-8.393611522868272e-05,8.344868884790807e-05,3.4726354022893137e-06,9.200224540936098e-22,6.0,0.25165920431101896,1.0218922593240451e-21,-4.454383292117862e-06,-4.457921337086198e-06,1.0180684487983371,0.0,0.0,0.0,2.294391724507205,4.249570412966453e-05,-4.241566866304703e-05,3.1128493601231414e-07,594.9687309883185,594.9687541696362,594.9819955558958,594.9574020298752
0.4,3.966539473113615e-07,6.0000003971871045,0.17349404950832148,-0.00012067146649046789,0.00012018997132496723,3.090341702712252e-06,9.17947874852771e-22,6.0,0.25560157713519266,1.019587971577442e-21,-5.105807159364711e-06,-5.109040285077123e-06,1.0276234543630083,0.0,0.0,0.0,2.2449117062058757,4.4587152483409666e-05,-4.4513943102647097e-05,3.020726718056532e-07,593.751450005588,593.7514712532834,593.7653203983733,593.7394604616622
0.404,3.8250290990370925e-07,6.00000038306102,0.17766968478649503,-0.00015514973246651397,0.00015468253293605608,2.7295117931365e-06,9.158651444393273e-22,6.0,0.2595594398286994,1.0172746301168213e-21,-5.702311766780476e-06,-5.705095962290128e-06,1.0369791124672072,0.0,0.0,0.0,2.19567601354096,4.6165841127914494e-05,-4.6100754266289525e-05,2.9248203397891576e-07,592.5376984123506,592.5377173413267,592.5520267449753,592.5251932262713
0.40800000000000003,3.689109879565859e-07,6.00000036949574,0.18188135437302463,-0.00018702601064897955,0.000186581755852537,2.389675075786665e-06,9.137744356456452e-22,6.0,0.2635324640300502,1.0149524268670438e-21,-6.237731450459003e-06,-6.239918499300517e-06,1.0461362348100622,0.0,0.0,0.0,2.146699627493768,4.722149542774209e-05,-4.716578405657206e-05,2.82584947162108e-07,591.327868272961,591.3278845084467,591.3425029600257,591.3149965280676
0.41200000000000003,3.559914282549486e-07,6.00000035660443,0.18612826994137813,-0.00021598938481259838,0.0002155768862368464,2.0703191445266155e-06,9.11675919477804e-22,6.0,0.2675203247722797,1.0126215517688963e-21,-6.7065728103399505e-06,-6.7080128574524e-06,1.0550956471249626,0.0,0.0,0.0,2.0979972899963,4.7749663553816155e-05,-4.770449092724647e-05,2.724481087894476e-07,590.1223488717601,590.1223620629224,590.1371362865624,590.1092621173894
0.41600000000000004,3.438463150138923e-07,6.000000344489066,0.19040964665045987,-0.00024176565316573538,0.00024139375593339448,1.770895527135691e-06,9.095697651708757e-22,6.0,0.2715227004539107,1.010282192796063e-21,-7.104075767965385e-06,-7.104619698551361e-06,1.0638581994327336,0.0,0.0,0.0,2.0495834471623486,4.775168362500353e-05,-4.771811124550882e-05,2.6213326096703936e-07,588.9215252523918,588.921535076078,588.9363113951018,588.9083758119039
0.42000000000000004,3.3256570408564567e-07,6.000000333239561,0.19472470328353217,-0.00026411965626870404,0.0002637971058550763,1.4908250129779123e-06,9.074561402040844e-22,6.0,0.27553927281014573,1.007934535971963e-21,-7.4262669240087975e-06,-7.425768515387693e-06,1.0724247724068963,0.0,0.0,0.0,2.0014722027245666,4.723463797274484e-05,-4.721358902931444e-05,2.516974415209608e-07,587.7257769823755,587.7257831540833,587.7404091537537,587.7127162641182
0.42400000000000004,3.222269084421203e-07,6.00000032293306,0.19907266240336946,-0.0002828571782286963,0.00028259248472981615,1.229502598217605e-06,9.053352103158473e-22,6.0,0.27956972688428483,1.0055787653864573e-21,-7.670004335028868e-06,-7.668322940482385e-06,1.080796282324336,0.0,0.0,0.0,1.9536772802002778,4.621116802198837e-05,-4.62034385634131e-05,2.4119321413823585e-07,586.5354771288988,586.5354793998333,586.5498055683847,586.5226539600403
0.42800000000000005,3.129117448027511e-07,6.000000313615582,0.20345275222209674,-0.000299560116473642,0.00029589397748751734,2.5456319925453783e-07,9.032071395186976e-22,6.0,0.2836137509993664,1.0032150632124238e-21,-7.826786921316886e-06,-7.836242621193871e-06,1.0889738551372634,0.0,0.0,0.0,1.9062085375059488,4.6516511140719946e-05,-4.288850480916593e-05,1.0854555996329596e-06,585.3490354997801,585.3501035766684,585.3661192023828,585.3397987195699
0.43200000000000005,3.0472958136092933e-07,6.000000305278215,0.2078642094336592,-0.0003202902455528044,0.0002974221794159794,-1.246351602360673e-06,9.01072090114091e-22,6.0,0.287671036730031,1.000843609722203e-21,-7.843068003264497e-06,-7.9803192822094e-06,1.0969590949632348,0.0,0.0,0.0,1.8590699532122512,5.318634033845649e-05,-3.227938910229221e-05,1.7398944195163913e-06,584.1667308106504,584.1728982001745,584.1878642864084,584.1626527897004
0.43600000000000005,2.9768098147433386e-07,6.000000297992862,0.21230626804300684,-0.0003440088393389498,0.0002880857303986547,-2.9929081983558657e-06,8.989302227070956e-22,6.0,0.2917412788746054,9.98464583303915e-22,-7.663054933596029e-06,-8.155406094241807e-06,1.10475295082751,0.0,0.0,0.0,1.81228795567531,5.9882872600169646e-05,-2.0768060039276107e-05,2.0885622820499864e-06,582.9913142536776,583.0028760322384,583.0155628342312,582.9917238410333
0.44000000000000006,2.917237315487735e-07,6.000000291846228,0.2167781728534102,-0.00036928639946477194,0.0002692678677628347,-4.912197860266699e-06,8.967816962209668e-22,6.0,0.29582417542740536,9.960781604776474e-22,-7.272477444603473e-06,-8.376645070949499e-06,1.1123564989531958,0.0,0.0,0.0,1.7658617346414123,6.537987711084896e-05,-9.642673697771293e-06,2.3622699958872665e-06,581.8228170069956,581.8393251434177,581.8496021859099,581.8273824362449
0.44400000000000006,2.867839103662143e-07,6.000000286929192,0.22127919722260442,-0.00039486218794206485,0.00024225481751758202,-6.943315260526329e-06,8.946266679116075e-22,6.0,0.29991942755125633,9.936845159115177e-22,-6.702364711161047e-06,-8.615568438722518e-06,1.1197735916995415,0.0,0.0,0.0,1.7197541471634077,6.966784194223529e-05,1.0291051112860994e-06,2.5720576234070472e-06,580.6603395774848,580.6813202997449,580.6891112464506,580.6687416229471
0.44800000000000006,2.827598750920227e-07,6.000000283332628,0.2258086090914587,-0.0004195998377916162,0.00020829838499433447,-9.03328503410306e-06,8.924652933819157e-22,6.0,0.3040267395502293,9.912838224376089e-22,-5.982632415763014e-06,-8.846469382359813e-06,1.1270074477092915,0.0,0.0,0.0,1.673996132779827,7.276239538291896e-05,1.1186167141404776e-05,2.724695453122078e-06,579.504694957203,579.5296579548586,579.5349255999066,579.5166155252597
0.45200000000000007,2.7952659909074784e-07,6.0000002811434925,0.23036565953175994,-0.00044247683943092144,0.0001686339804850804,-1.1138296111561929e-05,8.902977265960186e-22,6.0,0.30814581884259074,9.88876251067779e-22,-5.141967890985993e-06,-9.046669113769387e-06,1.1340569682510293,0.0,0.0,0.0,1.628642093156191,7.467439532153728e-05,2.0740909617429195e-05,2.8287176011478084e-06,578.3572974636672,578.3857264211413,578.388486483333,578.3724172680962
0.45600000000000007,2.7694061960849085e-07,6.000000280441347,0.23494960831703474,-0.0004626025975133271,0.00012444258466211,-1.3220809049902462e-05,8.881241198933946e-22,6.0,0.3122763759339655,9.864619710093488e-22,-4.208008866757391e-06,-9.196310913356011e-06,1.140920634691617,0.0,0.0,0.0,1.5836951179508292,7.544445282487898e-05,2.9640110243296477e-05,2.8896523454787535e-06,577.2182676755957,577.2496392878514,577.24994107424,577.2362670078095
0.4600000000000001,2.7484368401689017e-07,6.000000281295287,0.23955969058638021,-0.0004792006807867547,7.689509352677714e-05,-1.525065164498655e-05,8.85944624002886e-22,6.0,0.31641812439071015,9.840411496806635e-22,-3.207456557429706e-06,-9.278330510543808e-06,1.147596644554804,0.0,0.0,0.0,1.539225721909466,7.510277539102393e-05,3.779305535730559e-05,2.9145627250899738e-06,576.0894428799633,576.1232124120447,576.1211551719747,576.1099952243009
0.4640000000000001,2.730677241410785e-07,6.00000028376167,0.24419517007720076,-0.0004916234771045137,2.7080779879618473e-05,-1.7203113534613976e-05,8.837593880565993e-22,6.0,0.3205707808134958,9.816139527265339e-22,-2.1657321951392152e-06,-9.27849712190641e-06,1.154084910218091,0.0,0.0,0.0,1.4951972142451107,7.371041441538062e-05,4.5174213473720375e-05,2.9085863901665724e-06,574.9699365942568,575.0055666821692,575.0012743456855,574.992722096199
0.4680000000000001,2.7143831130965334e-07,6.000000287881947,0.2488553172655804,-0.0004993433504734209,-2.3967337611416833e-05,-1.9058409864555086e-05,8.81568559603698e-22,6.0,0.3247340648110988,9.791805440335557e-22,-1.1067433759428733e-06,-9.185368099449504e-06,1.1603888315118542,0.0,0.0,0.0,1.4516164023214042,7.132561253159897e-05,5.174701946995032e-05,2.876457023706672e-06,573.8599660172741,573.8969225620749,573.8905459465674,573.8846669335959
0.4720000000000001,2.697782608425449e-07,6.000000293681121,0.25353941563918037,-0.0005019469824039439,-7.528109785045533e-05,-2.0800941475789345e-05,8.79372284624086e-22,6.0,0.3289076989743973,9.767410857453079e-22,-5.267217664328088e-08,-8.99024481847709e-06,1.1665114194071289,0.0,0.0,0.0,1.4084771926514912,6.80131684509613e-05,5.748360667822549e-05,2.822244966380547e-06,572.7594189727433,572.7971758263802,572.7888880964447,572.785720231208
0.4760000000000001,2.679110464032791e-07,6.000000301166772,0.25824677964468307,-0.0004991244514800463,-0.0001259756429803088,-2.2418647116276374e-05,8.771707075419829e-22,6.0,0.33309140885057315,9.742957382774323e-22,9.760861902346052e-07,-8.686977284380855e-06,1.1724574094285454,0.0,0.0,0.0,1.3657366967902838,6.383758106988594e-05,6.238070674170254e-05,2.749434628860296e-06,571.6672380712745,571.7052845364693,571.6952720546376,571.6948329101441
0.4800000000000001,2.656635901472775e-07,6.000000310328095,0.2629767417630393,-0.0004906652550101227,-0.00017523732813323574,-2.3902989910770812e-05,8.749639712393935e-22,6.0,0.33728492291751627,9.718446603325932e-22,1.961075631641933e-06,-8.271773384708826e-06,1.1782326622133439,0.0,0.0,0.0,1.323377314305468,5.886472296092799e-05,6.643046982029213e-05,2.6616390522335133e-06,570.5830057602856,570.6208457456921,570.6093099537728,570.611594825733
0.4840000000000001,2.628686319412778e-07,6.00000032113456,0.26772859271114563,-0.0004764842421046414,-0.00022228059861653754,-2.524840150301653e-05,8.727522170694704e-22,6.0,0.34148797255843105,9.693880089153202e-22,2.88548726081484e-06,-7.743241979673756e-06,1.1838361773395483,0.0,0.0,0.0,1.281502275009194,5.319186786468763e-05,6.958155121130705e-05,2.5619660740390962e-06,569.5094059615067,569.5465542722658,569.5337233949606,569.5386824509549
0.4880000000000001,2.5938313008512184e-07,6.000000333520812,0.27250162539637307,-0.00045811518094932154,-0.00026790276010706175,-2.7108774040667278e-05,8.70535584869772e-22,6.0,0.34570029203664276,9.669259393467335e-22,3.7397133298571774e-06,-7.1082212094937255e-06,1.189264543714906,0.0,0.0,0.0,1.2401269768997014,4.8507032000943536e-05,7.341068272571108e-05,3.2205314893776603e-06,568.4451619615996,568.482120424918,568.4702223460015,568.4777715680086
0.4920000000000001,2.5511139843240995e-07,6.00000034736636,0.2772951515597654,-0.00044106380206727957,-0.0003168631378281064,-2.9305672671194972e-05,8.683142129754145e-22,6.0,0.3499216184706026,9.644586052791535e-22,4.559047989475261e-06,-6.419198869214917e-06,1.1945175911984158,0.0,0.0,0.0,1.1992330133541773,4.9283980607870264e-05,8.231078368876857e-05,3.691932613135433e-06,567.3900284075539,567.4299944735216,567.4168899357833,567.4269201503627
0.4960000000000001,2.498888804306338e-07,6.000000362614531,0.2821085066130317,-0.00042465801547041224,-0.00036775969742184,-3.158873819999179e-05,8.660882382321222e-22,6.0,0.35415169180909,9.619861587105943e-22,5.384225712234423e-06,-5.7339560426400715e-06,1.1996001898366795,0.0,0.0,0.0,1.1587916029969887,5.002475213177095e-05,9.073166257354237e-05,3.8848468250899875e-06,566.345141341724,566.3879686107164,566.3729004178249,566.3852858370857
0.5000000000000001,2.435416540740886e-07,6.000000379215052,0.2869410308156659,-0.00040793778865451337,-0.0004188954213582268,-3.389388628972277e-05,8.63857796009173e-22,6.0,0.3583902548066104,9.595087499991443e-22,6.219839937936212e-06,-5.0737591129039006e-06,1.2045162831334522,0.0,0.0,0.0,1.1188114531263673,4.9730619977009496e-05,9.760090963948845e-05,4.0065980755577295e-06,565.310763297115,565.3556730822916,565.3388771593204,565.3534687078343
0.5040000000000001,2.3589669122359907e-07,6.0000003971161755,0.29179206273112346,-0.0003901074754170958,-0.0004687307220319678,-3.6168929073864666e-05,8.61623020212243e-22,6.0,0.3626370529989875,9.570265278772316e-22,7.029772806011166e-06,-4.418828413175018e-06,1.2092671441358644,0.0,0.0,0.0,1.0793144388138027,4.8440623641227165e-05,0.00010287777451109902,4.068453356175504e-06,564.2875009240972,564.3337095769718,564.3154721938953,564.3320954776158
0.5080000000000001,2.2678672323258795e-07,6.000000416262203,0.29666093282717926,-0.0003705138174073404,-0.0005158621759101915,-3.837186455887866e-05,8.593840432961484e-22,6.0,0.36689183467914815,9.545396394657784e-22,7.781076219038617e-06,-3.7524041568537373e-06,1.213851967137617,0.0,0.0,0.0,1.0403355185233196,4.623507960417375e-05,0.00010656072379852744,4.080166273794723e-06,563.2762944261402,563.3230379787975,563.3036791971876,563.3221336873315
0.512,2.1605482556290047e-07,6.000000436591865,0.3015470191828245,-0.0003486325137601982,-0.0005590758392069296,-4.046867374757763e-05,8.571409962774884e-22,6.0,0.3711543508730983,9.520482302882418e-22,8.444879696690654e-06,-3.0611649235614185e-06,1.2182743421214612,0.0,0.0,0.0,1.0017968915429176,4.319574150081621e-05,0.00010871798358787689,4.049332459449549e-06,562.2751502668572,562.3217067244477,562.3015521135991,562.3216320113974
0.516,2.0355826614124263e-07,6.0000004580361255,0.3064496808273307,-0.00032407097499265885,-0.0005972896585717877,-4.2432017451785856e-05,8.548940087471863e-22,6.0,0.3754243553160897,9.495524442845454e-22,8.996381844787677e-06,-2.334954778798213e-06,1.2225373609218482,0.0,0.0,0.0,0.9637545690988161,3.940797098729356e-05,0.00010936726981601537,3.982350647832738e-06,561.2855552237336,561.3312302610244,561.3106226276939,561.3321001244868
0.52,1.8917191568767575e-07,6.000000480517044,0.31136826277575164,-0.00029656166278256536,-0.0006295604837433746,-4.424066382671358e-05,8.526432088829329e-22,6.0,0.3797016044289738,9.47052423824899e-22,9.414633613660186e-06,-1.5666598635571268e-06,1.226639980711092,0.0,0.0,0.0,0.926254990014024,3.4968332642600986e-05,0.00010854444851467977,3.88522322908101e-06,560.308752243835,560.3528885368692,560.3321811305714,560.3548084083094
0.524,1.7279083959993973e-07,6.000000503947471,0.31630214074829816,-0.0002659345966291072,-0.0006551004864384636,-4.587842438318084e-05,8.503887234615307e-22,6.0,0.38398585729474394,9.445483097235106e-22,9.682269103975828e-06,-7.519444781429633e-07,1.2305821211192274,0.0,0.0,0.0,0.8892543208095851,2.9958354949715125e-05,0.00010631983265450361,3.7629589922702676e-06,559.3436308809338,559.3856146223021,559.3651572198349,559.3886816745633
0.528,1.5433264004682647e-07,6.0000005282305215,0.3212507111312397,-0.00023211206522732528,-0.0006732680288814713,-4.733426916382967e-05,8.481306778711407e-22,6.0,0.3882768756352622,9.42040241252189e-22,9.785638118644734e-06,1.111518152026604e-07,1.2343690455399838,0.0,0.0,0.0,0.8527281628540033,2.4456867369445613e-05,0.00010276358293552711,3.620907236746057e-06,558.3895810447877,558.4288413923066,558.4089814112494,558.4331464224925
0.532,1.3373991035388194e-07,6.0000005532588645,0.32621334382127354,-0.0001951346131060435,-0.0006835724484561998,-4.860087716140555e-05,8.458691961234321e-22,6.0,0.39257442378817137,9.39528356153838e-22,9.71479925371257e-06,1.022283705298806e-06,1.2380016415873585,0.0,0.0,0.0,0.8167472005656267,1.85766146804436e-05,9.795738096561823e-05,3.4629349770648133e-06,557.4484772999493,557.4845006133489,557.4655747207117,557.4901126245433
0.536,1.1098096123623667e-07,6.0000005789155075,0.3311894268135264,-0.00015511931475007553,-0.0006856611527597935,-4.967467589310705e-05,8.4360440086563565e-22,6.0,0.39687826868398923,9.370127906558457e-22,9.463342101674658e-06,1.9789242655795917e-06,1.2414797887100477,0.0,0.0,0.0,0.7812925092067566,1.2406302228069776e-05,9.199551395078334e-05,3.2931072472050146e-06,556.5198530775889,556.5521800150578,556.534510670367,556.5591541637825
