Time_s,X,Y,Z,Roll_deg,Pitch_deg,Yaw_deg,Ref_X,Ref_Y,Ref_Z,Ref_Yaw,vx,vy,vz,p,q,r,T_pert,tau_x,tau_y,tau_z,RPM_0,RPM_1,RPM_2,RPM_3
0.0040000000000000036,1.0221975646044887e-22,-4.0,0.010006999594037988,-7.417734548572634e-19,7.147505149775166e-19,-9.884920825861219e-20,1.96820473696698e-22,-4.0,0.010074639714689831,-3.6950793544352725e-22,2.8463870859018855e-19,-800.0,2.0013999188075973,0.0,0.0,0.0,0.13727673356390743,8.661928940161907e-19,2.677392694381021e-19,9.074014405973438e-20,539.3555031529193,539.3555031529194,539.3555031529193,539.3555031529194
0.007999999999999993,2.008917082915978e-22,-4.0,0.01001099936604295,-5.913424319702663e-19,1.4619567972158598e-18,-9.667959719720586e-20,1.9680638739700902e-22,-4.0,0.01021705724096241,-3.694814900264507e-22,1.6908525933400032e-19,-444.44444444444446,1.112333262893661,0.0,0.0,0.0,0.28307763445396705,-1.2493895042154463e-19,-3.0944210420715402e-18,6.570283338890512e-22,543.2938902409246,543.2938902409246,543.2938902409246,543.2938902409246
0.011999999999999997,4.2285399936353977e-22,-4.0,0.010014999147004025,-1.5811111543524527e-19,2.4990920033296672e-18,-2.993303892225581e-20,1.9678538510297003e-22,-4.0,0.010429397942859043,-3.694420606207381e-22,2.691015351168395e-20,-9.849528835196493e-24,0.000999943864330756,0.0,0.0,0.0,0.42940121619331495,-4.654608452086265e-19,-2.8296758591174914e-18,-7.486721752149892e-20,547.2178991675321,547.2178991675322,547.2178991675321,547.2178991675321
0.016,6.4904489927960335e-22,-4.0,0.010018998946059194,2.6055546661828647e-19,2.8688437773592573e-18,-6.296454035486172e-21,1.9675755056259578e-22,-4.0,0.010710815098006973,-3.6938980445371174e-22,5.148034312797344e-20,-2.801605854933285e-24,0.0009999466343935809,0.0,0.0,0.0,0.5762362185818668,-4.78078518014865e-19,-8.382570262460235e-19,-2.724782883190209e-20,551.1275382973164,551.1275382973165,551.1275382973164,551.1275382973165
0.020000000000000004,6.422822962676918e-22,-4.0,0.010022998767494386,1.5872953344239692e-18,2.0150308150289e-18,2.209101106387207e-20,1.9672296676488579e-22,-4.0,0.0110604696579496,-3.693248773277293e-22,4.497957369603889e-20,8.462173970396769e-24,0.0009999512801435115,0.0,0.0,0.0,0.7235715096159987,-1.567094526092344e-18,3.3233508572341555e-18,-3.376723139360735e-20,555.0228180200033,555.0228180200035,555.0228180200033,555.0228180200033
0.024000000000000007,7.476368854156421e-22,-4.0,0.010026998612537284,3.0231631602250337e-18,2.9000146098948174e-18,2.4218245616694384e-22,1.9668171594594476e-22,-4.0,0.011477530186265229,-3.6924743363167492e-22,2.141251946926288e-20,2.8407349604951886e-23,0.0009999568628812558,0.0,0.0,0.0,0.8713960694935987,-1.785252397353096e-18,-2.476678200151173e-18,2.3752013344776492e-20,558.9037502638403,558.9037502638404,558.9037502638403,558.9037502638404
0.02800000000000001,7.653461637334527e-22,-4.0,0.010030998480727521,3.577462537948308e-18,2.8321234368528076e-18,-1.818172876979055e-19,1.9663387959505699e-22,-4.0,0.011961172797154364,-3.6915762635236243e-22,5.735303985671908e-21,4.885589433782143e-23,0.0009999626885833293,0.0,0.0,0.0,1.0196989904252962,-8.540044088920324e-19,8.093240752482012e-19,2.1180156967318466e-19,562.7703484404891,562.7703484404892,562.7703484404891,562.7703484404892
0.032000000000000015,8.55116284577365e-22,-4.0,0.010034998370715222,3.1738168306989752e-18,3.55384010922863e-18,-2.7765681107561714e-19,1.9657953846071442e-22,-4.0,0.012510581094492133,-3.6905560708585302e-22,1.900166823188169e-20,5.812360081335825e-23,0.0009999683639558277,0.0,0.0,0.0,1.1684694767674415,2.2671479447138073e-19,-1.8966944027395645e-18,1.18560014245349e-19,566.6226274010503,566.6226274010503,566.6226274010503,566.6226274010503
0.03599999999999999,8.4667180471246525e-22,-4.0,0.010038998280666204,3.2754337546606e-18,3.584392370826832e-18,-1.582985189873093e-19,1.965187725565994e-22,-4.0,0.013124946111342442,-3.6894152604868663e-22,4.2465052863934186e-21,5.935518444265417e-23,0.000999973686764341,0.0,0.0,0.0,1.317696844819074,-3.3569449771580747e-19,7.846032716261514e-19,-1.288885368521081e-19,570.4606033858053,570.4606033858054,570.4606033858053,570.4606033858054
0.039999999999999994,1.007201084543207e-21,-4.0,0.010042998208610886,3.201138384932473e-18,4.4771127775994745e-18,-4.337042562366252e-19,1.9645166116752172e-22,-4.0,0.013803466249930544,-3.6881553208902846e-22,1.7142385100097695e-20,5.727178289600684e-23,0.0009999785513118212,0.0,0.0,0.0,1.4673705219550788,-1.3722481976057076e-19,-3.2563464797745537e-18,3.2735810356813864e-19,574.2842939595997,574.2842939595998,574.2842939595997,574.2842939595997
0.044,1.0638305185448726e-21,-4.0,0.01004699815261903,3.1161080960995007e-18,4.722180974770016e-18,-1.473610537579496e-19,1.9637828285531093e-22,-4.0,0.014545347222070591,-3.68677772697731e-22,2.1607056725026143e-20,5.60360877842491e-23,0.0009999829309442418,0.0,0.0,0.0,1.6174800460079521,-1.1960881332908018e-19,4.769826782351383e-19,-3.175433575920728e-19,578.0937179565791,578.0937179565792,578.0937179565791,578.0937179565791
0.048,1.0967461462622197e-21,-4.0,0.010050998110894136,3.119338761185107e-18,4.862125166298399e-18,1.579856695710808e-19,1.962987154646639e-22,-4.0,0.015349801990044964,-3.6852839401931196e-22,1.5835858201158148e-20,5.465400151931351e-23,0.0009999868390472497,0.0,0.0,0.0,1.7680150644722112,-2.1685941570258565e-19,-2.6591396643278535e-19,-3.514995465063068e-19,581.8888954231132,581.8888954231132,581.8888954231132,581.8888954231132
0.052000000000000005,1.1194763440923502e-21,-4.0,0.01005499808181794,3.0511791893104786e-18,4.913298933751e-18,3.5810892527339597e-19,1.9621303612894789e-22,-4.0,0.016216050707932004,-3.683675408628493e-22,8.88257820672943e-21,5.392808805637387e-23,0.0009999903103819277,0.0,0.0,0.0,1.9189653336571064,-1.3371564376053399e-19,-3.101895334091024e-19,-2.4111929695834183e-19,585.6698475620979,585.669847562098,585.6698475620979,585.669847562098
0.05600000000000001,1.1207385278122304e-21,-4.0,0.010058998063964734,3.1073681863036837e-18,4.914599559156116e-18,4.648859138804674e-19,1.9612132127595982e-22,-4.0,0.01714332066337891,-3.681953567127931e-22,2.541385888015218e-21,5.401111384812667e-23,0.0009999933895273733,0.0,0.0,0.0,2.07032071780827,-2.742605828637187e-19,-1.1580892275675673e-19,-1.4029266419200557e-19,589.4365966790535,589.4365966790537,589.4365966790535,589.4365966790535
0.06000000000000001,1.119807098243696e-21,-4.0,0.010062998056098164,3.1915538438299733e-18,4.903168862943436e-18,3.8497036829705143e-19,1.960236466336417e-22,-4.0,0.018130846219816574,-3.6801198373969592e-22,-2.152122960782436e-22,5.454827536718566e-23,0.000999996123918559,0.0,0.0,0.0,2.222071188212076,-3.1079552726074887e-19,-3.0790417700943046e-19,7.34102846276193e-20,593.1891661302518,593.1891661302519,593.1891661302518,593.1891661302518
0.06400000000000002,1.0602088326626088e-21,-4.0,0.010067364130738367,-4.0458921463375096e-17,1.0007803614698641e-17,1.1397162434084754e-18,1.9592008723575256e-22,-4.0,0.01917786875911307,-3.678175628108613e-22,-6.302672874267893e-21,-6.73442222214024e-23,0.0010366059178149728,0.0,0.0,0.0,2.3734638699608674,5.0753828111264964e-17,-5.621462152930226e-18,-8.983234792831213e-19,596.9093806681733,596.9093806681734,596.9093806681733,596.9093806681734
0.06799999999999999,7.353407525624442e-22,-4.0,0.010075942561093586,-3.163991651578722e-16,4.201961637819995e-17,5.360587997977764e-19,1.9581071742749762e-22,-4.0,0.020283636624662676,-3.6761223350091147e-22,-3.887296855847024e-20,-3.268457585561096e-21,0.0014944502250311895,0.0,0.0,0.0,2.517414150364429,3.2499103905221507e-16,-3.4934211833395594e-17,6.575152942436263e-19,600.425332928952,600.4253329289522,600.4253329289521,600.4253329289521
0.072,7.427830814684052e-22,-4.0,0.010093901663739493,-8.145136058346579e-16,5.0769306591429186e-17,1.3335625968224976e-18,1.9569561087111433e-22,-4.0,0.021447405064907207,-3.67396134102275e-22,-3.988967679987012e-20,-2.330484988369501e-20,0.0028903608177406268,0.0,0.0,0.0,2.6511065778630662,6.033004949390933e-16,-1.6699833732192462e-17,-9.544732791123376e-19,603.6723988010152,603.6723988010156,603.6723988010154,603.6723988010153
0.076,1.0982378724463029e-21,-4.0,0.010125924852812907,-1.536512936962953e-15,3.995290012274081e-17,1.891410074368491e-18,1.9557484055141629e-22,-4.0,0.022668436177286467,-3.6716940163559453e-22,1.452144342003604e-20,-9.38880543788547e-20,0.0055133137439277585,0.0,0.0,0.0,2.775350865040877,8.988003816256732e-16,5.091290781066646e-18,-7.072636532829746e-19,606.6744122039247,606.674412203925,606.674412203925,606.6744122039248
0.08,1.6464340305425673e-21,-4.0,0.010176262866832394,-2.50443749290644e-15,2.323349764697755e-17,1.4659106387298658e-18,1.9544847878129476e-22,-4.0,0.02394599885261479,-3.669321718600553e-22,8.949473612011177e-20,-2.741980079633233e-19,0.009281673008809319,0.0,0.0,0.0,2.8908662709972197,1.2353472606687236e-15,1.4241406342872598e-17,4.185352612875798e-19,609.4522515591519,609.4522515591524,609.4522515591523,609.4522515591519
0.084,2.219804486570405e-21,-4.0,0.010248778497734812,-3.742145029860863e-15,1.2418812494818946e-17,8.109607469874569e-19,1.9531659720717858e-22,-4.0,0.02527936871988048,-3.666845792836356e-22,1.2845050255902464e-19,-6.508696448899216e-19,0.014089849836079577,0.0,0.0,0.0,2.9982951541548415,1.6165705647657385e-15,1.0276977267060751e-17,7.040433047807032e-19,612.0243166139369,612.0243166139375,612.0243166139373,612.0243166139369
0.08800000000000001,2.6775858688985965e-21,-4.0,0.010346986772891892,-5.260582753985009e-15,1.7470004257834033e-17,-3.9623632405776786e-19,1.9517926681445233e-22,-4.0,0.02666782809146507,-3.6642675717327876e-22,1.2616783266760808e-19,-1.337474268931678e-18,0.019843227475067372,0.0,0.0,0.0,3.0982107752897337,2.0290256763457274e-15,-5.8969312050155385e-18,1.3760509543186105e-18,614.4068349286246,614.4068349286252,614.4068349286251,614.4068349286246
0.09200000000000001,3.1015197108070703e-21,-4.0,0.010474077240901847,-7.052297250915646e-15,3.0642181328962196e-17,-3.5622967982035825e-18,1.9503655793283348e-22,-4.0,0.02811066590877935,-3.661588375649879e-22,1.0744760370235872e-19,-2.46972058412557e-18,0.02645561452141072,0.0,0.0,0.0,3.191152337789654,2.451974190636834e-15,-1.6586867875463e-17,3.713885842782939e-18,616.6147904252063,616.6147904252069,616.6147904252069,616.6147904252063
0.09600000000000002,3.694029518839511e-21,-4.0,0.010632924391205993,-9.107602694670697e-15,3.6081569591798686e-17,-7.513134450812056e-18,1.9488854024170846e-22,-4.0,0.029607177688313144,-3.6588095127384424e-22,1.0556473214396904e-19,-4.19766055248756e-18,0.033846043640769,0.0,0.0,0.0,3.277648360249088,2.882299566115051e-15,-1.0792908125692747e-17,4.760639612677918e-18,618.6625439980811,618.662543998082,618.6625439980819,618.6625439980812
0.10000000000000002,4.381925673948795e-21,-4.0,0.010826206613475714,-1.1427491691334057e-14,4.337257319804657e-17,-1.0650689643682338e-17,1.9473528277542825e-22,-4.0,0.031156665468095753,-3.655932279039484e-22,1.2504168285056676e-19,-6.6824221287273256e-18,0.04194686818717874,0.0,0.0,0.0,3.3579960614651885,3.3318090140897474e-15,-1.2619955327875869e-17,3.972832515335274e-18,620.5586850442721,620.5586850442731,620.558685044273,620.5586850442721
0.104,5.224403774594954e-21,-4.0,0.011056367493579838,-1.3989301633165682e-14,4.918522337195267e-17,-1.637132272509462e-17,1.945768539285635e-22,-4.0,0.03275843775456411,-3.652957958582868e-22,1.4500803610589402e-19,-1.0095702336878665e-17,0.05070089904488928,0.0,0.0,0.0,3.4325775486213566,3.772947451793884e-15,-1.216810108027431e-17,7.119115390364554e-18,622.3135777602579,622.313577760259,622.3135777602589,622.3135777602579
0.108,6.271222203639859e-21,-4.0,0.01132561595284743,-1.676933484180179e-14,5.0932882501515563e-17,-2.1883884311359766e-17,1.9441332146111968e-22,-4.0,0.034411809469835686,-3.649887823485222e-22,1.7461348555671304e-19,-1.4603314831361676e-17,0.06005133170502649,0.0,0.0,0.0,3.5017822181001144,4.202956470851642e-15,-8.535318950150879e-18,7.110963925901259e-18,623.9375397740577,623.9375397740589,623.9375397740589,623.9375397740578
0.112,7.509866774266644e-21,-4.0,0.011636019443639518,-1.9690658394189933e-14,5.083249879896143e-17,-2.994864306478508e-17,1.942447525037126e-22,-4.0,0.03611610189938309,-3.6467231340471028e-22,2.1186525613198096e-19,-2.0344760319613594e-17,0.06994831889012565,0.0,0.0,0.0,3.5658178918382273,4.558051047950113e-15,-6.5310250667003515e-18,1.0318698668822842e-17,625.4364497546327,625.436449754634,625.436449754634,625.4364497546328
0.116,-4.532054131510434e-11,-3.99999999995468,0.011989491435932002,4.431908224765902e-06,4.431958431275242e-06,1.2947471680854015e-06,1.9407121356270425e-22,-4.0,0.03787064264010755,-3.643465138849415e-22,-5.715984897563372e-09,5.715940016898809e-09,0.08035188235262639,0.0,0.0,0.0,3.6249223842536678,-4.647169297739052e-06,-4.647223833662757e-06,-1.5124694305282462e-06,626.820235449355,626.8176802269917,626.8145472723699,626.8145472573768
0.12000000000000001,-1.878760722514569e-10,-3.9999999998121303,0.0123877948903786,1.9424921420276713e-05,1.942559078171356e-05,3.0259671491130807e-06,1.9389277052529976e-22,-4.0,0.03967476554880828,-3.640115074849101e-22,-2.9149913190851834e-08,2.9149010653761683e-08,0.09122441511235298,0.0,0.0,0.0,3.67933145612021,-1.6639869118433317e-05,-1.664052938116699e-05,-2.075505180559605e-06,628.0923044710652,628.0831734785462,628.0816988341708,628.0816986530158
0.12400000000000001,-3.630073035426652e-10,-3.9999999996370152,0.012832541896999871,4.3009514803109024e-05,4.301201982959145e-05,5.080372567100089e-06,1.937094886646052e-22,-4.0,0.04152781069104484,-3.636674167474096e-22,-7.19798199189781e-08,7.197596702204992e-08,0.10252851924665111,0.0,0.0,0.0,3.729286485558129,-2.8369307424249488e-05,-2.8371372927316364e-05,-2.524126339613923e-06,629.2580724776323,629.2425335555076,629.2429710621954,629.2429704965331
0.128,-4.746844236816365e-10,-3.9999999995253646,0.0133252208999539,7.338935323853288e-05,7.339542099124878e-05,7.369872175282813e-06,1.9352143264464707e-22,-4.0,0.04342912429038968,-3.633143630717562e-22,-1.2216606816063143e-07,1.2215592950145098e-07,0.11422846460418692,0.0,0.0,0.0,3.7749784929374037,-3.9007391244540625e-05,-3.901158995160346e-05,-2.8831140266332616e-06,630.3223701380841,630.3010399498868,630.3033447030673,630.3033435551364
0.132,-4.012055754602786e-10,-3.9999999995988724,0.013867186886655277,0.00010890193720528272,0.0001089136687404726,9.815440008742536e-06,1.9332866652535323e-22,-4.0,0.04537805867806793,-3.629524667231401e-22,-1.7175839316936042e-07,1.717380941589625e-07,0.12629215874403527,0.0,0.0,0.0,3.8166224371435353,-4.854807810965e-05,-4.855505427872284e-05,-3.1594406142376185e-06,631.2906981175735,631.2641909848863,631.2682973038952,631.2682953995188
0.136,-6.930771073425677e-13,-3.9999999999994,0.014459690682672608,0.00014798686255366084,0.00014800659600928276,1.2352078794693304e-05,1.93131253767496e-22,-4.0,0.047373972242981614,-3.625818468419053e-22,-2.1553997113292603e-07,2.1550552289874382e-07,0.138688732894262,0.0,0.0,0.0,3.854378162247853,-5.695532837479619e-05,-5.696561191470651e-05,-3.3662487727708486e-06,632.1672038632043,632.1361488261633,632.1419442491076,632.1419414457545
0.14,8.828366906696556e-10,-4.000000000882905,0.01510385938070225,0.00018922318235840778,0.0001892533675657158,1.4923655237599583e-05,1.9292925723759742e-22,-4.0,0.0494162293821156,-3.6220262145275906e-22,-2.4873020986028864e-07,2.486778464787107e-07,0.15138984392843738,0.0,0.0,0.0,3.888448637447084,-6.423268720507047e-05,-6.42466896048339e-05,-3.5112240321413498e-06,632.9569698132781,632.9219897154079,632.9293416544193,632.9293378420318
0.14400000000000002,2.4145300075771667e-09,-4.000000002414497,0.01580072687956769,0.0002312969040893026,0.0002313399773103018,1.7482818629551025e-05,1.9272273921279706e-22,-4.0,0.05150420045132223,-3.6181490747391025e-22,-2.669847124298292e-07,2.6691111609564063e-07,0.16436780125159217,0.0,0.0,0.0,3.9189788815456392,-7.036350059375672e-05,-7.038153225052462e-05,-3.6023208297350843e-06,633.663673661009,633.6253967248642,633.6341461665171,633.6341412625579
0.14800000000000002,4.763694109402629e-09,-4.000000004763437,0.016551239982943194,0.00027300128353064323,0.00027305955035362815,1.9990025651313085e-05,1.9251176138568265e-22,-4.0,0.05363726171648213,-3.614188207261386e-22,-2.663102267647286e-07,2.662129032697668e-07,0.17759897811306763,0.0,0.0,0.0,3.9461045909507164,-7.533416040539541e-05,-7.535636360697863e-05,-3.6467150576669377e-06,634.2907278805717,634.249786603899,634.25975113266,634.2597451001475
0.15200000000000002,8.09922526450319e-09,-4.000000008098562,0.0173562713426804,0.00031322907474787206,0.000313304596265243,2.2412443900463467e-05,1.9229638486908374e-22,-4.0,0.055814795305038314,-3.6101447594179404e-22,-2.4303664223403555e-07,2.429142144210496e-07,0.191062670032716,0.0,0.0,0.0,3.9699380535932196,-7.913016021456638e-05,-7.915659935144015e-05,-3.650622352033165e-06,634.8409598276701,634.7979919274578,634.808968215235,634.8089610380523
0.15600000000000003,1.2585112177387695e-08,-4.0000000125837945,0.01821661640245581,0.00035098120509542837,0.00035107570344279746,2.4723690897616394e-05,1.9207667020082873e-22,-4.0,0.05803618915790085,-3.606019867737277e-22,-1.9381841595699944e-07,1.9367116591197955e-07,0.20473945870308202,0.0,0.0,0.0,3.9906002074526086,-8.175113708382892e-05,-8.17816966533976e-05,-3.620229038768841e-06,635.3173613667112,635.2730026283806,635.284770235978,635.2847619464735
0.16000000000000003,1.837600824752776e-08,-4.000000018373713,0.019132973291048964,0.00038539233716005896,0.0003855071398149033,2.6902533901847386e-05,1.9185267734846553e-22,-4.0,0.06030083698171934,-3.601814658041543e-22,-1.1570188225625692e-07,1.1553195341078066e-07,0.21860849360493048,0.0,0.0,0.0,4.008255341538011,-8.323094141150508e-05,-8.326543301968904e-05,-3.560467477222716e-06,635.723893567289,635.6787598143027,635.6910939682291,635.6910846181108
0.16400000000000003,2.5607664442709114e-08,-4.000000025616926,0.020105976685065002,0.0004150693954367114,0.00041646593735124646,2.918449413384224e-05,1.9162446571394615e-22,-4.0,0.06260813820152067,-3.5975302455344687e-22,-7.148337525314481e-09,4.93637605442122e-09,0.23264919524004965,0.0,0.0,0.0,4.0230022046196705,-8.29273029198626e-05,-8.428665397368242e-05,-3.770395010351539e-06,636.0633951787464,636.0180910928257,636.0300920448309,636.0297237430024
0.16800000000000004,3.438545621002074e-08,-4.000000034461283,0.021136204729343494,0.00043710446281576917,0.00044553854765464563,3.150173854721718e-05,1.913920941382753e-22,-4.0,0.06495749791370913,-3.5931677348886397e-22,1.2792253552111831e-07,-1.4641557639736815e-07,0.2468452178846201,0.0,0.0,0.0,4.034927605107319,-7.903334869771399e-05,-8.669614258927719e-05,-3.905317144074307e-06,636.3374791253375,636.2925965886076,636.3048573216772,636.3027820622342
0.17200000000000004,4.483178599498053e-08,-4.000000045000899,0.022224180600575592,0.0004512838568664702,0.00047182259228668183,3.374957720771323e-05,1.9115562090612353e-22,-4.0,0.06734832683942643,-3.588728220332105e-22,2.870677761439923e-07,-3.4461849320521206e-07,0.26118236907565806,0.0,0.0,0.0,4.044117061615459,-7.387999998523091e-05,-8.822441931916568e-05,-3.919393762010004e-06,636.5481368830528,636.5042506445151,636.5168806305941,636.5129971230222
0.17600000000000005,5.705988267402928e-08,-4.000000057297361,0.023370364698717207,0.00045765641058535274,0.0004943663037656176,3.5895222789189354e-05,1.9091510375040496e-22,-4.0,0.06978004127826891,-3.5842127857343165e-22,4.7268386629577603e-07,-5.901093452808661e-07,0.2756461243255212,0.0,0.0,0.0,4.050673773639815,-6.796272493540736e-05,-8.846219858861525e-05,-3.892319574799797e-06,636.6979275371382,636.655588913116,636.6683579866749,636.6628094160155
0.18000000000000005,7.116815758103229e-08,-4.000000071381518,0.024575167981737395,0.0004563556550954008,0.0005123533170223369,3.791280664407127e-05,1.9067059985681999e-22,-4.0,0.07225206306235926,-3.579622504691415e-22,6.895903493390208e-07,-8.79990049609675e-07,0.2902223654022426,0.0,0.0,0.0,4.05467595925527,-6.137842873187255e-05,-8.743034767518502e-05,-3.8308303399394975e-06,636.7887157350688,636.748444337238,636.7611088116507,636.7540583853552
0.18400000000000005,8.723679837408057e-08,-4.0000000872538655,0.02583894747135163,0.0004475840610890325,0.0005251037114435672,3.978200309978373e-05,1.904221658683632e-22,-4.0,0.07476381951077028,-3.5749584406108592e-22,9.410114779670519e-07,-1.2119860714464852e-06,0.3048977779537692,0.0,0.0,0.0,4.05621261377312,-5.4196104839038696e-05,-8.518146733427868e-05,-3.7403388788239905e-06,636.8225943885261,636.7848773941278,636.7971923178638,636.7888072209726
0.188,1.0532494110419204e-07,-4.0000001048851255,0.02716200763098878,0.0004316136652221627,0.0005320739662099944,4.148813100969691e-05,1.9016985788979661e-22,-4.0,0.07731474338429795,-3.5702216467954084e-22,1.2295323056988092e-06,-1.5834647023358569e-06,0.3196592259802094,0.0,0.0,0.0,4.05537173471066,-4.649252594391315e-05,-8.178117459110254e-05,-3.6266042528024226e-06,636.8016207244277,636.7669074896515,636.7786290485682,636.7690791317387
0.192,1.254684125311449e-07,-4.000000124216897,0.02854460609137003,0.000408813178506637,0.000532857132670226,4.3020076708718985e-05,1.8991373149208881e-22,-4.0,0.07990427284058148,-3.565413166526458e-22,1.5570354253921053e-06,-1.9913464338551874e-06,0.33449404747301253,0.0,0.0,0.0,4.0522314538083695,-3.838191016422814e-05,-7.730871061345504e-05,-3.4931909893123554e-06,636.7276148989696,636.6963033228625,636.7071987126802,636.6966630386207
0.196,1.476781575092462e-07,-4.000000145163523,0.02998695304964699,0.0003795899426182193,0.0005271636397449443,4.4370147899665805e-05,1.8965384171681978e-22,-4.0,0.08253185138956735,-3.5605340331467404e-22,1.924704000993487e-06,-2.4321372043803507e-06,0.34939028401590344,0.0,0.0,0.0,4.046872693599093,-2.993167388656628e-05,-7.183612421190893e-05,-3.3436394242384223e-06,636.6024411125653,636.5748924030281,636.5847378460811,636.5733940716984
0.2,1.7193902886750881e-07,-4.00000016761356,0.03148921452270298,0.00034439542678093877,0.0005148177337805167,4.5534421574500964e-05,1.8939024308055218e-22,-4.0,0.08519692784931537,-3.555585270142386e-22,2.333048741912178e-06,-2.902040095720824e-06,0.3643364129087406,0.0,0.0,0.0,4.0393713639606,-2.1215000684106135e-05,-6.544200817406237e-05,-3.1820368128663532e-06,636.4278396689218,636.4043751142578,636.4129559711147,636.400980229606
0.20400000000000001,1.9820863167176072e-07,-4.000000191430913,0.033051509145461976,0.00030378035287087046,0.0004957883781451852,4.6512590153779115e-05,1.8912298957916889e-22,-4.0,0.08789895630214384,-3.550567891224359e-22,2.7818083201364882e-06,-3.3968269331514647e-06,0.37932096065200677,0.0,0.0,0.0,4.029811358395589,-1.2369437941707648e-05,-5.824819232626341e-05,-3.012445456163601e-06,636.2057390161403,636.1866109145043,636.1937333866448,636.1813061016636
0.20800000000000002,2.2641738162355772e-07,-4.000000216457342,0.03467391291059014,0.00025835340231671945,0.0004701624663058829,4.730521202734832e-05,1.8885213469217735e-22,-4.0,0.09063739605111149,-3.5454829004092643e-22,3.269866520056602e-06,-3.911715853595926e-06,0.39433269757687506,0.0,0.0,0.0,4.01826853840628,-3.5078811255629736e-06,-5.036804093388345e-05,-2.8358643129986565e-06,635.9378657873025,635.9232663942622,635.9287639917237,635.9160655796306
0.21200000000000002,2.564692117160935e-07,-4.000000242515368,0.036356467138002224,0.0002087331850048614,0.00043810731175870996,4.7914611698679626e-05,1.8857773138698078e-22,-4.0,0.09341171157683369,-3.540331292099536e-22,3.7953506770587936e-06,-4.4415350645133535e-06,0.4093614897868575,0.0,0.0,0.0,4.0048040269406044,5.302500068774141e-06,-4.1886510584628476e-05,-2.6543794126424967e-06,635.6255918436644,635.6156734095767,635.6193961109045,635.6066023601329
0.21600000000000003,2.8824215514940833e-07,-4.000000269410617,0.03809917864932917,0.0001555567615417877,0.0003998732822422335,4.834551029774196e-05,1.8829983212311665e-22,-4.0,0.09622137249463045,-3.5351140511630082e-22,4.355779958407654e-06,-4.9809465625213684e-06,0.4243984654796787,0.0,0.0,0.0,3.9894797739518477,1.3988168324730879e-05,-3.289600989140617e-05,-2.4708858454154855e-06,635.2703043132368,635.265175286799,635.2669892136938,635.2542710575776
0.22000000000000003,3.2158894234202866e-07,-4.000000296933968,0.03990201256711091,9.951489465953226e-05,0.00035582315612734007,4.86034289963402e-05,1.8801848885646245e-22,-4.0,0.09906585351200384,-3.5298321530118776e-22,4.947945784281932e-06,-5.524316429026715e-06,0.4394342898379321,0.0,0.0,0.0,3.9723735185390394,2.243374188370027e-05,-2.352929211411857e-05,-2.286512051481467e-06,634.8737567598029,634.8734593914103,634.8732628409442,634.8607868312699
0.22400000000000003,3.5633893386165e-07,-4.000000324864794,0.04176490346203089,4.130377115873018e-05,0.00030638635730198766,4.869559497365699e-05,1.8773375304340927e-22,-4.0,0.10194463438644231,-3.524486563681052e-22,5.56792035969149e-06,-6.065724349608317e-06,0.45445987827253065,0.0,0.0,0.0,3.953541780341161,3.056209768102133e-05,-1.3889160269416359e-05,-2.1034776343095794e-06,634.4372020975895,634.4417307784145,634.4394429991615,634.4273690929562
0.22800000000000004,3.922993274632398e-07,-4.000000352973325,0.043687742814047685,-1.8336049153278136e-05,0.00025209923559068264,4.863019943272451e-05,1.8744567564500316e-22,-4.0,0.10485719988354962,-3.5190782399059037e-22,6.210997849040277e-06,-6.598933044273542e-06,0.4694659548372623,0.0,0.0,0.0,3.9330675749707242,3.825800324346374e-05,-4.1229148566925575e-06,-1.923205497431068e-06,633.9625101643816,633.9717887987609,633.96736442699,633.9558443020439
0.23200000000000004,4.292577047003455e-07,-4.000000381023972,0.0456703887188954,-7.865620351589553e-05,0.00019356657942175078,4.841591017653272e-05,1.871543071310547e-22,-4.0,0.10780303973549583,-3.5136081291994207e-22,6.871725915019935e-06,-7.1174495541923085e-06,0.48444318543328313,0.0,0.0,0.0,3.911015665904232,4.543284245465338e-05,5.643393371536706e-06,-1.7465887421167698e-06,633.4511206844347,633.4650154363227,633.4584403482819,633.4476159617049
0.23600000000000004,4.6698455875558863e-07,-4.000000408778413,0.04771266783267063,-0.00013891101704079689,0.0001314497468340443,4.806186567382706e-05,1.8685969748421692e-22,-4.0,0.11078164859978822,-3.508077169928764e-22,7.543964803669389e-06,-7.614598120207995e-06,0.49938301174940775,0.0,0.0,0.0,3.88744800746254,5.2009743846915984e-05,1.529120642844551e-05,-1.5745331082788587e-06,632.9044039794587,632.9227282449917,632.9140175899366,632.9040200332739
0.24000000000000005,5.05236024600491e-07,-4.0000004359986425,0.04981437653310043,-0.00019836557942779677,6.645691137094864e-05,4.75775263645801e-05,1.8656189620403175e-22,-4.0,0.1137925260183595,-3.502486291391238e-22,8.22103465015592e-06,-8.083676317246075e-06,0.5142776458641338,0.0,0.0,0.0,3.8624252720544168,5.79193850873086e-05,2.470521588836178e-05,-1.4077899641577704e-06,632.3236976947435,632.3462147694622,632.3354126501735,632.3263609787123
0.24400000000000005,5.437567989416426e-07,-4.000000462449977,0.051975282049617634,-0.00025630372400078146,-6.669911161719626e-07,4.697254417613881e-05,1.8626095231094547e-22,-4.0,0.11683517637697126,-3.496836413889672e-22,8.895778000247937e-06,-8.518024657977678e-06,0.5291195878314773,0.0,0.0,0.0,3.8360068759391535,6.310053687827178e-05,3.3774331281204657e-05,-1.2469714733953379e-06,631.710307804,631.7367339519344,631.723912810706,631.7159129745423
0.24800000000000005,5.822832054060174e-07,-4.000000487903965,0.054195123562873475,-0.0003120357746817027,-6.915048117473311e-05,4.6256649715297085e-05,1.8595691435029302e-22,-4.0,0.11990910886493011,-3.491128448807225e-22,9.560640177234269e-06,-8.911107668534263e-06,0.5439016183509275,0.0,0.0,0.0,3.808251004705597,6.750082354055315e-05,4.239289426788146e-05,-1.0925658852235053e-06,631.0655094967495,631.0955175540604,631.0807771935072,631.073921078585
0.25200000000000006,6.205463602110882e-07,-4.0000005121411935,0.05647361327556974,-0.00036490596570744934,-0.0001382058205131483,4.543955535570072e-05,1.8564983039625178e-22,-4.0,0.12301383743511432,-3.4853632986816103e-22,1.0207758383699112e-05,-9.256600183186296e-06,0.5586167912653076,0.0,0.0,0.0,3.7792146359060554,7.107715311627854e-05,5.046182574321445e-05,-9.449514704698099e-07,630.3905480067469,630.4237714186719,630.4072376757478,630.4016023273492
0.256,6.582754513036176e-07,-4.000000534953927,0.05881044156852088,-0.0004143025105903891,-0.00020704615548042574,4.45303444902418e-05,1.853397480557648e-22,-4.0,0.1261488807643086,-3.47954185727875e-22,1.0829075266473239e-05,-9.548480651135064e-06,0.5732588377129467,0.0,0.0,0.0,3.7489452133569188,7.379999132095534e-05,5.789707258937795e-05,-8.037923014692198e-07,629.6864431142657,629.7224834730571,629.7043063334103,629.699954307607
0.26,6.952010310801421e-07,-4.000000556148575,0.06120528444487825,-0.0004596688816244703,-0.00027490637853725856,4.353857089479192e-05,1.8502671447243363e-22,-4.0,0.1293137622138451,-3.4736650096658626e-22,1.141653410871987e-05,-9.78115929798569e-06,0.5878228020546135,0.0,0.0,0.0,3.7174758383718354,7.565577790107264e-05,6.463615914660099e-05,-6.700108532655684e-07,628.9538782596801,628.9923153431306,628.9726595206054,628.9696403640834
0.264,7.310577564381119e-07,-4.000000575547891,0.06365777709524784,-0.0005004892536627724,-0.00034100695008166594,4.247364971752402e-05,1.8471077633038143e-22,-4.0,0.13250800979054747,-3.4677336322839815e-22,1.1962073422378234e-05,-9.949513350633909e-06,0.60230229267388,0.0,0.0,0.0,3.684893790089936,7.661858383208271e-05,7.05795612742152e-05,-5.438374955666396e-07,628.1948029947765,628.2351809038397,628.2142381779261,628.2125816100558
0.268,7.655877399537002e-07,-4.0000005929930165,0.06616753088345209,-0.0005363056367897807,-0.0004045900780658669,4.134457329108088e-05,1.8439197985808597e-22,-4.0,0.13573115610797692,-3.461748593019921e-22,1.2457645383441997e-05,-1.0048927234862157e-05,0.6166897505420664,0.0,0.0,0.0,3.651253244820139,7.668518426084369e-05,7.565959602314127e-05,-4.251649292550011e-07,627.4103933040868,627.4522351825302,627.4302168047312,627.4299351237772
0.272,7.985436011439344e-07,-4.0000006083452675,0.06873413563491376,-0.0005667234279283535,-0.000464930985864429,4.016000755527034e-05,1.8407037083218316e-22,-4.0,0.13898273834797734,-3.4557107512776803e-22,1.2895338533699577e-05,-1.0075375803590914e-05,0.6309787293463163,0.0,0.0,0.0,3.6166045626156045,7.586387576962933e-05,7.982388165172614e-05,-3.1398113000233446e-07,626.6017352854335,626.6445504696612,626.6216828311034,626.6227718610434
0.276,8.297041818549669e-07,-4.000000621500483,0.07135716172218805,-0.000592667160608023,-0.000522598390023916,3.842668934358156e-05,1.8374599458124122e-22,-4.0,0.14226229822251724,-3.4496209580493005e-22,1.3270810808102521e-05,-1.0028760039300518e-05,0.6451640215543589,0.0,0.0,0.0,3.5809946254958405,7.548563647161827e-05,8.434399961669763e-05,3.756906169688885e-07,625.768616247591,625.8126289508999,625.7905006742681,625.7929400205279
0.28,8.588936852652372e-07,-4.000000632406691,0.07403616283307961,-0.0006183376394455753,-0.0005814167265409144,3.6264366721138615e-05,1.8341889598950567e-22,-4.0,0.14556938193582664,-3.4434800559851715e-22,1.3601551520192226e-05,-9.931122454509688e-06,0.6592409472009513,0.0,0.0,0.0,3.5444653851237273,7.920616346917112e-05,9.281816903537571e-05,9.480112306566186e-07,624.9119374911446,624.9593730872108,624.9365518439884,624.9403053288755
0.28400000000000003,8.858845373353996e-07,-4.000000640965448,0.07677066860698353,-0.0006428506353817526,-0.0006401098275850727,3.387353685927527e-05,1.830891195006153e-22,-4.0,0.14890354014682664,-3.437288879463797e-22,1.3905027973537965e-05,-9.804740973443383e-06,0.6732045324625755,0.0,0.0,0.0,3.507074336639686,8.248178472242937e-05,0.00010064796495019255,1.3037357452653772e-06,624.0343568488557,624.0849256420254,624.0609522587724,624.0659685720166
0.28800000000000003,9.104469522070548e-07,-4.000000647079766,0.07956019555205293,-0.0006650787984084911,-0.0006971516330635349,3.1314501038940885e-05,1.8275670912128962e-22,-4.0,0.15226432793184935,-3.4310482546610176e-22,1.4179915788509971e-05,-9.65329102926889e-06,0.6870501194202263,0.0,0.0,0.0,3.468857651672055,8.44493033358337e-05,0.00010692200887804537,1.5984020708713546e-06,623.1366520529027,623.189572667797,623.1646941850354,623.1709085984354
0.29200000000000004,9.323589047753085e-07,-4.00000065066242,0.08240425654218404,-0.0006840510137521335,-0.0007511767726032735,2.863990715089042e-05,1.8242170842498748e-22,-4.0,0.15565130474764624,-3.4247589996187043e-22,1.4407149903627808e-05,-9.462776218053865e-06,0.7007748749342888,0.0,0.0,0.0,3.4298327120652576,8.511709270361335e-05,0.00011161160797643307,1.8384744128079985e-06,622.2191377978984,622.2736200598838,622.2481114420877,622.2554487984967
0.29600000000000004,9.51411296243317e-07,-4.0000006516397475,0.0853023317437168,-0.0006989249084961352,-0.0008009355819964707,2.5894528544652486e-05,1.8208416055553766e-22,-4.0,0.15906403439468267,-3.418421924312912e-22,1.4570155583986666e-05,-9.221756290707235e-06,0.7143748049639129,0.0,0.0,0.0,3.390076085589075,8.451773210111804e-05,0.0001146942132643982,2.0309895886143196e-06,621.2835166517243,621.3387696714551,621.3129340644318,621.3213036713341
0.30000000000000004,9.67412640758254e-07,-4.000000649954521,0.08825390434649705,-0.0007089953513977372,-0.0008453312723976391,2.3116733712737502e-05,1.8174410823074123e-22,-4.0,0.16250208498071644,-3.4120378307215144e-22,1.4654094939245004e-05,-8.920525478898045e-06,0.7278462673969305,0.0,0.0,0.0,3.349592930790826,8.271000572280176e-05,0.00011619977335695418,2.181590946276005e-06,620.3298076415964,620.3850616676668,620.3592118688426,620.368514706174
0.30400000000000005,9.80193302761979e-07,-4.000000645568751,0.09125844066026087,-0.0007136859758237659,-0.0008834022998194772,2.0339619144985772e-05,1.8140159374594606e-22,-4.0,0.1659650288846585,-3.4056075128913072e-22,1.4645910201010421e-05,-8.551090001932497e-06,0.7411866809359665,0.0,0.0,0.0,3.308428768851447,7.975049020883525e-05,0.00011614928913158295,2.2948614848018644e-06,619.3589843560246,619.4134875785915,619.3879455520384,619.3980723125301
0.30800000000000005,9.896091143872578e-07,-4.0000006384658064,0.09431538952141026,-0.0007125464481368839,-0.0009143234757231262,1.759132772993301e-05,1.8105665897759356e-22,-4.0,0.16945244272071341,-3.399131757004599e-22,1.4534416643987564e-05,-8.107187707014612e-06,0.7543926207872645,0.0,0.0,0.0,3.2666309268270126,7.570678474856024e-05,0.00011457781082249385,2.3752287454517647e-06,618.372064459969,618.4250899797588,618.4001825951049,618.4110144386077
0.31200000000000006,9.955445317751712e-07,-4.00000062865211,0.09742417752738011,-0.0007052531744852463,-0.0009374093211913794,1.4895889545079651e-05,1.807093453867381e-22,-4.0,0.1729639073027977,-3.3926113414452785e-22,1.4310290361818899e-05,-7.584274759416341e-06,0.7674591932729851,0.0,0.0,0.0,3.2242570240389035,7.065893079006904e-05,0.0001115357592519111,2.4263415043070437e-06,617.370311853699,617.4211654735916,617.3972180009071,617.4086272824223
0.31600000000000006,9.979154113749477e-07,-4.000000616158512,0.10058419483163386,-0.0006916156509808769,-0.000952119855209353,1.2273221485338134e-05,1.80359694022539e-22,-4.0,0.1764990076092341,-3.386047036864378e-22,1.3966169201821233e-05,-6.979595341692358e-06,0.780379671757765,0.0,0.0,0.0,3.1813942808853133,6.470518517261328e-05,0.00010709140245852825,2.452017856737349e-06,616.3556944786045,616.4037248543237,616.3810565344531,616.3929066064001
0.32,9.966704959583284e-07,-4.000000601040431,0.10379482027219286,-0.000671561388191689,-0.0009580599268073119,9.739554585901715e-06,1.800077455257255e-22,-4.0,0.18005733274771926,-3.3794396062451215e-22,1.3496738012538274e-05,-6.29218828916981e-06,0.7931478854949278,0.0,0.0,0.0,3.13808014321545,5.7948255296995005e-05,0.00010133460568828025,2.455745617942231e-06,615.3290063919568,615.3736126408376,615.3525296036202,615.3646795574109
0.324,9.91792665877458e-07,-4.000000583377904,0.10705542367166636,-0.0006451295835935794,-0.0009549771248760808,7.3079657181201445e-06,1.796535401320348e-22,-4.0,0.18363847592056373,-3.372789804967471e-22,1.2898775257994446e-05,-5.52281876569736e-06,0.8057602529042146,0.0,0.0,0.0,3.094347811581744,5.04922422558929e-05,9.436387790936419e-05,2.440542851522326e-06,614.2909444536272,614.3315792564179,614.3123706375942,614.3246772918567
0.328,9.832996538924541e-07,-4.000000563275242,0.11036536616309942,-0.0006124649303661582,-0.0009427586214248906,4.988755968697328e-06,1.7929711767562365e-22,-4.0,0.18724203439020093,-3.3660983808721733e-22,1.2171157511560563e-05,-4.673877178703842e-06,0.8182145432627841,0.0,0.0,0.0,3.050230174043976,4.24459818651107e-05,8.62886793044202e-05,2.4091151344599935e-06,613.2422003930341,613.2783747180757,613.2613085608399,613.273628175488
0.332,9.712439772202608e-07,-4.000000540860085,0.11372400895230468,-0.0005738015476552403,-0.0009214176944922353,2.789955371791323e-06,1.789385175924531e-22,-4.0,0.19086760944496445,-3.359366074324308e-22,1.1314816434853633e-05,-3.749282722060753e-06,0.830509447865723,0.0,0.0,0.0,3.0057426732952397,3.391371404501486e-05,7.722046049544612e-05,2.3636924194813574e-06,612.183054480793,612.2143372371767,612.1996583770223,612.2118484957398
0.336,9.557118087928365e-07,-4.000000516281693,0.11713074273714005,-0.0005294236920105944,-0.0008910565236671114,7.173211914323819e-07,1.7857777892364728e-22,-4.0,0.19451480636513077,-3.3525936182763414e-22,1.0332455185130052e-05,-2.754152702514782e-06,0.8426474930785626,0.0,0.0,0.0,2.9608411031856368,2.4969492198555053e-05,6.72479211179351e-05,2.306599922445611e-06,611.1123684727903,611.1383720087537,611.1263086057298,611.1382301745118
0.34,9.368246417120938e-07,-4.000000489711475,0.12058490232414627,-0.00047975203865794215,-0.0008519542674094009,-1.2253786728955689e-06,1.7821494031882587e-22,-4.0,0.19818323438922597,-3.3457817383306924e-22,9.22870832325184e-06,-1.6949210182580717e-06,0.8546264672251566,0.0,0.0,0.0,2.915653664072085,1.5766566441798155e-05,5.6536739765174914e-05,2.2399251239330234e-06,610.03310636368,610.0535306677006,610.0442717394963,610.0557884086156
0.34400000000000003,9.147368489135199e-07,-4.00000046134035,0.12408580826259692,-0.00042529026337263895,-0.0008045147348092052,-3.035920144221137e-06,1.7785004003941085e-22,-4.0,0.201872506680594,-3.338931152801811e-22,8.010338094553748e-06,-5.795033175486832e-07,0.8664402886596998,0.0,0.0,0.0,2.870225900484069,6.441417677762522e-06,4.5249689276462695e-05,2.1653167306848848e-06,608.9462713747387,608.960899255967,608.9545938481256,608.9655759446998
0.34800000000000003,8.896334513034882e-07,-4.0000004313763435,0.12763278239045558,-0.00036659881034744295,-0.0007492391523606674,-4.713212630547443e-06,1.7748311596190739e-22,-4.0,0.20558224029422512,-3.3320425727777757e-22,6.686193409433878e-06,5.827642779516205e-07,0.8780845726841155,0.0,0.0,0.0,2.8245723196411836,-2.8951774942283793e-06,3.352552524001587e-05,2.084007504631788e-06,607.8521346420437,607.8608182591139,607.857580704376,607.8679057642828
0.35200000000000004,8.617276708382856e-07,-4.000000400042121,0.13122515814202274,-0.00030427324505616235,-0.0006867020812966693,-6.257688188823608e-06,1.7711420558115932e-22,-4.0,0.20931205614384207,-3.325116702181409e-22,5.266588047468298e-06,1.781732902759061e-06,0.8895603457264428,0.0,0.0,0.0,2.778686526584804,-1.2151301059463945e-05,2.1485585923533408e-05,1.9977313573020304e-06,606.7504696543176,606.7531207155888,606.753036841739,606.7625900710623
0.35600000000000004,8.31259739012083e-07,-4.000000367573428,0.13486223772709968,-0.00023898808771153927,-0.0006176060626060111,-7.670855587832275e-06,1.7674334601357932e-22,-4.0,0.21306157896924244,-3.31815423783092e-22,3.763360518687762e-06,3.0064247867059965e-06,0.9008660346782547,0.0,0.0,0.0,2.732648720152573,-2.1190116200294692e-05,9.307144134839437e-06,1.907763800026111e-06,605.6431249968047,605.6397438869511,605.6428535098344,605.6515309355295
0.36000000000000004,7.984933106382087e-07,-4.000000334215944,0.13854331761728023,-0.00017145597063750932,-0.0005427334529718159,-8.955026047694148e-06,1.763705740003538e-22,-4.0,0.21683043730389512,-3.311155869500075e-22,2.1899151340120122e-06,4.245024946628055e-06,0.9119979151214382,0.0,0.0,0.0,2.6864884272205316,-2.9897484551540038e-05,-2.8514050093680267e-06,1.815104177759778e-06,604.5307432964408,604.5214079309706,604.5277090380898,604.5354186962878
0.36400000000000005,7.637120931736333e-07,-4.0000003002223865,0.14226769754556828,-0.0001024076728745956,-0.0004629216696457059,-1.0112907629260228e-05,1.7599592591062296e-22,-4.0,0.220618263442789,-3.304122279977898e-22,5.61021192309511e-07,5.48506264289055e-06,0.9229543684723616,0.0,0.0,0.0,2.640217149731373,-3.8180316978185904e-05,-1.485490015825084e-05,1.720310969363954e-06,603.4135419804843,603.3983957509527,603.407849484317,603.4145108894168
0.36800000000000005,7.27216281712651e-07,-4.000000265849564,0.14603469098972838,-3.257053650626324e-05,-0.0003790352439562079,-1.1148225578690481e-05,1.7561943774463611e-22,-4.0,0.22442469341053226,-3.297054145127908e-22,-1.10779946669346e-06,6.7139093945364355e-06,0.9337369238710487,0.0,0.0,0.0,2.5938250660260525,-4.596663818892849e-05,-2.6592203219387782e-05,1.6246836098198436e-06,602.2912276129348,602.2704669569805,602.2830064650872,602.2885498651458
0.37200000000000005,6.893202483672431e-07,-4.000000231356206,0.14984358163021866,3.7291385454053684e-05,-0.0002920235099722413,-1.2065261295792485e-05,1.752411451368823e-22,-4.0,0.2282493669296998,-3.289952133946893e-22,-2.800241707852277e-06,7.918785303839682e-06,0.9443444701672746,0.0,0.0,0.0,2.547390341567902,-5.314449421656481e-05,-3.789479771088454e-05,1.5290247451273842e-06,601.1656313802916,601.1395341788088,601.1550463951372,601.1594178189031
0.37600000000000006,6.503482564248155e-07,-4.00000019699975,0.1536936492359317,0.00010641606292887398,-0.00020286781998763988,-1.2868606456216577e-05,1.7486108335919662e-22,-4.0,0.23209192738942785,-3.282816908623228e-22,-4.499203450647383e-06,9.086771548822921e-06,0.9547737055526886,0.0,0.0,0.0,2.500939611748833,-5.945185121398917e-05,-4.824100687993712e-05,1.4347149487271714e-06,600.0372692513449,600.0063399824139,600.0245656061464,600.0277853247022
0.38000000000000006,6.10630525212717e-07,-4.000000163033433,0.15758418095902696,0.00017406278169812336,-0.00011255349655077666,-1.356259326938628e-05,1.7447928732384223e-22,-4.0,0.23595202181425315,-3.275649124594737e-22,-6.187033558745976e-06,1.0205000787390525e-05,0.9650236805863314,0.0,0.0,0.0,2.4544767687053954,-6.505407382379403e-05,-5.7960382665090696e-05,1.3408534419483975e-06,598.9062931962866,598.8708967310928,598.8916670996167,598.8937082408246
0.384,5.704990153117341e-07,-4.00000012970342,0.16151450212873975,0.0002395481570245606,-2.2012348675009166e-05,-1.4152279470088016e-05,1.7409579158656844e-22,-4.0,0.23982930083319517,-3.2684494306061022e-22,-7.846385426696302e-06,1.1261235507733486e-05,0.9750988727476113,0.0,0.0,0.0,2.4079430272491913,-6.993370914525049e-05,-6.70100818440093e-05,1.24845801294907e-06,597.7712401661164,597.7317606831973,597.7548970206778,597.7557398669
0.388,5.302853045697302e-07,-4.000000097246806,0.16548389267171795,0.0003021843613761985,6.777572332442337e-05,-1.4642944298667385e-05,1.737106303496448e-22,-4.0,0.24372341864907995,-3.2612184687658294e-22,-9.460198899352494e-06,1.2243877619264128e-05,0.9849993734955189,0.0,0.0,0.0,2.361448065410817,-7.401244430651231e-05,-7.525256951113076e-05,1.1579878205584559e-06,596.6347430101195,596.591629343188,596.6169134627822,596.616555267478
0.392,4.903162001593139e-07,-4.000000065888927,0.16949164114309645,0.00036132802915639947,0.00015586292874250816,-1.5040123015253547e-05,1.7332383746487166e-22,-4.0,0.24763403300810274,-3.2539568746027643e-22,-1.1011690549337798e-05,1.3141965845541591e-05,0.9947228408927072,0.0,0.0,0.0,2.314993405285757,-7.725834367209103e-05,-8.261188969799963e-05,1.0699518059692453e-06,595.4968144427784,595.450549202521,595.4777412564562,595.4761919891436
0.396,4.509106256485638e-07,-4.000000035841141,0.1735370165327788,0.00041636860342642246,0.00024130946921496272,-1.5349117186082047e-05,1.7293544643656707e-22,-4.0,0.251560805169629,-3.24666527712217e-22,-1.2484246887498226e-05,1.3945132846122045e-05,1.0042659308957533,0.0,0.0,0.0,2.2686375666644207,-7.963165591681703e-05,-8.899664517799943e-05,9.84297746791039e-07,594.3588670057777,594.3099737039837,594.3388057431126,594.3360904046393
0.4,4.1237593683526307e-07,-4.000000007298731,0.17761930444256063,0.00046675480653837395,0.000323232774500833,-1.557553295199912e-05,1.7254549042453042e-22,-4.0,0.2555033998762308,-3.239344298861367e-22,-1.38620373393746e-05,1.4643977986634785e-05,1.0136286255833578,0.0,0.0,0.0,2.222366323734022,-8.112468470327993e-05,-9.43634999458467e-05,9.015929772586337e-07,593.2205416518393,593.1695616148224,593.1997533188079,593.1959074067258
0.404,3.7500506555742975e-07,-3.999999980438938,0.18173776522650564,0.0005119823453779135,0.0004007762265115291,-1.5724980821928474e-05,1.7215400224698294e-22,-4.0,0.2594614853239578,-3.231994555944934e-22,-1.513005113096845e-05,1.5230118795400778e-05,1.0228096050941036,0.0,0.0,0.0,2.1762499281331045,-8.171851518975612e-05,-9.864233801439437e-05,8.220670411005229e-07,592.0835578533205,592.0310615988468,592.0623112366881,592.0573853701015
0.40800000000000003,3.39073405387285e-07,-3.9999999554193635,0.18589165978372024,0.0005516093642224458,0.0004731419254770878,-1.580290329086169e-05,1.7176101438348512e-22,-4.0,0.26343473313284044,-3.2246166581394843e-22,-1.627430890368914e-05,1.569632753514817e-05,1.0318067193152953,0.0,0.0,0.0,2.1303071413589345,-8.141769235755744e-05,-0.00010179690714810487,7.457486836539568e-07,590.9483829171778,590.8949535602624,590.9269471394132,590.9210041409187
0.41200000000000003,3.0483609988991807e-07,-3.999999932376578,0.1900802517724574,0.0005852611861668093,0.0005396001883793453,-1.5814632221802466e-05,1.7136655897783147e-22,-4.0,0.2674228183176237,-3.2172112089080073e-22,-1.7282010818924405e-05,1.6036613370869683e-05,1.0406192272304542,0.0,0.0,0.0,2.084552265371546,-8.023686591575115e-05,-0.0001038073603283531,6.727271622059877e-07,589.8153809548321,589.7616065408205,589.7940227038098,589.7871358534643
0.41600000000000004,2.7252562370641137e-07,-3.999999911424978,0.19430280759015617,0.0006126333943997625,0.0005994962337072252,-1.5765367024092503e-05,1.7097066784092246e-22,-4.0,0.27142541925873015,-3.209778805463787e-22,-1.8141842618882754e-05,1.6246366939563675e-05,1.0492478205401805,0.0,0.0,0.0,2.0389996056162762,-7.8200131328735e-05,-0.00010466667389768499,6.030620722064792e-07,588.6849222512649,588.6313892617744,588.6639028983383,588.6561550261378
0.42000000000000004,2.4234966255589156e-07,-3.9999998926559104,0.1985585964019991,0.0006334941373380075,0.0006522560529271098,-1.566015573484464e-05,1.705733724536141e-22,-4.0,0.27544221767345,-3.202320038823901e-22,-1.884410614982422e-05,1.632241669153284e-05,1.0576931872514552,0.0,0.0,0.0,1.9936633727300894,-7.534064215456065e-05,-0.0001043804773041689,5.3678583324123e-07,587.5573807777813,587.5046677338432,587.5369535879983,587.5284360929024
0.42400000000000004,2.1448938906087453e-07,-3.999999876137167,0.20284689666081707,0.0006476832014947291,0.0006973911705438396,-1.5503629357827572e-05,1.7017470396954509e-22,-4.0,0.27947289858735697,-3.1948354938622957e-22,-1.9380829932701475e-05,1.626306042616045e-05,1.0659566699671867,0.0,0.0,0.0,1.9485445068771947,-7.169849178660545e-05,-0.00010296755115692247,4.7361466729313206e-07,586.432805896174,586.3814773438829,586.4132129209931,586.4040240055072
0.42800000000000005,1.890981213896752e-07,-3.999999861912802,0.2071670062738955,0.0006551089097576204,0.0007345023166124868,-1.530055035021554e-05,1.69774693217942e-22,-4.0,0.28351715030594793,-3.187325749362451e-22,-1.9745857458147134e-05,1.606803281845633e-05,1.074041281882897,0.0,0.0,0.0,1.9036230679775445,-6.73178870399852e-05,-0.00010045908638718027,4.138887141747322e-07,585.3107271283486,585.2613286030837,585.2921998324557,585.2824421003734
0.43200000000000005,1.6629943280257307e-07,-3.9999998500021565,0.21151818707516856,0.0006557716187269119,0.0007632879994355011,-1.5055844540739645e-05,1.693733707064023e-22,-4.0,0.28757466438650475,-3.1797913780696267e-22,-1.9934940759849334e-05,1.5738601713916957e-05,1.0819461492697688,0.0,0.0,0.0,1.8589912393787387,-6.226534684879105e-05,-9.689415114440673e-05,3.579911295286513e-07,584.1934811767958,584.1465303666047,584.1762339891898,584.1660187816824
0.43600000000000005,1.4618694621335238e-07,-3.9999998404007537,0.2158997064882846,0.0006497429748506861,0.0007835390297587515,-1.4773295147427842e-05,1.6897076662365565e-22,-4.0,0.291645135610177,-3.172232946742706e-22,-1.9945815987227026e-05,1.527765994774523e-05,1.0896685871316822,0.0,0.0,0.0,1.814657847239138,-5.66099881305602e-05,-9.232948335880488e-05,3.0478652765258067e-07,583.0813375388915,583.0373178625032,583.0655621082901,583.0550050811489
0.44000000000000006,1.288249487130607e-07,-3.9999998330818514,0.22031089676707427,0.0006371272834379994,0.0007951162314520213,-1.4456984587281277e-05,1.6856691084230352e-22,-4.0,0.29572826195428326,-3.1646510162056258e-22,-1.9778029873382918e-05,1.4689388445166837e-05,1.0972136093100808,0.0,0.0,0.0,1.7705113582909044,-5.038879349239029e-05,-8.681085559912182e-05,2.547771293854261e-07,581.971534609733,581.9309074743384,581.957414202848,581.9466290293965
0.44400000000000006,1.1424619836987039e-07,-3.999999827995023,0.22475104439239713,0.0006181320852853084,0.0007979996985074409,-1.41110313825396e-05,1.681618329215373e-22,-4.0,0.29982374456482985,-3.157046141398407e-22,-1.9433004358944685e-05,1.3979218334746944e-05,1.104584840567549,0.0,0.0,0.0,1.7266626910711262,-4.3689726865179714e-05,-8.041355929581623e-05,2.0817039156012942e-07,580.866901883502,580.830083035206,580.8545954118298,580.8437002314413
0.44800000000000006,1.0245289607625687e-07,-3.999999825067852,0.22921943207557727,0.0005930366066340188,0.0007922677883015483,-1.3739183096543327e-05,1.6775556210983508e-22,-4.0,0.30393128772924555,-3.149418871427785e-22,-1.8914201495458104e-05,1.3154039299644442e-05,1.1117795137419362,0.0,0.0,0.0,1.683139023963296,-3.6605811068573434e-05,-7.323103898693951e-05,1.6470002585224667e-07,579.7681825098354,579.7355345757765,579.7578212670285,579.7469347844507
0.45200000000000007,9.34175650411268e-08,-3.9999998242073955,0.23371535390686585,0.000562175994860017,0.0007780847830847212,-1.3344807239785282e-05,1.6734812734763733e-22,-4.0,0.30805059884933,-3.1417697496174387e-22,-1.8227152882734552e-05,1.2222247241426946e-05,1.118795802822345,0.0,0.0,0.0,1.6399369583936299,-2.9215107605871815e-05,-6.534832359173086e-05,1.2407414963054582e-07,578.6753490388543,578.6471880051809,578.667040836564,578.6562803553738
0.45600000000000007,8.708429438189589e-08,-3.9999998253018596,0.23823813114143383,0.0005259211285550769,0.0007556815555856434,-1.293111582530001e-05,1.6693955727000146e-22,-4.0,0.3121813884144149,-3.1340993135578305e-22,-1.737904985166158e-05,1.119322766211753e-05,1.1256378273680197,0.0,0.0,0.0,1.5970207415791875,-2.157947980559927e-05,-5.683832636257119e-05,8.624782537119532e-08,577.5875499334437,577.5641531882277,577.581384522722,577.5708646943842
0.4600000000000001,8.336906512806637e-08,-3.999999828221425,0.24278708047759706,0.0004847042913184617,0.000725382116863768,-1.2501334280826201e-05,1.665298802092355e-22,-4.0,0.3163233699747358,-3.126408095155649e-22,-1.6378645716719004e-05,1.007723804577471e-05,1.1323087259968445,0.0,0.0,0.0,1.554418180563994,-1.378462096654081e-05,-4.7799530573025863e-05,5.1367270680925775e-08,576.5055462759942,576.4871376153773,576.5015887125023,576.4914210194473
0.4640000000000001,8.216068524849e-08,-3.9999998328195625,0.2473614972190649,0.0004390324411974275,0.0006876200265433259,-1.2058460115657508e-05,1.6611912419751118e-22,-4.0,0.3204762601150138,-3.1186966206828686e-22,-1.5236482441641003e-05,8.885607351374143e-06,1.1388069831090821,0.0,0.0,0.0,1.5121914456975898,-5.942297400256526e-06,-3.836306233577479e-05,1.9297563914495966e-08,575.4309871596026,575.41771878227,575.4292689037611,575.4195596744646
0.4680000000000001,8.332284786309262e-08,-3.9999998389352047,0.2519606694923161,0.0003894679935318741,0.0006429205599627531,-1.1605422361245599e-05,1.6570731696945645e-22,-4.0,0.3246397784282443,-3.110965410825417e-22,-1.3965027756387738e-05,7.630844752237711e-06,1.1451291111508097,0.0,0.0,0.0,1.4703745801833108,1.8419271982219462e-06,-2.8660410540537445e-05,-9.919114535804655e-09,574.3648165420402,574.3567701866305,574.3653376046847,574.3561859811334
0.4720000000000001,8.669638873655328e-08,-3.9999998463949757,0.25658388759949746,0.00033661219371306915,0.000591882240454402,-1.1144662732716523e-05,1.6529448596472746e-22,-4.0,0.32881364748969266,-3.103214980731465e-22,-1.2578530087485797e-05,6.326470954999915e-06,1.1512738255536774,0.0,0.0,0.0,1.428982919010705,9.475528541334478e-06,-1.8811725741451147e-05,-3.673246129302334e-08,573.3075050249865,573.3046987305402,573.3102360717332,573.3017334256217
0.4760000000000001,9.210219325911917e-08,-3.9999998550158264,0.261230469836875,0.00028106932384995684,0.0005351347534155243,-1.0678539763876519e-05,1.648806583305605e-22,-4.0,0.332997592831094,-3.0954458400593335e-22,-1.1092401445031663e-05,4.986466447074854e-06,1.157243501959569,0.0,0.0,0.0,1.387979373280353,1.689834717444201e-05,-8.902474622447264e-06,-6.113991970023144e-08,572.2581759423264,572.2605837551766,572.2630692737724,572.255299818836
0.4800000000000001,9.934295171256218e-08,-3.999999864606751,0.2658997401248276,0.0002234646683561634,0.0004733611492785604,-1.0209235126252217e-05,1.6446586092430364e-22,-4.0,0.33719134291505654,-3.087658493025026e-22,-9.522837931802847e-06,3.624944066237727e-06,1.1630424561272636,0.0,0.0,0.0,1.3473714059054758,2.4037330418861445e-05,9.647490725254768e-07,-8.32516183112503e-08,571.2170909958166,571.2246336093457,571.2240761655997,571.2171156387592
0.4840000000000001,1.0820576637265524e-07,-3.999999874971051,0.270591033906809,0.00016443111289299553,0.0004072809412817437,-9.738672581770005e-06,1.640501203159286e-22,-4.0,0.3413946291096666,-3.079853438449381e-22,-7.886709913991872e-06,2.256056452842946e-06,1.1686733305356052,0.0,0.0,0.0,1.3071543719816543,3.08255533627935e-05,1.069191396161468e-05,-1.0327947199133035e-07,570.1842014925503,570.196749092932,570.1931866736443,570.1871017887901
0.488,1.1846491460117135e-07,-3.999999885908639,0.27530370725001047,0.00010459246690330578,0.0003376283422397701,-9.26872296064564e-06,1.636334627905227e-22,-4.0,0.3456071856632933,-3.07203116980486e-22,-6.2013199511486935e-06,8.938187755901289e-07,1.1741396233360868,0.0,0.0,0.0,1.2673048323940126,3.72124002793053e-05,2.0199718926281084e-05,-1.212064053117617e-07,569.158969515079,569.1763520514329,569.1698470354919,569.1646961412486
0.492,1.29883678787355e-07,-3.9999998972176787,0.28003710404998805,4.459195782197087e-05,0.0002651919634738584,-8.801039248101249e-06,1.6321591435076119e-22,-4.0,0.3498287496795927,-3.0641921752619596e-22,-4.48438807967886e-06,-4.4791464754397585e-07,1.1794430458771947,0.0,0.0,0.0,1.2278652919238415,4.3120069305072945e-05,2.93698176798982e-05,-1.372100305738085e-07,568.1425604998633,568.1645472722088,568.1551978340223,568.1510272676221
0.496,1.4221785089527165e-07,-3.999999908697206,0.28479059311743676,-1.4952184325144376e-05,0.000190752361708962,-8.337127261824398e-06,1.6279750071936018e-22,-4.0,0.35405906109270807,-3.056336937735265e-22,-2.7538435899009824e-06,-1.7555969968644186e-06,1.184585357903609,0.0,0.0,0.0,1.1888034174121804,4.850809850270948e-05,3.813170870436448e-05,-1.5139422764673826e-07,567.1342052706724,567.1605304501626,567.1484564899582,567.1453036602413
0.5,1.5521784918441246e-07,-3.999999920148866,0.2895635410820023,-7.34265842791759e-05,0.00011511271395795717,-7.878438107151079e-06,1.623782473415101e-22,-4.0,0.3582978626426667,-3.0484659349291325e-22,-1.0276604113196296e-06,-3.0161073041548944e-06,1.189568676038455,0.0,0.0,0.0,1.1501411153862424,5.33219519705985e-05,4.639250373124046e-05,-1.6376081217275016e-07,566.1345351114375,566.1648863639435,566.1502368167723,566.1481276177792
0.504,1.6863118316259313e-07,-3.9999999313788126,0.2943552970505871,-0.00013021647885360242,3.911093362322483e-05,-7.426272810168596e-06,1.6195817938728992e-22,-4.0,0.3625448998509707,-3.040579639383016e-22,6.761606344555011e-07,-4.2167893460172525e-06,1.194392120644533,0.0,0.0,0.0,1.111931539533134,5.7496348971231815e-05,5.4037371494519166e-05,-1.7442514876917858e-07,565.1449990340585,565.179007184897,565.1619665720162,565.1609118816083
0.508,1.8220552987836006e-07,-3.9999999421998695,0.299165205643151,-0.00018472625814315596,-3.640935519981022e-05,-6.981843346401325e-06,1.6153732175406243e-22,-4.0,0.3667999209963804,-3.032678518516435e-22,2.3394984327473317e-06,-5.345404797832131e-06,1.199053014294296,0.0,0.0,0.0,1.0742019868746449,6.09847957974742e-05,6.0973332136685756e-05,-1.8343738280610398e-07,564.166379242616,564.2036303334506,564.1844125325806,564.1844090310975
0.512,1.9569167024907522e-07,-3.9999999524334786,0.3039926207935206,-0.00023639431641030693,-0.00011062399983419212,-6.546097695648337e-06,1.6111569906885054e-22,-4.0,0.37106267709088936,-3.0247630346735864e-22,3.94442087963079e-06,-6.390351662781598e-06,1.2035512237167905,0.0,0.0,0.0,1.0369519292524854,6.375963675364495e-05,6.713494646401962e-05,-1.9105559535811815e-07,563.1987335905329,563.2387828369376,563.2176221468673,563.2186548768375
0.516,2.0884651102724872e-07,-3.999999961911549,0.30883693743625384,-0.0002847186778609967,-0.0001827744037186224,-6.119949793800973e-06,1.606933356906947e-22,-4.0,0.3753329218558889,-3.016833645167604e-22,5.473991514885425e-06,-7.341139521597821e-06,1.2078913008706713,0.0,0.0,0.0,1.0001162729307798,6.582450366348012e-05,7.250789766791849e-05,-1.9728002174717523e-07,562.2404274720311,562.2828244846528,562.2599608423769,562.262009214705
0.52,2.2143490128169352e-07,-3.99999997047785,0.3136975354174107,-0.0003292284030189937,-0.00025211121349057695,-5.704206032642351e-06,1.6027025571299188e-22,-4.0,0.37961041169852167,-3.008890802324467e-22,6.912467742452585e-06,-8.188514639290839e-06,1.2120773349749527,0.0,0.0,0.0,0.9637424909600307,6.715699162526952e-05,7.702753840928513e-05,-2.021980912996321e-07,561.2927589575589,561.3370241021047,561.3127183709126,561.3157486661338
0.524,2.332322156819187e-07,-3.9999999779894546,0.3185738056537676,-0.00036950086818216297,-0.0003179290239419297,-5.299536209787458e-06,1.5984648296581582e-22,-4.0,0.38389490568822165,-3.000934953526564e-22,8.245226061735093e-06,-8.924423749801703e-06,1.216110038983188,0.0,0.0,0.0,0.927825486345202,6.775475127061972e-05,8.06593156920473e-05,-2.0593552821587877e-07,560.35565489257,560.4012946582368,560.3758193143146,560.3797876847918
0.528,2.4402657005264764e-07,-3.99999998431795,0.3234651599812817,-0.00040516828255499315,-0.0003795812403526335,-4.906537023756356e-06,1.594220410182191e-22,-4.0,0.3881861655334405,-2.992966541255909e-22,9.458858802826339e-06,-9.542037822251108e-06,1.2199920140556808,0.0,0.0,0.0,0.892339860662412,6.762736540205613e-05,8.339054423411756e-05,-2.085494466457476e-07,559.4285050757708,559.4750224928101,559.4486551363209,559.4535106084819
0.532,2.536207103268883e-07,-3.9999999893506324,0.32837099657146374,-0.0004359130152004108,-0.00043646019538075455,-4.525712453889287e-06,1.589969531805169e-22,-4.0,0.3924839555585575,-2.9849860031370166e-22,1.054138890834404e-05,-1.0035877826328244e-05,1.2237248908474678,0.0,0.0,0.0,0.8573297753209441,6.678141098517604e-05,8.519067711124459e-05,-2.1012284012739257e-07,558.5125190969223,558.5594071795308,558.5324360494677,558.5381158835983
