Time_s,X,Y,Z,Roll_deg,Pitch_deg,Yaw_deg,Ref_X,Ref_Y,Ref_Z,Ref_Yaw,vx,vy,vz,p,q,r,T_pert,tau_x,tau_y,tau_z,RPM_0,RPM_1,RPM_2,RPM_3
0.0519999999999996,1.0600270033145399e-21,-6.0,0.010054998080880893,-3.2471373332060174e-18,3.191728498215666e-18,2.331914191340742e-19,2.3039331761647e-22,-6.0,0.016216050707931907,1.786090570947644e-22,-4.351855242878416e-21,-5.516008028335461e-23,0.0009999902401334332,0.0,0.0,0.0,1.9189653344314324,4.063515038288612e-19,-2.1934775012742088e-19,3.611217521250497e-19,585.6698475814303,585.6698475814304,585.6698475814303,585.6698475814303
0.1039999999999992,3.6385018642531414e-20,-6.0,0.011031484312769953,9.688891003012936e-16,2.2374811029754268e-15,-2.1023968398744035e-17,2.2847211272199083e-22,-6.0,0.032758437754563774,1.7711967103861146e-22,1.4826670552365022e-18,6.5322355097283e-19,0.049768681294807236,0.0,0.0,0.0,3.4410515253766083,-3.1334843255065536e-16,-5.786480589103153e-16,1.3145548472208865e-17,622.5126563540696,622.5126563540693,622.5126563540695,622.5126563540693
0.1559999999999988,1.1305324462466776e-18,-6.0,0.01813739724416355,5.9462383948481755e-15,2.7181755712730794e-15,-2.6448145076426525e-16,2.2553639736358323e-22,-6.0,0.05803618915790014,1.7484380055118419e-22,2.438981305279436e-17,1.944214704125941e-17,0.20363596096781983,0.0,0.0,0.0,4.001923986877773,-8.869798879568478e-16,-4.1223646147339537e-16,3.8546295844435454e-17,635.5505574347112,635.5505574347111,635.5505574347111,635.5505574347113
0.2079999999999984,3.872718223052811e-18,-6.0,0.03454757112938711,9.687929739728835e-15,5.845402452706715e-16,8.413718158145381e-06,2.217501482525811e-22,-6.0,0.09063739605111035,1.7190856618484832e-22,5.642969010401374e-17,6.661015794189123e-17,0.393615394979175,0.0,0.0,0.0,4.027806024973021,-6.372493181933632e-16,1.7081034012563334e-16,-1.3741802032971326e-06,636.1477291866862,636.1477291866863,636.1437806496488,636.1437806496491
0.259999999999998,6.666274236459513e-18,-6.0,0.06105831540776242,7.473080653274422e-15,-5.957736551978267e-15,1.4935553436224478e-05,2.1725834040386783e-22,-6.0,0.12931376221384347,1.6842635770410984e-22,9.236900491594284e-17,7.970586987885368e-17,0.5876438053926674,0.0,0.0,0.0,3.723403577844864,-2.2492023831138606e-16,7.143416026076132e-16,-7.474313443650728e-07,629.1110020431836,629.1110020431838,629.1088303726553,629.1088303726557
0.3119999999999976,1.5596684285538028e-11,-5.999999999984403,0.09727983166943449,1.519847948475618e-06,-1.519839398781821e-06,1.1890635953754477e-05,2.1218888627048163e-22,-6.0,0.17296390730279548,1.644963373714171e-22,4.334930621555085e-09,4.3350039835539356e-09,0.7676421898184294,0.0,0.0,0.0,3.2272789772424773,-1.5930212478874895e-06,1.5930185246610327e-06,6.173208478831078e-07,617.4699841558186,617.4699841550587,617.4713670133038,617.4722561813381
0.36400000000000077,-2.125927982491814e-08,-6.000000021261944,0.14213714167604838,0.00028922120835015076,-0.0002891620697360157,-1.295293229065086e-05,2.0665438982801964e-22,-6.0,0.22061826344278967,1.6020579977549597e-22,3.136895767237997e-06,3.1375782410986908e-06,0.9232068782339328,0.0,0.0,0.0,2.642412180853123,-5.4362376973930295e-05,5.435007385726044e-05,2.3947452345528517e-06,603.4581389864377,603.4581354731173,603.449868750369,603.4809126809274
0.41600000000000037,-1.9169755619407746e-07,-6.000000191729316,0.1941893563971532,0.00015550241414957506,-0.00015556648835544115,-2.3240043492255995e-05,2.0075373255570484e-22,-6.0,0.27142541925873054,1.5563140134002604e-22,-1.0661301001317047e-06,-1.0675681404907406e-06,1.0497077150997303,0.0,0.0,0.0,2.03871152822099,-2.330358035225392e-06,2.3565012159601026e-06,1.095372405113216e-06,588.650232266878,588.650239920216,588.6529514233837,588.6543234794688
0.46799999999999997,-4.373421837400476e-07,-6.000000437365536,0.25187544294473574,-0.00034908588765158495,0.00034889832723234045,-1.8651566621035033e-05,1.9457350675123966e-22,-6.0,0.3246397784282443,1.5084027148006286e-22,-1.0274107267522339e-05,-1.0277108051661626e-05,1.1455968018174523,0.0,0.0,0.0,1.4694908500606179,4.894644765941087e-05,-4.893718191098613e-05,1.1538746095062775e-07,574.3380937854106,574.3380965655251,574.3531468136247,574.3237776250096
0.5199999999999996,-5.082026868257958e-07,-6.00000050814445,0.313634074093517,-0.00043169727908505187,0.0004321550807782345,-1.0031685348582665e-05,1.8818931023874292e-22,-6.0,0.37961041169852133,1.4589101630547092e-22,-8.887695977643347e-06,-8.878520313648409e-06,1.2124614682840795,0.0,0.0,0.0,0.9627699854694229,2.1825023132281794e-05,-2.193876118696134e-05,-2.6116499795106417e-07,561.2896709999683,561.289636080426,561.2955211219868,561.2820848658279
0.5719999999999992,-3.6656031042681565e-07,-6.00000036715665,0.3780513789943214,-3.675272372173616e-05,-2.9426088469995977e-05,-6.803917317204315e-06,1.8166691527173622e-22,-6.0,0.4357709921370154,1.4083462479590475e-22,2.9391769053671826e-06,2.117328434277502e-06,1.2533960946806129,0.0,0.0,0.0,0.5330135937495273,-1.2906378407869572e-05,5.006064197041978e-05,1.1880111589227652e-06,549.9717810196888,549.9834226402263,549.9716854691662,549.9914149113565
0.6239999999999988,-2.4281375413898376e-07,-6.000000189111577,0.4438998083275612,3.958526061320386e-05,-0.0005372499896526482,-1.7225107639240798e-05,1.7506332328597799e-22,-6.0,0.49263071326325203,1.3571528648255038e-22,1.2419554598159764e-05,4.152295488436123e-06,1.2723904185844535,0.0,0.0,0.0,0.18243207920184656,5.55559998763785e-06,6.872861547456383e-05,1.3148172845707786e-06,540.5642472794052,540.5879277045362,540.5704642816816,540.590602497465
0.6759999999999984,-3.503166076281517e-07,-6.000000032450439,0.5101610982075274,4.4061189252606334e-05,-0.00014788518001838954,-1.7216491825388747e-05,1.6842771611040318e-22,-6.0,0.5497660987201589,1.3057112886052412e-22,1.0676015101776649e-06,3.774983725247461e-06,1.2733474689448105,0.0,0.0,0.0,-0.09127325923257379,2.362849972028569e-06,-2.0179773104140084e-05,4.1248349811805763e-07,533.1255168580884,533.119757748176,533.1276948631249,533.1204082458648
0.727999999999998,-5.243293645257504e-07,-5.9999999011164435,0.5760174751966706,9.864538304660672e-05,0.000508108908665193,-1.0643667704295855e-05,1.6180231328983378e-22,-6.0,0.6068136203627762,1.2543488201579229e-22,-1.2635692085534308e-05,4.298464804504266e-06,1.2601462735224935,0.0,0.0,0.0,-0.2958594447784322,-5.449286863569523e-06,-6.459218876536867e-05,-1.1146839799020665e-07,527.4938181555314,527.4709359903079,527.4916516742304,527.4723299990101
0.7799999999999976,-4.868605653372477e-07,-5.999999816236126,0.6408432664599808,0.00012023616382003176,0.00046412319740829044,-3.8378885715736356e-06,1.552231443025285e-22,-6.0,0.6634630491384108,1.2033447727555648e-22,-7.961051748957667e-06,3.810232636711236e-06,1.236293402169948,0.0,0.0,0.0,-0.4413057921972532,-4.516032248090911e-06,-1.2322002485929192e-05,-2.501498564995956e-07,523.4379521610134,523.4324087347237,523.435591850303,523.4330219605545
0.8320000000000007,-2.52026460222117e-07,-5.999999785300777,0.7041819098132519,6.71656663572127e-05,-0.00010965207794510255,6.257158165628878e-07,1.4872074366176641e-22,-6.0,0.7194514699678882,1.1529358607561182e-22,6.250592124741799e-06,1.7984179725214915e-06,1.2048556456804724,0.0,0.0,0.0,-0.5387962634704815,2.3324055626077973e-06,4.4957230979391345e-05,-2.045914778429509e-07,520.6967289711915,520.7123793330916,520.6967826746734,520.7108892509252
0.8840000000000003,-5.5902019165784236e-08,-5.999999785387761,0.7657180233087435,5.2784830928671665e-06,-0.0003702757326492054,2.7144411481687433e-06,1.4232077616686437e-22,-6.0,0.7745578980697335,1.1033210467707372e-22,1.0160332855196928e-05,8.801373687883703e-08,1.1683000233364187,0.0,0.0,0.0,-0.5986251509882005,4.726444559312849e-06,2.992345621938327e-05,-1.1568538912748198e-07,519.0158243600014,519.0273288234171,519.0169862262368,519.0253521470577
0.9359999999999999,-1.1149751990891971e-08,-5.999999789866674,0.825247816268138,-1.7528014622099458e-08,-7.473005638720771e-05,3.273317295064375e-06,1.3604459890921664e-22,-6.0,0.8285984398503754,1.0546658985335756e-22,2.2111760575533e-06,-1.0228084940805263e-07,1.1285718874195199,0.0,0.0,0.0,-0.6300519373774626,5.384730012471363e-07,-2.0610578529644242e-05,-4.527761847970183e-08,518.1386520211224,518.1319762794443,518.1386713795397,518.131637456363
0.9879999999999995,-3.2710578802782348e-09,-5.999999795133686,0.8826539753969888,3.0616061232828554e-05,0.00023875560332727036,3.125819531466033e-06,1.299097660375914e-22,-6.0,0.8814219466613624,1.0071065020210867e-22,-3.623006355025804e-06,3.732309172770165e-07,1.0871468734861076,0.0,0.0,0.0,-0.6409430999581001,-3.2363571078335943e-06,-3.190847194592083e-05,-6.455100131977698e-09,517.8336424244211,517.8219467340542,517.8325426369444,517.8230009717523
1.0399999999999991,9.571656955870166e-08,-5.999999812773647,0.9378826816499175,3.683241159405711e-05,0.00013820186974560167,2.7917614574855213e-06,1.2393048173889029e-22,-6.0,0.9329061144433599,9.607529731192486e-23,-2.630737055876613e-07,2.2061502428294853e-07,1.0450887646341178,0.0,0.0,0.0,-0.6375973175314111,-1.735353276436669e-06,1.8423409307868997e-06,7.987415071783704e-09,517.9222202058885,517.9222558033389,517.921671000162,517.9228613878327
1.0919999999999987,2.4997926682633385e-07,-5.999999845267604,0.9909253476214483,6.705403231843696e-06,-0.0001565529988182953,2.503752211931735e-06,1.1811800639127535e-22,-6.0,0.9829539865758715,9.156926062664107e-23,5.1724141400185075e-06,-5.217321264962555e-07,1.0031439666911657,0.0,0.0,0.0,-0.6249594218852448,1.8325013674302028e-06,2.549756018318419e-05,9.440413877204201e-09,518.2743701838225,518.2834573161961,518.2750127829981,518.2828813166225
1.1439999999999984,3.4182564057525544e-07,-5.999999880534189,1.0418039935839254,-1.901468353501716e-05,-0.00021691798483636858,2.31756205642657e-06,1.1248102039171602e-22,-6.0,1.031490821168119,8.719926949732504e-23,4.725115573014709e-06,-9.343918836404723e-07,0.9618022748818508,0.0,0.0,0.0,-0.6066842527228644,2.2855652998180604e-06,1.0189677500888202e-05,6.329065870777925e-09,518.7921922851561,518.7963361313327,518.7929737732189,518.7955992470664
1.195999999999998,3.4379405947338034e-07,-5.999999907863112,1.0905601124029114,-1.3036552438829586e-05,-2.091688313806452e-05,2.2129216906601658e-06,1.0702594974573345e-22,-6.0,1.0784612875935784,8.297030559097506e-23,2.9258096922404727e-07,-6.904333485625156e-07,0.9213700497253952,0.0,0.0,0.0,-0.5854003752728221,-2.595186355797737e-07,-1.4663287929548973e-05,2.9603603519254544e-09,519.3962892556791,519.3913381348913,519.3962135706871,519.3914346572948
1.2479999999999976,3.328625340053164e-07,-5.999999929201633,1.1372464757285747,5.511250435355712e-06,0.00011345697603720743,2.1538770625183412e-06,1.0175725712987446e-22,-6.0,1.1238269603189215,7.888582853245531e-23,-1.6238217620045282e-06,-3.365357424902809e-07,0.8820087024169728,0.0,0.0,0.0,-0.562797882807214,-1.7827828710820295e-06,-1.4240183683192336e-05,7.498763507202166e-10,520.032403117068,520.0270934838386,520.0318149833287,520.0276868945166
1.3000000000000007,3.651033789250422e-07,-5.999999951932784,1.1819213735562126,6.67156786918787e-06,2.686497829662413e-05,2.112658138665518e-06,9.667770179398723e-23,-6.0,1.1675640810354542,7.49479773899418e-23,3.12375621430138e-07,-3.551671339505645e-07,0.8437891620580074,0.0,0.0,0.0,-0.5398835428392756,-5.377645887585397e-07,4.933535595240605e-06,-2.7774340970942304e-10,520.6729345131877,520.6743893665938,520.6727555557356,520.6745663733856
1.3520000000000003,4.082593761355662e-07,-5.999999976757727,1.2246445716923517,-8.809603167614125e-06,-0.00011251017742083526,2.0745088145063154e-06,9.178857135773516e-23,-6.0,1.2096615627930538,7.115775037178686e-23,2.0730580643942583e-06,-5.718340829953457e-07,0.8067279380084033,0.0,0.0,0.0,-0.5172208619444619,1.1894604848378115e-06,1.3371259885628457e-05,-5.592267951763192e-10,521.3073135195664,521.3121267518785,521.3077047517629,521.3117316013434
1.404,4.063883826597786e-07,-5.99999999759527,1.2654767271726213,-1.7529937795637303e-05,-0.00010282692921769606,2.0339671333852357e-06,8.708988827125832e-23,-6.0,1.2501192122865152,6.751516488213396e-23,1.004084688026308e-06,-5.77646746206562e-07,0.7708266693370893,0.0,0.0,0.0,-0.4951580780007619,9.840649498237978e-07,2.1523798630433853e-06,-4.897091477522555e-10,521.9276784168464,521.9287139802054,521.928001611801,521.9283873555945
1.4559999999999995,3.617832194865556e-07,-6.00000001082961,1.3044771606029948,-1.0006967719115924e-05,1.298526642520908e-05,1.990630576026318e-06,8.258059345102614e-23,-6.0,1.2889461486731593,6.401939988193238e-23,-1.019744888085985e-06,-3.442821954222539e-07,0.7360562206023722,0.0,0.0,0.0,-0.473730758737571,-4.2195489670243306e-07,-9.14384698180846e-06,-3.432546339414616e-10,522.5297350655266,522.5265803408134,522.5295947078328,522.5267182977921
1.5079999999999991,3.208013579881992e-07,-6.0000000193925525,1.3417035308408458,1.4240631516171544e-07,6.204196313295017e-05,1.945854681642454e-06,7.825870936642023e-23,-6.0,1.3261593993283474,6.06689223194306e-23,-1.3549755470140121e-06,-1.5738729033761238e-07,0.7023754170047763,0.0,0.0,0.0,-0.45276587282873304,-9.210303215247949e-07,-5.713945312349818e-06,-2.2486281804515646e-10,523.1155980672562,523.1134123581868,523.1152938741335,523.1137149809531
1.5599999999999987,3.047054003654475e-07,-6.000000027486555,1.3772115309101092,-5.188024474162528e-07,5.85609007970355e-07,1.9009284690941085e-06,7.412148463842112e-23,-6.0,1.3617826547896081,5.746159922819765e-23,-2.8154204689829737e-07,-1.590132006792744e-07,0.669760272865037,0.0,0.0,0.0,-0.43215398116382064,-8.189590987454584e-08,4.450459255910509e-06,-1.554841507798982e-10,523.689621460875,523.6910589807536,523.6895939694593,523.6910853866916
1.6119999999999983,2.8991236659596993e-07,-6.000000035048508,1.411056260152866,-7.983325485033185e-06,-5.979530908708358e-05,1.856702847545546e-06,7.016552201703556e-23,-6.0,1.3958451668168363,5.43947969397562e-23,2.098735145487234e-07,-2.098241995572964e-07,0.6381967763268609,0.0,0.0,0.0,-0.41181530874958977,6.853913765522018e-07,6.354890664786485e-06,-1.2737539389197657e-10,524.2567653142096,524.2590794819772,524.2569901613284,524.2588537475378
1.663999999999998,2.517474245035723e-07,-6.000000039164489,1.4432919187494377,-1.0065657425008688e-05,-3.53915092743986e-05,1.8135410149594105e-06,6.638689142708297e-23,-6.0,1.4283807750202406,5.146546872067846e-23,-4.920004396488933e-07,-1.5153282984476062e-07,0.6076722295822785,0.0,0.0,0.0,-0.39165957198877976,3.784983753982266e-07,-6.232412238531392e-07,-1.2006934461056446e-10,524.8198341194324,524.8197537576448,524.8199579818942,524.8196290587595
1.7159999999999975,1.9925583884045403e-07,-6.000000038971259,1.4739723998165288,-4.362151249062869e-06,2.5417846430235856e-05,1.7715333743772304e-06,6.278122961108593e-23,-6.0,1.4594270488928947,4.867023201928296e-23,-1.2079564939200124e-06,-2.1472390727875804e-08,0.5781817590324737,0.0,0.0,0.0,-0.37164420042259777,-3.525979710069429e-07,-5.162099692097172e-06,-1.2328708789072248e-10,525.3780623859889,525.3762535453551,525.3779463038364,525.376368770002
1.7680000000000007,1.5709609178863869e-07,-6.000000036774679,1.50315109798386,7.38266701843609e-07,3.699898255644815e-05,1.7306351762972587e-06,5.934382775184699e-23,-6.0,1.4890245333432743,4.600543639375842e-23,-1.034511565932158e-06,4.9485748348490176e-08,0.5497139393297478,0.0,0.0,0.0,-0.35167530511160683,-4.516651163935941e-07,-1.881020643413291e-06,-1.2660449922317664e-10,525.9330213222913,525.9322570011034,525.9328728910539,525.9324045524828
1.8200000000000003,1.307650729072051e-07,-6.000000034739187,1.5308810225222078,-3.946367621078015e-07,-1.369596927094918e-06,1.6907499518078683e-06,4.0726344750464534e-10,-6.0,1.5172160869662734,4.346722309062266e-23,-4.6570781225353825e-07,3.528417979771078e-08,0.5222629160162062,0.0,0.0,0.0,-0.3317196353860562,6.008868221421364e-08,3.1019013301012423e-06,-1.2740709301533652e-10,526.4866494840093,526.487684441444,526.4866687094388,526.4876643313748
1.8719999999999999,1.0513708915877719e-07,-6.000000032524153,1.5572149456634214,-3.93894992279557e-06,-2.45600156593709e-05,1.6518099946522815e-06,1.5180418109160596e-09,-6.0,1.544046303329238,4.105157714896265e-23,-3.488451744328491e-07,1.9298508653776946e-08,0.49582627137116475,0.0,0.0,0.0,-0.3117851467689676,3.6778540723944086e-07,2.723767953012757e-06,-1.2623110116730924e-10,527.0400182403207,527.0410290805613,527.0401380568305,527.0409083886631
1.9239999999999995,7.043644812136801e-08,-6.000000028733869,1.5822056714102022,-3.8501746343439615e-06,-3.4803553813392807e-06,2.3322753109658307e-06,3.0762104650456934e-09,-6.0,1.5695610064918093,3.8754372821069045e-23,-6.662969745903479e-07,5.473174207816979e-08,0.4704066551407687,0.0,0.0,0.0,-0.2919628535160721,1.0911640632100746e-07,-1.209962401792942e-06,-1.7019213181589146e-07,527.5906648533687,527.5903052867244,527.5901108472461,527.5896799992687
1.975999999999999,3.477815620352169e-08,-6.0000000233892825,1.6059057734322715,-3.0604627974348224e-07,2.513090724725352e-05,3.4127549940969118e-06,4.820353209156702e-09,-6.0,1.593806812833563,3.6571413023078813e-23,-8.096829448024887e-07,1.0372469968381433e-07,0.4459908248018952,0.0,0.0,0.0,-0.2722293656115997,-2.490291035579188e-07,-2.7061497099785687e-06,-1.1985599259523177e-07,528.1375158011211,528.1365515571608,528.1370197232585,528.1362179898559
2.0279999999999987,9.86322278993625e-09,-6.000000017936033,1.6283671646003461,1.8738377239665488e-06,2.233155516686604e-05,3.259129088393946e-06,6.524046493942466e-09,-6.0,1.6168307520392287,3.4498463459393385e-23,-5.547405286556969e-07,1.1270250934656307e-07,0.42257469823987676,0.0,0.0,0.0,-0.25268530383616006,-2.0877505264304236e-07,-3.0112591738138406e-07,-2.9742192116737397e-08,528.6777924359905,528.6776262307844,528.6776215518634,528.6775914495526
2.0799999999999983,-5.111689397109465e-09,-6.000000013311427,1.6496422593705986,6.469196445980134e-07,-8.621933309061959e-07,2.551519242771602e-06,8.029530090844117e-09,-6.0,1.638679940794884,3.253128200128868e-23,-2.62026500912475e-07,8.900491696826764e-08,0.40016719023192004,0.0,0.0,0.0,-0.2335609849286268,8.98079491910583e-08,1.9223476134843487e-06,1.4831458874253439e-08,529.2059860042401,529.2066412229972,529.2060664765431,529.2066632068689
2.131999999999998,-1.9327026225861537e-08,-6.00000000883438,1.6697825378695543,-9.674832414009007e-06,-5.304490633243075e-07,3.285084412322213e-06,9.256329223874862e-09,-6.0,1.659401303386441,3.0665643842699175e-23,-2.7778465303007743e-07,4.291168514450629e-08,0.37873540753871915,0.0,0.0,0.0,-0.21478124992716793,2.0234268263523285e-06,-7.600601722110269e-07,-2.229770187123728e-07,529.7251604528365,529.7255714401582,529.7250492850025,529.7241437841931
2.1839999999999975,-3.3295380022842067e-08,-6.000000000620104,1.6888379947367997,-9.14030824119374e-06,1.3387756917716817e-05,4.138036997389469e-06,1.0156220532312227e-08,-6.0,1.6790413339698909,2.8897362904104996e-23,-3.1493733626972463e-07,1.3675783951414345e-07,0.3582571855580773,0.0,0.0,0.0,-0.19636704741275013,5.525328116751075e-07,-1.577640026662113e-06,-1.2818995824519382e-07,530.2334232499484,530.2330900905179,530.2331609104899,530.2324686046012
2.2360000000000007,-4.1604337807399175e-08,-5.9999999889757785,1.706857795837409,1.481115203704626e-05,1.5098594319540921e-05,5.163236962455837e-06,1.0696327482285934e-08,-6.0,1.6976458958065508,2.722230990829215e-23,-1.9643538775512704e-07,2.8616636888155736e-07,0.33871922305277036,0.0,0.0,0.0,-0.17842522465557786,-3.099848837932986e-06,-1.5399064151478224e-06,-2.5591539486492276e-07,530.7287832210188,530.7272767081994,530.7268953088995,530.7274018177632
2.2880000000000003,-4.3343306082928e-08,-5.999999983590019,1.7238900433130013,2.762172564792837e-05,5.411475434315489e-06,5.117285288182682e-06,1.0871948158803747e-08,-6.0,1.7152600532309215,2.5636427509047894e-23,-3.118115400842573e-08,1.6460503530862035e-07,0.32009513585422644,0.0,0.0,0.0,-0.1609742195462447,-2.112336830173015e-06,2.995828048599278e-07,-9.47996392647746e-08,531.2086292034212,531.2080411405205,531.2076177492829,531.2084001838042
2.34,-4.271203650769853e-08,-5.999999989545596,1.739981676700777,2.393327400706594e-06,-1.094964212449532e-05,3.7563699338671646e-06,1.0716932726708515e-08,-6.0,1.7319279325481864,2.4135742815188775e-23,4.680175839154069e-08,-1.409322256378559e-07,0.3023646604363932,0.0,0.0,0.0,-0.14409358301796588,1.7127726392287865e-06,1.555925613025242e-06,1.7388807722660028e-08,531.6720745542857,531.6731340039621,531.672689480575,531.672638643361
2.3919999999999995,-4.642204778603138e-08,-5.9999999967788185,1.7551782315641102,-2.1570555419577872e-05,-1.1543801398191285e-05,2.2858428808414128e-06,1.0280325811768543e-08,-6.0,1.7476926084469484,2.2716377617336856e-23,-5.813981664778197e-08,-1.889276585078682e-07,0.28549788613902183,0.0,0.0,0.0,-0.12778978385158096,2.443799865326726e-06,4.789022561953528e-07,5.1159232574932146e-08,532.1202789011181,532.1212254088002,532.1212460547363,532.1206097291752
2.443999999999999,-5.4870859815812094e-08,-5.999999995286881,1.7695235930207283,-1.2804937211430614e-05,2.3715523809438958e-06,1.2806511021019941e-06,9.589607046405164e-09,-6.0,1.7625960128642881,2.1374556593211244e-23,-1.802346070853856e-07,3.050955887423536e-08,0.26946246705651566,0.0,0.0,0.0,-0.11205141530273581,-2.2787062528948498e-07,-1.0208095614426464e-06,4.375258312976769e-08,532.5532708081068,532.5528667553135,532.553347245156,532.5530906629621
2.4959999999999987,-6.23982259176252e-08,-5.99999998831633,1.7830602723402071,9.964864910749974e-06,1.0499655681778846e-05,7.788376874189608e-07,8.644363719886591e-09,-6.0,1.7766788635579835,2.0106613738594947e-23,-1.584967092567968e-07,1.6572522159992391e-07,0.254234129111251,0.0,0.0,0.0,-0.09692717510029668,-1.9788716794759657e-06,-8.52257675281029e-07,2.541224872953835e-08,532.9686624681576,532.9677470738736,532.9681097908393,532.968474060967
2.5479999999999983,-6.550799167845076e-08,-5.9999999852242,1.7958290303734836,1.3849362333011682e-05,4.427794935146486e-06,6.124412645569158e-07,7.443723319556436e-09,-6.0,1.789980609927876,1.89089972452827e-23,-5.26309824186757e-08,6.538764291338874e-08,0.2397744447429556,0.0,0.0,0.0,-0.08235364794820542,-7.175086426070584e-07,3.88240400574272e-07,1.02290183039969e-08,533.3679678235031,533.3678614403784,533.3677710594545,533.3681283153807
2.599999999999998,-6.654656110225931e-08,-5.99999998790429,1.8078692073876992,-1.4740932480682455e-06,-3.819867145597028e-06,6.052640494669593e-07,6.007411783554797e-09,-6.0,1.802539393887735,1.7778273023964294e-23,-1.0509839777271262e-08,-7.13860678532156e-08,0.2260615357259975,0.0,0.0,0.0,-0.06839409336614229,1.1920508005778897e-06,8.061699632526039e-07,1.7093722961805102e-09,533.7501714279431,533.750816569417,533.7505621450528,533.7504375603552
2.6519999999999975,-6.895058504468428e-08,-5.999999990187876,1.819218308008927,-1.1169372565148795e-05,-2.4386964054062277e-06,6.442949790259515e-07,4.3694714431280166e-09,-6.0,1.8143920238231028,1.6711127048917625e-23,-5.005119527221613e-08,-5.211907691594845e-08,0.21305511745019717,0.0,0.0,0.0,-0.05496263473518265,1.0983853068560437e-06,4.133133735389327e-08,-1.63186074755312e-09,534.1181493771863,534.1185170903609,534.1184981707712,534.1181571275155
2.7040000000000006,-7.22805856103091e-08,-5.99999998794299,1.8299124189549882,-3.3927285825602922e-06,4.713396239542546e-06,6.770405219672197e-07,2.55680476976215e-09,-6.0,1.825573959881864,1.5704366682365585e-23,-7.17751249198268e-08,5.611849974497688e-08,0.20073527291559784,0.0,0.0,0.0,-0.04212765236271772,-4.455669059309076e-07,-6.270454435629817e-07,-2.0794898373506413e-09,534.4697688129809,534.46942297748,534.4696180398806,534.4695595269222
2.7560000000000002,-7.363573528104592e-08,-5.99999998420076,1.8399865166761864,7.697903842590906e-06,6.6667107910664446e-06,6.894793496989945e-07,5.872486562565588e-10,-6.0,1.836119309034758,1.47549211192005e-23,-2.4056516075112645e-08,8.068809664925214e-08,0.18907515397389546,0.0,0.0,0.0,-0.029906386959925632,-1.0489571693604451e-06,-3.15207251616215e-07,-1.457109599740082e-09,534.8040661583962,534.8036265945337,534.803723181092,534.8039596115002
2.808,-7.215124280293954e-08,-5.999999983572573,1.8494736843106179,6.651538932578504e-06,1.7049927911366944e-06,6.850402180151362e-07,-1.5148829838795413e-09,-6.0,1.8460608285147504,1.3859841077321783e-23,3.620242213358292e-08,3.597093781031683e-09,0.17803698712948426,0.0,0.0,0.0,-0.018217961361140053,-1.2262457340975408e-07,3.4918192939688985e-07,-7.361016151529763e-10,535.1232917194274,535.1233646776203,535.1232497162785,535.1234016519762
2.8599999999999994,-6.984215124231599e-08,-5.9999999857766975,1.8584055711160297,-2.3669772112854514e-06,-2.291285933346512e-06,6.712863589867185e-07,-3.713521888112856e-09,-6.0,1.8554299363987707,1.3016297844914227e-23,4.595651606608326e-08,-5.186773691701219e-08,0.16759724655610295,0.0,0.0,0.0,-0.007085707333680066,7.577117042460034e-07,3.971850071073682e-07,-2.567542139437551e-10,535.4272453479706,535.4276170477574,535.4274883385425,535.4273723041862
2.911999999999999,-6.842260093224084e-08,-5.999999987117431,1.866812279447585,-5.638324810912705e-06,-5.279244225480336e-07,6.541621220138756e-07,-5.969820679099706e-09,-6.0,1.8642567282345006,1.2221581783463056e-23,2.2872524694582766e-08,-2.184494061088123e-08,0.15772714964521312,0.0,0.0,0.0,0.0035098409565654937,4.408377299683281e-07,-9.114296306737552e-08,-3.1455870587979025e-11,535.7166566592007,535.7167691465603,535.7167983574567,535.7166272336391
2.9639999999999986,-6.7246927606758e-08,-5.999999986139395,1.8747227860622548,-1.1594467720705375e-07,2.9957902406027354e-06,6.369226528178858e-07,-8.253455922463338e-09,-6.0,1.8725699987400377,1.1473100374034625e-23,2.1419655474874426e-08,2.7398720576734304e-08,0.14840123356538887,0.0,0.0,0.0,0.01357652312884907,-3.8864945758986095e-07,-3.4434845855230376e-07,3.1328460359794925e-11,535.9915288592163,535.9912931944299,535.9914040121095,535.9914182552407
3.0159999999999982,-6.487009669188208e-08,-5.999999985047676,1.8821644409402989,4.837001586403235e-06,2.89071892192882e-06,6.207279399291547e-07,-1.0540567527637174e-08,-6.0,1.8803972677167593,1.0768375884223974e-23,5.022779344405137e-08,1.9804579405304914e-08,0.13959131853451717,0.0,0.0,0.0,0.023145622354647524,-5.103267436564345e-07,-8.295241428994318e-08,2.149512241442208e-11,536.252496171164,536.2523055199274,536.2523322500956,536.2524695875418
3.067999999999998,-6.130312018331078e-08,-5.9999999859332265,1.8891631201619061,2.7238354963881318e-06,-2.1165485972883894e-07,6.056716180350226e-07,-1.2805766150375118e-08,-6.0,1.8877648094167154,1.0105042724075628e-23,7.203727108594744e-08,-2.52565944486967e-08,0.1312663169317013,0.0,0.0,0.0,0.03228728508798413,7.445026208116818e-08,2.346643860456733e-07,-6.963713535296659e-12,536.5015644686125,536.5016637569726,536.5015883584897,536.5016398196473
3.1199999999999974,-5.782618827203696e-08,-5.999999987994592,1.8957434850887174,-2.0971641528390382e-06,-1.8149530603911464e-06,5.914798644957152e-07,-1.5021029792818552e-08,-6.0,1.8946976846965067,9.480844551123904e-24,6.475323637534037e-08,-4.2108953643145954e-08,0.12340812309401214,0.0,0.0,0.0,0.04097381466950529,4.285242574069881e-07,1.7153805901026592e-07,-3.023482410745485e-11,536.7382163267229,536.738408983168,536.7383538060745,536.7382712978983
3.1720000000000006,-5.514411057774262e-08,-5.9999999892276366,1.9019290261004296,-2.6975772623648193e-06,-3.75052835524249e-07,5.778635181908329e-07,-1.716075944633511e-08,-6.0,1.901219775370882,8.893631177383053e-24,4.7997962393538236e-08,-1.8173982082153986e-08,0.11599279443854515,0.0,0.0,0.0,0.049226888893200975,1.3487980606939814e-07,-1.0352478368035764e-07,-4.282289259776083e-11,536.963098300411,536.9631083630633,536.9631414411157,536.9630649308075
3.224,-5.269550834976065e-08,-5.999999989319236,1.9077422331631386,6.792714268179706e-07,1.2772406401706236e-06,5.646324849137358e-07,-1.9207199958689742e-08,-6.0,1.9073538202520388,8.341355324565836e-24,4.7234809176552154e-08,2.0424488981483117e-09,0.10900234913036144,0.0,0.0,0.0,0.057026617134440044,-2.6762517068542575e-07,-1.747196707896518e-07,-4.699555543578366e-11,537.1755306109765,537.1753887069929,537.1754445970571,537.1754744010907
3.276,-4.9789087747535264e-08,-5.999999989640439,1.9132043343346035,2.572534389076979e-06,7.003974567183545e-07,5.516966548143602e-07,-2.1148326161447868e-08,-6.0,1.9131214524257405,7.822069267945692e-24,5.828419497621248e-08,-9.53863499623123e-09,0.10240836704249603,0.0,0.0,0.0,0.06444671220153397,-2.232941684110263e-07,6.297086352485986e-09,-4.666246617383861e-11,537.3774369443421,537.3773673579566,537.3773651798915,537.3774388049626
3.3279999999999994,-4.6641098102210253e-08,-5.999999991008523,1.9183353766632476,7.431836251154603e-07,-9.874726845654134e-07,5.390277834845044e-07,-2.2973255122513176e-08,-6.0,1.91854323737355,7.333921404039217e-24,6.036624266274218e-08,-3.094164651778999e-08,0.09619389164974254,0.0,0.0,0.0,0.07147059567373662,1.084493384065603e-07,1.4209646359527892e-07,-4.471411550543607e-11,537.568451444494,537.5685317606861,537.568486057507,537.5684968435946
3.379999999999999,-4.395005883582378e-08,-5.999999992696416,1.9231544395465412,-1.6190280854591456e-06,-1.3982988367024737e-06,5.266246134580984e-07,-2.4670175091065596e-08,-6.0,1.9236387116024527,6.875152772606431e-24,4.842378937089314e-08,-3.154178241912298e-08,0.09033714861914424,0.0,0.0,0.0,0.07813562713660303,2.2510081747637363e-07,6.088718329578865e-08,-4.261906264661023e-11,537.749709632628,537.7498012794429,537.7497816228607,537.7497289994764
3.4319999999999986,-4.190447798858115e-08,-5.999999993710948,1.9276795864153433,-1.309067700898963e-06,-3.454569033825025e-07,5.144922276963195e-07,-2.623368725005201e-08,-6.0,1.928426421489449,6.44409355929598e-24,3.664655432547186e-08,-1.5127069194119493e-08,0.08482141855388138,0.0,0.0,0.0,0.08443646422662085,1.7070193095252778e-08,-8.158046782262632e-08,-4.092871167175086e-11,537.921068756856,537.92104809068,537.9210740862962,537.9210424830833
3.483999999999998,-4.00756196151442e-08,-5.999999994147692,1.9319279967334064,6.285024015717863e-07,3.8707442479617385e-07,5.026335866864138e-07,-2.7661157569990767e-08,-6.0,1.932923962089968,6.0391596015477625e-24,3.518537885953156e-08,-7.071410310946958e-09,0.07962804972949684,0.0,0.0,0.0,0.09039386874030476,-1.676818238595536e-07,-8.19762338339025e-08,-3.9661201547426433e-11,538.0830141952656,538.0829342401747,538.0829603590232,538.0829878069587
3.535999999999998,-3.814557573350402e-08,-5.999999994804819,1.93591592411783,1.206277217939877e-06,-1.3443782646640358e-07,4.910473609128905e-07,-2.895369926479398e-08,-6.0,1.937148015695633,5.658848917062768e-24,3.762551692612439e-08,-1.534694590642875e-08,0.07474086156633615,0.0,0.0,0.0,0.09601143398848419,-8.645179932419326e-08,2.841437135364147e-08,-3.866840646932698e-11,538.2356182201614,538.2355996384584,538.2355904097768,538.2356271862012
3.5879999999999974,-3.631464522137349e-08,-5.999999995945044,1.9396586697896752,-7.835532677141793e-08,-9.492907555780433e-07,5.353616629258926e-07,-3.011290302918583e-08,-6.0,1.9411143899594738,5.3017382712172934e-24,3.3653954442386756e-08,-2.371715474876919e-08,0.07014019745625828,0.0,0.0,0.0,0.10133048622725546,9.256686731316321e-08,7.798847095184742e-08,-3.1444800395411686e-08,538.3801188873676,538.3801734789982,538.3800417562129,538.3800370899352
3.6400000000000006,-3.49196699720395e-08,-5.999999997048786,1.9431706446528452,-1.1292458508163937e-06,-9.037184980972573e-07,8.967196689585356e-07,-3.1141097912482596e-08,-6.0,1.9448380554355629,4.9664797971995476e-24,2.3977983079575343e-08,-1.9260152985545112e-08,0.065811142001592,0.0,0.0,0.0,0.10635789432879927,1.0981551851664598e-07,1.4457283065166284e-08,-4.014936163656114e-08,538.5166672952719,538.5167070626271,538.5165661573697,538.5165356426817
3.692,-3.394752280314892e-08,-5.999999997668924,1.9464655450574297,-6.113500850872618e-07,-2.2465470315892496e-07,9.6876886041786e-07,-3.204278651691148e-08,-6.0,1.9483331824055796,4.651797680347041e-24,1.7008801705874655e-08,-9.056809625715618e-09,0.06173905464048592,0.0,0.0,0.0,0.11110675153058346,-2.2597310832267734e-08,-5.354959088192909e-08,-3.395352986294614e-08,538.6456188496472,538.6455944884349,538.6454963993942,538.6454864970185
3.7439999999999998,-3.3113727635298424e-08,-5.999999998005395,1.9495562989414383,4.2430977111036324e-07,7.746658690836371e-08,1.1416352774455382e-06,-3.2825165404725816e-08,-6.0,1.9516131768873832,4.3564849161320035e-24,1.597886185980864e-08,-6.233492090232557e-09,0.05791011703855105,0.0,0.0,0.0,0.11558693497063065,-9.447869448649747e-08,-3.45726355438841e-08,-3.639770256392013e-08,538.7672387649659,538.7671974876826,538.7670850585738,538.7671042196312
3.7959999999999994,-3.228045863436916e-08,-5.999999998491983,1.9524551137252377,4.810625811374635e-07,-2.756590442050039e-07,1.042071095344759e-06,-3.349604980980612e-08,-6.0,1.9546907157405122,4.079400149453658e-24,1.583096119818535e-08,-1.0960975463971748e-08,0.05431071459083285,0.0,0.0,0.0,0.11981096669070791,-2.4389816587406694e-08,2.6238208473383798e-08,-9.271943058803926e-09,538.8818011788835,538.8818017699692,538.8817619290008,538.881778119017
3.847999999999999,-3.158435210616617e-08,-5.999999999167126,1.9551735096623077,-2.941618299215007e-07,-6.241377890037778e-07,7.83478528390597e-07,-3.406345090276285e-08,-6.0,1.9575777808010437,3.819464601322647e-24,1.1940981948658775e-08,-1.3269257068008203e-08,0.05092707076459463,0.0,0.0,0.0,0.12379965303264863,6.245322730562342e-08,3.85976407167512e-08,5.564176962254686e-09,538.9899804788596,538.9900127867893,538.9900193162628,538.9900116891677
3.8999999999999986,-3.1169132667971375e-08,-5.99999999971403,1.9577222828226624,-6.847740609184352e-07,-4.618119389263042e-07,5.456270597695053e-07,-3.4535304314451395e-08,-6.0,1.9602856919935125,3.575659087644721e-24,6.233651119678844e-09,-8.763135494404286e-09,0.04774640430178486,0.0,0.0,0.0,0.1275688717973397,4.7670043555848775e-08,-2.925831683381773e-09,8.73798103142409e-09,539.09222990173,539.0922442046125,539.0922747675274,539.0922585941099
3.951999999999998,-3.09687344570094e-08,-5.9999999999634515,1.9601117161156856,-2.51376284483732e-07,-7.442882032855292e-08,3.9514591828284733e-07,-3.492002094675934e-08,-6.0,1.9628251393810066,3.34702113360546e-24,3.103553157572124e-09,-3.217375860498316e-09,0.04475925697451365,0.0,0.0,0.0,0.1311151270420373,-2.6758358667842276e-08,-3.1129622611356644e-08,6.582435778649351e-09,539.1884298319598,539.1884113308564,539.1884435948544,539.1884421977907
4.003999999999998,-3.081801098445855e-08,-6.000000000090199,1.9623514474064692,2.589963250561263e-07,1.86853831212201e-08,3.2408935007656607e-07,-3.522668792539959e-08,-6.0,1.9652062141262028,3.1326421861079607e-24,2.9664298298194826e-09,-2.5983483539726756e-09,0.04195202594188264,0.0,0.0,0.0,0.13446922223203367,-4.921034364076682e-08,-1.1590342188114033e-08,3.4575533702463102e-09,539.2793880060086,539.2793685772771,539.2793840003159,539.2793960217083
4.055999999999997,-3.067046278745826e-08,-6.00000000031145,1.9644505267830774,1.6320310550188803e-07,-1.9805759505140442e-07,3.012660330303103e-07,-3.546396499867502e-08,-6.0,1.967438438346232,2.931664925804091e-24,2.601073231537136e-09,-5.086486977433872e-09,0.039315846507848036,0.0,0.0,0.0,0.13763007399745864,-9.866043138959614e-10,1.929668824159408e-08,1.1891330141650372e-09,539.3650774385028,539.3650832885222,539.3650811532088,539.3650876336625
4.1080000000000005,-3.061114061647428e-08,-6.000000000595804,1.9664176136100073,-2.6515452916145584e-07,-3.2298482419442765e-07,2.9896516072486793e-07,-3.5639788348007985e-08,-6.0,1.9695307938530089,2.74328067947231e-24,2.5160171747828293e-10,-5.240925720392328e-09,0.0368422370907062,0.0,0.0,0.0,0.1405959585223449,3.799852157305811e-08,1.7321072708961008e-08,4.127930599779219e-11,539.4454732924747,539.445490964292,539.4454855709569,539.445478965556
4.16,-3.069182618291449e-08,-6.000000000766969,1.9682607942120105,-3.6764284422625115e-07,-1.6843946010095012e-07,3.011431356195276e-07,-3.5761685998737595e-08,-6.0,1.9714917497781903,2.5667269328175635e-24,-2.348334153376666e-09,-2.109140293998117e-09,0.034519630717411154,0.0,0.0,0.0,0.1433932985350554,1.7709092019354666e-08,-7.827232832875158e-09,-3.3978349778295415e-10,539.521301096328,539.5213042526395,539.5213056015148,539.5212974450948
4.212,-3.084847884085026e-08,-6.0000000007784395,1.9699876669106264,-6.333898310562731e-08,3.356780046716345e-08,3.01242382759849e-07,-3.58370952654152e-08,-6.0,1.9733292890883607,2.4012849431890094e-24,-3.1264684474994253e-09,4.893164593010758e-10,0.0323399289208659,0.0,0.0,0.0,0.14602491780064053,-2.215526345307729e-08,-1.7475304750382313e-08,-3.3878495962338396e-10,539.5926274335384,539.5926147770252,539.5926192103361,539.592620704939
4.263999999999999,-3.0994266586812685e-08,-6.000000000755259,1.9716054199640214,1.6600888408493286e-07,3.259994599955569e-08,2.9807016018242736e-07,-3.5873152391217633e-08,-6.0,1.97505093400151,2.24627745121928e-24,-2.5880088776270306e-09,1.338564918803017e-10,0.030295478561370714,0.0,0.0,0.0,0.1484937665906841,-2.3720568096190136e-08,-1.9210669044328883e-09,-2.2018230409319368e-10,539.659523686464,539.6595154985052,539.6595153661639,539.6595223272419
4.315999999999999,-3.112562303772581e-08,-6.000000000796747,1.9731208123366504,4.2043027825434236e-08,-9.957989518608481e-08,2.925465943143418e-07,-3.587617703965596e-08,-6.0,1.9766637703204903,2.10106648997318e-24,-2.6214013330837066e-09,-1.220733810402661e-09,0.028377423423942012,0.0,0.0,0.0,0.1508151585381146,6.696918366273776e-09,1.2545805733998125e-08,-1.0958993686214067e-10,539.7224118018067,539.7224179457315,539.7224135688864,539.722415436352
4.3679999999999986,-3.1295888549523525e-08,-6.000000000855681,1.9745401668577522,-1.79899531091034e-07,-1.3390760178892124e-07,2.85894609856017e-07,-3.585175522419499e-08,-6.0,1.9781744707029847,1.9650512898470158e-24,-3.687745848197602e-09,-8.354318668355889e-10,0.02657779686947582,0.0,0.0,0.0,0.15300090920982024,2.155286941699099e-08,6.867548268249998e-09,-4.248721711064969e-11,539.7816239475925,539.7816330208273,539.7816306844821,539.781625996185
4.419999999999998,-3.152004589435302e-08,-6.000000000839812,1.975869447334247,-1.6941158626762608e-07,-2.5359649429220262e-08,2.789742107573307e-07,-3.580490835302881e-08,-6.0,1.9795893168907066,1.8376662771730065e-24,-4.545962712551392e-09,9.68140279329714e-10,0.024890396976617882,0.0,0.0,0.0,0.15505180643052824,4.33873438532358e-09,-6.957939611227848e-09,-1.4093463205948988e-11,539.8371833846978,539.8371825486013,539.8371847219784,539.83718111588
4.471999999999998,-3.175317911629823e-08,-6.0000000007512115,1.9771142659106336,2.0317874005998138e-08,6.731783347488676e-08,2.722073329515158e-07,-3.57403761617797e-08,-6.0,1.9809142209231423,1.718379164249807e-24,-4.326738746282506e-09,1.914608934805742e-09,0.0233078091490535,0.0,0.0,0.0,0.15698163544011157,-1.496074293077145e-08,-8.665227053817269e-09,-7.928972215819635e-12,539.8894565514872,539.8894490103892,539.8894517493706,539.8894537588161
4.523999999999997,-3.19552088744135e-08,-6.000000000668774,1.9782798630363465,1.0790008922038786e-07,3.881119552858241e-08,2.657203304018331e-07,-3.566240567976194e-08,-6.0,1.9821547453632267,1.6066891283335576e-24,-3.6441046879048783e-09,1.2683643050885606e-09,0.02182360489886292,0.0,0.0,0.0,0.15879818921316027,-1.018790460374327e-08,1.340151154753875e-09,-1.0773123963545607e-11,539.938651315497,539.9386484916682,539.9386480274777,539.9386517067458
4.5760000000000005,-3.213639859063633e-08,-6.000000000631496,1.9793711882370026,8.121549823753562e-09,-3.452324522769824e-08,2.5950098714103855e-07,-3.5574603090941224e-08,-6.0,1.983316122563944,1.5021250769783097e-24,-3.4743835501876625e-09,4.903413937744831e-10,0.020432422512128845,0.0,0.0,0.0,0.16050421976027152,7.0431310046455904e-09,7.173091631960626e-09,-1.5179609445715746e-11,539.9848474154238,539.984851952253,539.9848496117172,539.9848496531915
4.628,-3.23272002497882e-08,-6.0000000005996945,1.980392875529062,-9.748810342043682e-08,-3.519221002305313e-08,2.5349757136270784e-07,-3.5479909664932595e-08,-6.0,1.9844032730060805,1.4042439970051023e-24,-3.795007604928135e-09,8.144702713951752e-10,0.01912711380804844,0.0,0.0,0.0,0.1621218831467924,1.1157900870047862e-08,1.7896807120342812e-09,-1.835760111810612e-11,540.0286507387378,540.02865487037,540.028654237138,540.0286512476965
4.68,-3.252831781983975e-08,-6.000000000528845,1.981348359847518,-4.94957852270421e-08,5.653145233390986e-08,2.47670801647702e-07,-3.538075262189039e-08,-6.0,1.9854208227382175,1.3126293843005049e-24,-3.8247218494776364e-09,1.6604620550843443e-09,0.017866687332079856,0.0,0.0,0.0,0.16399578307067297,-4.4960030384163334e-09,-1.3172847077426518e-08,-2.1231798467436563e-11,540.0793926793731,540.0793870416927,540.0793911729544,540.0793884043943
4.731999999999999,-3.2698568031089387e-08,-6.000000000440629,1.9822385045331863,1.8365221152731192e-07,2.3512788962768747e-07,2.4200551594746916e-07,-3.527939622029019e-08,-6.0,1.986373119950614,1.2268897515946192e-24,-2.774770799767699e-09,1.5015689202358815e-09,0.0166112303896959,0.0,0.0,0.0,0.16649097259137696,-4.339802704173353e-08,-4.1642450188971305e-08,-2.4588396654224844e-11,540.146954902059,540.1469277711994,540.146940973376,540.1469415334658
4.783999999999999,-3.2744424437558746e-08,-6.0000000004532765,1.983066392258611,1.39902580174658e-06,1.3342950809520168e-06,3.095083655734939e-07,-3.517781937954286e-08,-6.0,1.987264250714952,1.1466572113407502e-24,1.1211982327807473e-09,-2.2951229023602456e-09,0.015499403864138808,0.0,0.0,0.0,0.1683548027831314,-2.9667854609813687e-07,-2.8449134948818675e-07,-1.1970092288421346e-08,540.1975076138684,540.1973222178544,540.1973724683304,540.1973763561056
4.8359999999999985,-3.223264333098135e-08,-6.000000001047623,1.9838435638110212,1.3880243129169504e-06,1.3210622220603186e-06,3.605459551377829e-07,-3.507702334218368e-08,-6.0,1.9880980539219764,1.0715861308118762e-24,1.5653729022888377e-08,-1.7516460516917236e-08,0.014581560467542318,0.0,0.0,0.0,0.1691269303705462,-9.599541557856481e-08,-9.264401844479904e-08,-6.644800589448481e-09,540.2183358933954,540.2182757188286,540.2182827881859,540.2182838572564
4.887999999999998,-3.1194558146970533e-08,-6.000000002194574,1.9845748805444967,-1.27164259573948e-06,-1.2327543674731143e-06,3.344245159353287e-07,-3.497517762333103e-08,-6.0,1.9888781354489642,1.0013518565391545e-24,1.9755753804252144e-08,-2.1870821806406898e-08,0.013718060477318314,0.0,0.0,0.0,0.1697768060930225,2.2148237509134526e-07,2.1365111090849616e-07,-1.1222029769461184e-09,540.2358172310173,540.2359560308239,540.2358840829719,540.2358815849385
4.939999999999998,-3.067870929612683e-08,-6.000000002801825,1.9852623906375073,-2.6132853978334494e-06,-2.5151886708339423e-06,2.814558987257107e-07,-3.486818035473291e-08,-6.0,1.9896078815886777,9.356495052426468e-25,1.993718459807007e-09,-3.4488323094181054e-09,0.012889480509192591,0.0,0.0,0.0,0.17044888977044365,1.8067888432479074e-07,1.7452333338714294e-07,1.3031946382253654e-09,540.2540165458693,540.2541298452155,540.2540785864737,540.2540766230292
4.992000000000001,-3.123356855531495e-08,-6.00000000229506,1.9859078768812213,-9.047328660273109e-07,-8.527183753159552e-07,2.36019617246221e-07,-3.4753662177787537e-08,-6.0,1.9902904717710292,8.741928184419163e-25,-1.6797318624366935e-08,1.6154131822384132e-08,0.012095269138035564,0.0,0.0,0.0,0.1711589414367378,-9.735813664857464e-08,-9.44921066421744e-08,1.6211047580014152e-09,540.2733209009417,540.2732597083792,540.2732953322093,540.2732962463583
5.0440000000000005,2.3318928883218116e-06,-6.000000001423409,1.9865047108464646,-4.3656870576905673e-05,0.5937948396814996,3.494114355644182e-08,0.0016148535651417369,-6.0,1.9909288906081724,8.1671307798212035e-25,0.00021006404151099976,1.344770222370639e-08,0.010921474252121158,-5.0227136259194715e-05,0.5626460651317531,1.7869082698869394e-08,0.1758449433691977,1.9094463739459587e-05,0.43298358911087104,1.0543299798263045e-07,466.2774218143143,605.5159151891488,466.2848919517698,605.5107992899751
5.096,0.00038391360364043646,-5.999999962583801,1.9870341098375808,-0.0008664705832931824,5.314712926343522,-2.996176813551381e-05,0.00865731203724969,-6.0,1.9915259392930842,7.629580797677686e-25,0.016152182642991605,1.8378049256760561e-06,0.0110194173514593,-0.0004833248273630056,2.2696434859632317,3.564562075869044e-06,0.18261328833336327,0.0002209619139152745,0.06567467507394056,8.703460383648059e-06,529.9611264088494,550.9716917406975,530.0629850890989,550.9314550687889
5.148,0.0032204139913118326,-5.99999949775081,1.9873809440533434,-0.0031412787602239896,13.102654304801815,-0.00022482245447419331,0.02265773800235889,-6.0,1.9920842463810162,7.126911630601936e-25,0.08643787459028224,1.539196473174338e-05,0.022576265059415436,-0.0008527069488427333,2.5270126453689965,4.5597300075230496e-05,0.2383980168584681,0.0006029058555081087,-0.38997033119754393,3.0850643927457496e-05,600.7521902203507,476.1378458019262,601.0189424707866,476.03806457038974
5.199999999999999,0.011811386530030247,-5.9999976528764885,1.9870968084473375,-0.005052422471947767,17.850714989758668,-0.0002788777260700899,0.04384105125144644,-5.999999998215273,1.992606277982396,6.656902927640953e-25,0.21614920149382272,4.73637053340044e-05,0.055977722340014205,-0.0003824778672572056,0.8040979169204958,0.00012450559525009839,0.3864026910619702,0.000841626392121874,-0.3203075991151759,-6.364326587286754e-06,594.3515376796419,493.101838574103,594.5759424568519,492.7840187537266
5.251999999999999,0.0282274648971883,-5.999993605360467,1.985986578446036,-0.004913105085845806,17.137539031984744,0.00014924470126414136,0.07172370086121488,-5.999999986263527,1.9930943473949674,6.21747192202536e-25,0.36870948264632813,8.776692691566734e-05,0.08758647816140878,0.00017554341880325977,-0.759483432034207,8.826949979218295e-05,0.5403677569844629,0.0009632363784131921,0.06383066158660083,-4.65610892518807e-05,540.0111714009867,560.3064868172235,540.16092884652,559.8581622687669
5.3039999999999985,0.052266565387768686,-5.999987298914435,1.9845137268114732,-0.004626826833618413,14.728872582327373,0.0004176815653753216,0.10556173764573838,-5.999999947272364,1.9935506242020737,5.80666523957101e-25,0.5059282061511958,0.00012562338595591566,0.10549259102662834,-9.706861169782908e-05,-0.625604116677509,-2.129696978336688e-05,0.6053682388271544,0.0013166988625825913,0.2238668792509938,-2.249502971604454e-05,515.5867947100895,586.0371410359583,515.9470011511702,585.5796206628779
5.355999999999998,0.08287886183228522,-5.999978813505916,1.9832558193690863,-0.005696022702699425,14.518244426574793,0.0003046359672120654,0.14457586512654505,-5.999999854517978,1.9939771428631212,5.422651164297769e-25,0.6222062863627011,0.00016446928398519318,0.1383394402517613,-0.0004418640548304499,0.28286262151911934,-3.8719999404094495e-05,0.5993438946327652,0.0018585592552679312,0.023865723643555097,5.463296302848504e-06,547.6991876264939,555.7340234296449,548.3018578765373,555.1753981486762
5.407999999999998,0.11982275467483912,-5.999967746718912,1.9823577642477677,-0.006330398676020364,15.816736825573335,0.00016524997787574573,0.18805155013133154,-5.999999676597495,1.9943758108213352,5.063712338646207e-25,0.7371645945752301,0.00021151963879821196,0.19193075003114152,0.00010194249792891644,0.3718507831955085,3.502621139197066e-05,0.5895449030972074,0.0022258206396863637,-0.1832567407653802,-7.653007354405211e-06,579.0863671627122,522.4447328511893,579.7242229790602,521.6832271617192
5.459999999999997,0.16348413744528326,-5.999953921780239,1.981706480937726,-0.004084592237231307,15.522735066846575,0.0003913043959971899,0.23533570051856778,-5.999999378551282,1.994748416153029,4.728238876497673e-25,0.862070813877701,0.00026101268370342805,0.23039760298454653,0.0011198893026656916,-0.4724298390019026,7.495450943238373e-05,0.5841250710350606,0.0022492708324069336,-0.10685241592807886,-4.694993087273621e-05,567.5243503584254,534.8198668590987,568.0558633185314,533.9339264903144
5.5120000000000005,0.2136008056991606,-5.999938376450244,1.9813559099782205,-0.00027277866467422944,12.929389164865038,0.0006576988218182447,0.28588048158846335,-5.999998912555231,1.9950966347816597,4.414721868031629e-25,0.9829844313498841,0.000290288444338041,0.22688166419407949,0.0011646380235671586,-1.0177340565698951,4.146842469942122e-05,0.5430345389998233,0.0023025272890712157,0.11100893446591488,-4.050997312767599e-05,532.2764089388342,567.777337924443,532.8823970022892,566.9474767999848
5.564,0.2689127524777801,-5.999922840822042,1.9815060516386276,0.0016826594183363395,10.397628385891155,0.0007298471685161887,0.3392153414503839,-5.999998235014548,1.9954220372790439,4.121747256281036e-25,1.0772478284409648,0.0002844484952302496,0.2082178813864449,0.0002658030976812502,-0.6332349578376826,4.053018354096691e-05,0.4588908744588269,0.002655287662777944,0.15162477241800626,-3.813689401237415e-05,523.2524725127964,571.8093703644587,523.993204375903,570.8864932551703
5.616,0.32814814690658206,-5.9999082648475754,1.9822088404765363,0.0014929403115524324,9.66559627361036,0.0008702171697149003,0.39495812643745387,-5.999997304056113,1.995726095275197,3.847990066066858e-25,1.1467373560587866,0.0002607039992022,0.21287822953993682,-0.00014069211677757767,-0.028406828430765457,5.504379765540956e-05,0.36636593923571725,0.003068448544351403,0.0021841980084162937,-5.4351058559403795e-05,544.7918578385558,546.4508205168962,545.579524635119,545.3001556052151
5.667999999999999,0.39080592402289843,-5.999894630323077,1.9833033536002806,0.002019672743899706,9.72491008043253,0.001069358125586567,0.4527752072576372,-5.999996095238743,1.9960101874973404,3.592208966804391e-25,1.2095087579950285,0.0002401172563682366,0.23102609970754934,0.00048561002416194505,-0.04966294239787857,6.659958394014933e-05,0.2937544137125382,0.0031788248413536944,-0.094952481365562,-6.401947055318111e-05,558.0434210322188,528.944760799155,558.8148216527751,527.6863970201296
5.719999999999999,0.456761709223159,-5.999882179039257,1.9845909640395811,0.004796676661995605,8.751229454865149,0.001209322228273603,0.5123737191750348,-5.999994597156929,1.9962756054577542,3.3532411514712507e-25,1.272920219489342,0.0002162537587096015,0.22504058065789906,0.0011146482682146935,-0.5205707532901821,6.810584686304491e-05,0.2392576646209109,0.003037594516308414,-0.015323259373336184,-6.0304594168310314e-05,544.1636859489777,540.2590564839334,544.9225337518149,539.0848520207893
5.7719999999999985,0.5254940960032837,-5.999872085407588,1.98596724023759,0.007553447728432682,6.800342620449469,0.0012261901998158284,0.5735260832415777,-5.99999280353674,1.9965235588092773,3.129997514809587e-25,1.325958860479439,0.00016493348898909919,0.18922271283196562,0.0006449349728505166,-0.6667161094727598,8.855632115324947e-05,0.1916261862426204,0.0030380126956896527,0.09160215489967095,-5.692661072223354e-05,525.6319247286451,555.7938165556573,526.4293535164518,554.6635025848714
5.823999999999998,0.5960835415049575,-5.999865512910418,1.9873778444291574,0.007701415271287945,5.369937195883929,0.001337728118158703,0.6360560923861281,-5.9999907208912,1.9967551803864023,2.921458114599438e-25,1.3591627208018533,8.689276691167995e-05,0.15680450512356228,-0.00033188154269970334,-0.31188676998006676,0.00010838520761771745,0.15119956112268945,0.003300520573051013,0.08938917510829605,-7.956440402300731e-05,524.8658442135257,554.4634958106159,525.6717734501823,553.1739061917576
5.875999999999998,0.6678368077849345,-5.999862504330568,1.988752253342954,0.006068163442336963,5.0994874537265495,0.0015874028832051036,0.6998112141677066,-5.999988374169684,1.996971530949093,2.726667900585099e-25,1.3797256013624297,1.1725096904165407e-05,0.1488842378401125,-0.0004985518089502047,0.011954588154524146,7.187327198403326e-05,0.12390105935331044,0.003539999487423649,-0.0067116688957181495,-9.375925715528756e-05,539.6583486810756,538.6446079471672,540.4705688755586,537.1919453322347
5.928000000000001,0.740564011509272,-5.999862316516071,1.9900117750799902,0.005444530912895695,5.07395373511022,0.0017483619364011779,0.7646569068828051,-5.999985802923676,1.9971736036456418,2.544732696360435e-25,1.398525246148852,-4.416275908979347e-05,0.14782842551477487,6.92568039305794e-05,-0.07358284364168707,3.909993645928866e-05,0.11064875740425581,0.003501814472787709,-0.03811585071978735,-8.873532657683644e-05,544.2910215132493,533.2194176638287,545.1011139741166,531.7815779911624
5.98,0.8142066788119056,-5.999864604351058,1.9911079211093905,0.006503210772128588,4.411236921790019,0.0017572870659617673,0.8304857088271005,-5.999983055962597,1.9973623282101156,2.37481542022122e-25,1.416364028394226,-9.356193326862184e-05,0.13107276580030927,0.0004393769970875578,-0.31128470688921406,2.1044150532900043e-05,0.10675136043358319,0.003331352750244186,0.013930690022161145,-7.919134461474566e-05,535.8933818781067,541.4158293729921,536.6939219777491,540.0865116575002
6.032,0.8884580980061931,-5.999869733865675,1.992028587203493,0.007108684349396375,3.408677279516217,0.001697645612803028,0.8972023438489802,-5.999980188852035,1.9975385749091648,2.2161325316716664e-25,1.4268123318759636,-0.00015234302453806092,0.10331897451393597,-4.8070544659710534e-05,-0.30845783725283105,2.2010108978979992e-05,0.10831422429389537,0.003325315188623789,0.07212440615137186,-7.843630178210906e-05,526.4967385369091,550.638403864688,527.3121886028395,549.3358105084336
6.084,0.9628734813898703,-5.999877903722575,1.9927784669339335,0.005767471467872992,2.88445402324388,0.0016951659694584668,0.9647107896146201,-5.99997726074298,1.9977031582522629,2.0679506909287462e-25,1.4282463246398471,-0.00021226395296646415,0.08557958211715529,-0.0006468273164368466,-0.07943454540191812,1.5614787668811282e-05,0.11379022658975502,0.0034798412012087693,0.04775376475627955,-8.584382737457059e-05,530.6086654956927,546.9947706111285,531.4424350802353,545.6098626035514
6.135999999999999,1.0372068293129177,-5.9998885048852,1.9933689766800295,0.003676375141795781,2.9395175943909186,0.0017196781594755535,1.0329391289218455,-5.999974337242691,1.9978568404787265,1.929583619399881e-25,1.426298169380216,-0.0002553990845968959,0.08307222077701416,-0.0006269959521559433,0.056988046001481954,-1.085170169373908e-06,0.12187342142940001,0.0035750002124889054,0.004674352871139983,-8.673534262385864e-05,537.7646905391463,540.4017132967575,538.61480279043,538.9664173074198
6.187999999999999,1.1114649864400963,-5.999900597964449,1.9938178272940792,0.002692802665564808,3.0299664091260494,0.0017042002653510234,1.1018470670638396,-5.999971488630516,1.998000334834198,1.8003891497184685e-25,1.4253691852279318,-0.00027953240343094163,0.08318634067236494,-0.0001231442655738882,-0.009752166335936136,-7.2862554259923885e-06,0.13106813335645037,0.0034931984432696192,-0.003950526217875868,-8.460903523905438e-05,539.4036110182559,539.2574867524322,540.2322456063338,537.852573334584
6.239999999999998,1.1856814617417366,-5.999913677697363,1.9941482296300317,0.0024981289949415363,2.7809894005794784,0.001661820632152566,1.1713598377846144,-5.999968776679244,1.9981343086486136,1.6797664545064703e-25,1.4246302678094527,-0.0002966211761173594,0.07557398056824616,-6.006212813059966e-05,-0.1246969680289178,-1.140920842369876e-05,0.1400705801716616,0.0034112703961895452,0.02336030541180223,-8.256251549991534e-05,535.2789468581673,543.8293908624892,536.0945994641638,542.4692417079947
6.291999999999998,1.2597528308800212,-5.999927603664544,1.9943837969250446,0.0019282534836808619,2.3940176377261912,0.001607851189173298,1.2413897618931466,-5.99996625229756,1.9982593862270763,1.5671534435945293e-25,1.421062599975664,-0.0003113585765964866,0.06401994578509458,-0.00030207288201296415,-0.11360540564033628,-1.3934428247710664e-05,0.14843972803976097,0.0034237133666925744,0.04469081337102618,-8.16722340963047e-05,532.0608419071716,547.4225683218697,532.8884979682274,546.0704224943552
6.343999999999998,1.3335165153429227,-5.999942101240266,1.994545887410417,0.0006484510754055524,2.2639139739509178,0.0015594158095949304,1.3118891985138383,-5.999963969464456,1.9983761515644256,1.4620243199679453e-25,1.4144431220932703,-0.0003186726460907183,0.058466705872207224,-0.00038216768917456083,0.01029497943215506,-1.2389075032155296e-05,0.1557934984848751,0.0034880891774854866,0.02585821173367636,-8.176040772482413e-05,535.2926345228658,544.6580964763075,536.1356929055025,543.2783545566969
6.396000000000001,1.406918032369115,-5.999956593420861,1.9946549327015406,-0.0009214161602577926,2.4485037928285514,0.0015332124709090417,1.3828100168101602,-5.999961973452732,1.9984851508937587,1.3638872852216496e-25,1.4076942156232295,-0.0003138924977358135,0.06147492870538486,-0.00047165440068289296,0.07793197466395954,-6.994376272677436e-06,0.1616137652105395,0.003568942650922926,-0.0021886719920927063,-8.3937544597709e-05,539.9367170507669,540.3770631164623,540.790941289759,538.9531273239594
6.448,1.4800361047197717,-5.999970405873204,1.9947284885149947,-0.0013829314703950202,2.590442096873494,0.001508718219963655,1.4540894822954322,-5.999960298180089,1.9985868950785755,1.2722823857996172e-25,1.402875596306848,-0.00029695894412116606,0.0645961061319164,6.340944720852003e-05,0.016136358264219674,-7.90077482249225e-06,0.16602785633946837,0.003453288060096038,0.01010536152993006,-8.423609043364084e-05,538.1102546628221,542.434927771928,538.9293812986796,541.0522368989523
6.5,1.5529376472007124,-5.999983321141098,1.9947800407316885,-0.000773875641809399,2.512924425265068,0.0014714983549026332,1.5256983824259118,-5.999958972399196,1.9986818618577322,1.186779491764147e-25,1.3988572336489766,-0.00027939321592459836,0.06255100387675269,0.00021764992411353623,-0.045231529992949535,-1.766581032326795e-05,0.16922701488934092,0.0033179930184309417,0.03070094887389403,-8.165549866859515e-05,534.9071464311326,545.7566527792042,535.6964547355309,544.43388936802
6.552,1.6255989447416594,-5.999995581873408,1.994819008755166,-0.0007716691744812528,2.413403273944733,0.0014008677610929969,1.5976015098364857,-5.999958011276068,1.9987704979518628,1.1069764002892483e-25,1.3939499393399393,-0.00026657695664995004,0.059505285144753985,-0.00018560998628546526,-0.01293026352815172,-2.7461007087057673e-05,0.17147382072914513,0.0033430435933707687,0.032923572156890964,-7.751231733016777e-05,534.5993427753299,546.1646175940401,535.4113127751502,544.8488213891117
6.603999999999999,1.6979841436414604,-6.000007195782059,1.9948521382841748,-0.001948363769787807,2.481736607850785,0.0013184513703212574,1.6697404550003392,-5.9999574171245795,1.9988532210394636,1.0324970564997899e-25,1.3886144873994342,-0.0002505419326398506,0.06051557715730936,-0.0004685028811296679,0.04459013050493552,-2.473707642569409e-05,0.17288855748826504,0.003456755742395188,0.021146355109894707,-7.585381711988397e-05,536.5116211240107,544.3566946346019,537.3628106592433,543.0060144446647
6.655999999999999,1.770125922845525,-6.00001768390681,1.9948842812837932,-0.0030025195754147275,2.6448549446651413,0.0012597756495424095,1.742097156094587,-5.999957193509866,1.9989304216103911,9.629898846854672e-26,1.3843062245333715,-0.00022418088318619075,0.06422836658814829,-0.00021344346184214977,0.0558727989145986,-1.1753275327643731e-05,0.17360073778851945,0.003473025117042747,0.006900758576908528,-7.767207054733922e-05,538.8143909207085,542.12202015882,539.6609849528071,540.7544277123677
