Time_s,X,Y,Z,Roll_deg,Pitch_deg,Yaw_deg,Ref_X,Ref_Y,Ref_Z,Ref_Yaw,vx,vy,vz,p,q,r,T_pert,tau_x,tau_y,tau_z,RPM_0,RPM_1,RPM_2,RPM_3
0.0519999999999996,2.216844108419968e-13,6.000000000000219,0.010054998081209299,-1.7463854540367452e-10,1.7463854445112452e-10,7.383743638339197e-12,2.3039331761647e-22,6.0,0.016216050707931907,1.786090570947644e-22,3.8364370796152895e-12,3.905124886698446e-12,0.0009999902477488692,0.0,0.0,0.0,1.9189653345103515,1.7891657129269268e-11,-9.905279362645873e-12,-6.55849648182868e-13,585.6698475832492,585.6698475855992,585.6698475864666,585.6698475782879
0.1039999999999992,2.1244676400517207e-09,6.000000002124643,0.011037840855683627,-7.927455267574472e-05,7.925431923455169e-05,3.236270721453476e-06,2.2847211272199083e-22,6.0,0.032758437754563774,1.7711967103861146e-22,1.0469200808074184e-07,1.0469646844544198e-07,0.049997683620997345,0.0,0.0,0.0,3.4390293028320467,1.8748162767902598e-05,-1.874136905913637e-05,-5.779848854263061e-07,622.4660018866713,622.4660037674647,622.4694949153136,622.4591161581866
0.1559999999999988,4.600800874155362e-08,6.000000046022416,0.018154931302729167,-9.318118463633981e-05,9.310487961741498e-05,8.142783016301365e-06,2.2553639736358323e-22,6.0,0.05803618915790014,1.7484380055118419e-22,1.0242947708967931e-06,1.0245884659940659e-06,0.2038761061943802,0.0,0.0,0.0,3.999474934755594,7.565816218141792e-06,-7.5541862623358816e-06,-1.8793736479763194e-06,635.4969100840889,635.4969132377456,635.4935560110281,635.4894559351233
0.2079999999999984,1.3851711185363163e-07,6.000000138586339,0.034573887029086835,7.664915779198104e-05,-7.66523725923105e-05,3.293777742621781e-05,2.217501482525811e-22,6.0,0.09063739605111035,1.7190856618484832e-22,2.186193442425562e-06,2.187385896125307e-06,0.3937344217804205,0.0,0.0,0.0,4.026057920403891,-1.6034690809755783e-05,1.6030059323119073e-05,-2.934586201875391e-06,636.1097890560306,636.109787801336,636.0970123953053,636.1056990253041
0.259999999999998,1.8579822264940792e-07,6.000000185924287,0.06108499879896363,0.00015558778295123577,-0.00015553190245725127,3.7516140021994994e-05,2.1725834040386783e-22,6.0,0.12931376221384347,1.6842635770410984e-22,1.7708556506543208e-06,1.7722740139864063e-06,0.5875660851690211,0.0,0.0,0.0,3.7232329492740797,-1.2445386534921014e-05,1.2445972614763109e-05,-1.066335754187826e-06,629.107499354063,629.1074995146025,629.1009920079408,629.1078103011326
0.3119999999999976,1.4288538467240966e-07,6.000000143040735,0.09729978731507377,1.9487083119186025e-05,-1.9557494201015756e-05,2.6188836469111577e-05,2.1218888627048163e-22,6.0,0.17296390730279548,1.644963373714171e-22,-7.972003910338498e-07,-7.973786774996109e-07,0.7674869422024827,0.0,0.0,0.0,3.227967703011253,1.0275784862069993e-05,-1.0253086219681093e-05,1.3948155460005265e-07,617.486997743873,617.4870040785117,617.4902783502201,617.4845492457431
0.36400000000000077,8.613465963252264e-08,6.000000086354567,0.1421468376660303,-0.00010828640577434789,0.00010823528705782091,1.2891042478051425e-05,2.0665438982801964e-22,6.0,0.22061826344278967,1.6020579977549597e-22,-2.406855533308882e-06,-2.406222735962212e-06,0.9230141353722244,0.0,0.0,0.0,2.6435409172200712,1.437309806221616e-05,-1.4374935905102139e-05,4.869718264714887e-07,603.4883763320545,603.4883758072601,603.4939555052903,603.4857465486253
0.41600000000000037,8.629227513167623e-08,6.000000086594724,0.19419081825151882,-4.0583861015717336e-05,4.0838710786213894e-05,3.934427066079754e-06,2.0075373255570484e-22,6.0,0.27142541925873054,1.5563140134002604e-22,-5.519811130392285e-07,-5.467659993738768e-07,1.0495080538433328,0.0,0.0,0.0,2.040369455429807,-3.4347330845982065e-06,3.3899443785900764e-06,4.0195779836044083e-07,588.6925013201407,588.6924882093223,588.6927439606978,588.6947417169391
0.46799999999999997,1.091659352103675e-07,6.000000109032594,0.2518664328872752,7.108058646774324e-05,-0.00011246829604599944,-3.1326576036461126e-06,1.9457350675123966e-22,6.0,0.3246397784282443,1.5084027148006286e-22,2.089250267304476e-06,1.7377805790746364e-06,1.1454595836756098,0.0,0.0,0.0,1.4707919173058142,1.9020435005934893e-06,2.9214235197046607e-05,1.841594363287061e-06,574.3638040039873,574.3731397030689,574.3702354243716,574.3784297140455
0.5199999999999996,5.78420205056114e-08,6.000000117442311,0.31361988926371637,-0.00023944324543062647,-0.0004019370895896573,-2.4047703733553214e-05,1.8818931023874292e-22,6.0,0.37961041169852133,1.4589101630547092e-22,6.026480843942894e-06,-3.984190593170736e-06,1.2123920963432961,0.0,0.0,0.0,0.9637338716171251,5.052803574013008e-05,5.566574262468201e-05,2.21125885618156e-06,561.2944364973537,561.3270385922906,561.317149969323,561.3187272543707
0.5719999999999992,-1.7787871201244523e-07,6.000000231878374,0.3780355058807874,-0.00014768702850816273,-6.531513489394808e-05,-2.7460448815814254e-05,1.8166691527173622e-22,6.0,0.4357709921370154,1.4083462479590475e-22,-3.0866834780164574e-06,-6.739197192675367e-07,1.2533740693939583,0.0,0.0,0.0,0.5336925975134394,4.291042894889243e-06,-1.6258794882080214e-05,7.953301612063121e-07,549.9981817095604,549.9944319571595,550.002169398412,549.9957307261112
0.6239999999999988,-4.411669547310942e-07,6.000000409862072,0.44388442802615974,0.00030190757041041646,0.00048051640562162695,-1.891824023437562e-05,1.7506332328597799e-22,6.0,0.49263071326325203,1.3571528648255038e-22,-1.386588141890769e-05,8.875013657997146e-06,1.2724509785934879,0.0,0.0,0.0,0.18239812760004992,-4.240274166076019e-05,-5.531956397552717e-05,-8.827255721441828e-08,540.5931171865836,540.5619652183656,540.5793017586046,540.5751841248912
0.6759999999999984,-4.890151013709654e-07,6.000000453082707,0.5101500007326362,0.00041094247032726923,0.0004364251356608542,-8.803689678730587e-06,1.6842771611040318e-22,6.0,0.5497660987201589,1.3057112886052412e-22,-9.262274475492294e-06,8.617238017204984e-06,1.2734504905556423,0.0,0.0,0.0,-0.09176937970519727,-2.1871673673809812e-05,-1.0903584374281662e-05,-3.5558756962809054e-07,533.1156436641684,533.1050492049629,533.1073545486798,533.1108999438137
0.727999999999998,-3.4077571789402103e-07,6.000000314799543,0.5760127474215937,4.836362413614687e-05,-6.971104439335489e-05,-1.800470233898974e-06,1.6180231328983378e-22,6.0,0.6068136203627762,1.2543488201579229e-22,3.960654200474932e-06,-1.5756026661286003e-06,1.2602853938087333,0.0,0.0,0.0,-0.29682282184508746,2.5001693036030775e-05,4.006918063725333e-05,-3.1132351696541317e-07,527.4453873053072,527.4666466645871,527.4524768402555,527.4573995617349
0.7799999999999976,-2.1380911322079769e-07,6.000000150101243,0.6408461367410166,-0.00024141802811107128,-0.0002992808184746171,1.6546745960748576e-06,1.552231443025285e-22,6.0,0.6634630491384108,1.2033447727555648e-22,7.958207144321867e-06,-7.554146382512734e-06,1.2364381987557125,0.0,0.0,0.0,-0.44254599518903837,2.873222833086839e-05,2.6580090354941417e-05,-1.8281572080370573e-07,523.3913106479805,523.4095218069466,523.4001321415298,523.3994235656551
0.8320000000000007,-2.0990677953446706e-07,6.00000008410589,0.7041910370918205,-0.00011636827340175457,-3.3364291498596414e-05,2.717314399732324e-06,1.4872074366176641e-22,6.0,0.7194514699678882,1.1529358607561182e-22,8.185777412840796e-07,-3.444766008937308e-06,1.2049556047466268,0.0,0.0,0.0,-0.5398649016440035,-6.295077785806059e-06,-1.902367140218466e-05,-7.539450617711364e-08,520.67850711024,520.6701274603271,520.6761589849771,520.671946248723
0.8840000000000003,-2.2423866128806756e-07,6.000000069839239,0.7657306902960509,0.00014157015061735085,0.0002404080972510598,1.9289552923653695e-06,1.4232077616686437e-22,6.0,0.7745578980697335,1.1033210467707372e-22,-4.3881703365148696e-06,2.1181224650229937e-06,1.1683474129416531,0.0,0.0,0.0,-0.5993927632236307,-2.444442128701739e-05,-2.846453490145789e-05,3.2557058863366655e-07,519.0079570410437,518.9903894459829,519.0009873642496,518.99965255107
0.9359999999999999,-1.4406857179293284e-07,6.0000000023692825,0.8252618693836199,0.00014411701084867648,0.0001400137814344048,-2.120124701690145e-06,1.3604459890921664e-22,6.0,0.8285984398503754,1.0546658985335756e-22,-8.685979515124669e-07,1.1521635314764214e-06,1.1285849161449828,0.0,0.0,0.0,-0.630594652765837,-5.724483749682106e-06,2.280926013309935e-06,3.960501773446441e-07,518.1197921233183,518.1186468017191,518.1192854055103,518.1219479843569
0.9879999999999995,-6.568524544889732e-09,5.999999877763612,0.8826678664582386,-6.571599094851785e-05,-0.00012982754352465028,-3.0230519028217394e-06,1.299097660375914e-22,6.0,0.8814219466613624,1.0071065020210867e-22,4.637170729959846e-06,-3.368294893550578e-06,1.0871342832995576,0.0,0.0,0.0,-0.6412802184648858,1.666729963506758e-05,2.3341817390380854e-05,1.495748911937193e-07,517.8113422564169,517.824656963262,517.8174170359536,517.8196382585955
1.0399999999999991,7.971313984048147e-08,5.999999779349999,0.9378953610774055,-0.00017005457437733803,-0.0001826684363738109,-1.7185093614260598e-06,1.2393048173889029e-22,6.0,0.9329061144433599,9.607529731192486e-23,4.429788207316547e-06,-4.452853018446939e-06,1.0450590601937693,0.0,0.0,0.0,-0.637763007695115,1.2165855902278344e-05,8.877125515658752e-06,-7.784332247939327e-09,517.9140871399478,517.9210887254523,517.9181075970911,517.9170133449144
1.0919999999999987,9.049105270388728e-08,5.999999750918641,0.9909361835060992,-5.9189857164194216e-05,-4.143188821465162e-06,-4.898905877998084e-08,1.1811800639127535e-22,6.0,0.9829539865758715,9.156926062664107e-23,2.78895799978888e-07,-1.4051808661233747e-06,1.003105821830779,0.0,0.0,0.0,-0.6250038614938113,-7.131678044960527e-06,-1.3739681494974092e-05,-5.853348691424315e-08,518.2812496675164,518.2743100116525,518.2786719811066,518.2764748416214
1.1439999999999984,9.572800463896845e-08,5.999999749786304,1.0418128629337102,6.873182833288677e-05,0.0001123787234424118,1.1325771247339964e-06,1.1248102039171602e-22,6.0,1.031490821168119,8.719926949732504e-23,-1.4510105043601935e-06,9.300712287164131e-07,0.9617662653835037,0.0,0.0,0.0,-0.6066866884662967,-1.2301635662868188e-05,-1.275784969257655e-05,-5.364526258057117e-08,518.7984631475124,518.7901392497872,518.7941879743807,518.7940364357416
1.195999999999998,1.4393761628597348e-07,5.999999723718064,1.090567089614572,4.179195202052046e-05,2.6729257717992523e-05,1.7150813449070304e-06,1.0702594974573345e-22,6.0,1.0784612875935784,8.297030559097506e-23,5.673603180720738e-07,5.450730089892641e-08,0.9213330330836582,0.0,0.0,0.0,-0.5853336580223641,2.8761676231094244e-08,4.891624796496504e-06,-3.2435212581929224e-08,519.3949380023469,519.3965704926312,519.3948333969549,519.3964468024438
1.2479999999999976,2.029648625669776e-07,5.999999681429985,1.1372515399922396,-6.61039255054597e-05,-0.00010055844331396779,1.881280356495516e-06,1.0175725712987446e-22,6.0,1.1238269603189215,7.888582853245531e-23,2.367541838175026e-06,-1.6222838092203236e-06,0.8819732187455063,0.0,0.0,0.0,-0.5626844823282902,9.467260129370322e-06,1.2022634666329885e-05,-1.3931295799981032e-08,520.0294021066188,520.0365233069178,520.0324903582217,520.0333371439227
1.3000000000000007,2.2155479234754766e-07,5.999999665670285,1.1819247973106302,-9.094104898530283e-05,-9.065360140914056e-05,1.8420274281868835e-06,9.667770179398723e-23,6.0,1.1675640810354542,7.49479773899418e-23,1.3957297540809134e-06,-1.350309451770715e-06,0.8437621217335621,0.0,0.0,0.0,-0.539786827375912,4.233442170046713e-06,1.679940316169902e-06,-3.0095346345377724e-09,520.6754042702134,520.6773613921113,520.6767948263597,520.6759497069196
1.3520000000000003,2.0218975712220732e-07,5.999999687421672,1.224646746774498,-1.5948895309516893e-05,1.3912404006062311e-05,1.738493383046125e-06,9.178857135773516e-23,6.0,1.2096615627930538,7.115775037178686e-23,-5.489920431271011e-07,2.6376416434662546e-07,0.8067053261422981,0.0,0.0,0.0,-0.5171177737358417,-5.399925627057221e-06,-8.550594079449305e-06,1.501492673267059e-09,521.3149138039494,521.3103023068164,521.3131340689109,521.3120925809454
1.404,1.865743878466312e-07,5.999999717094379,1.2654779056846852,3.980940246438078e-05,5.5065387785819876e-05,1.6398603054539216e-06,8.708988827125832e-23,6.0,1.2501192122865152,6.751516488213396e-23,-8.728776756461501e-07,9.906305950511085e-07,0.7708120013435039,0.0,0.0,0.0,-0.49508966978440544,-5.619816583375781e-06,-5.071666920109355e-06,2.2963601363246938e-09,521.9318728372965,521.9283428316126,521.9300253884176,521.9302063709162
1.4559999999999995,1.9259421459517338e-07,5.99999973136969,1.304477666456317,1.1070959892195495e-05,-4.0038792575458834e-06,1.566001441477387e-06,8.258059345102614e-23,6.0,1.2889461486731593,6.401939988193238e-23,1.7384265502311621e-07,3.682092754289772e-07,0.7360438920940721,0.0,0.0,0.0,-0.473657229350375,1.5823108970863716e-06,4.243178514315956e-06,1.652640832995345e-09,522.5292512435806,522.5311724356982,522.5297788568483,522.530656386181
1.5079999999999991,1.975356567697676e-07,5.999999740705208,1.3417035245886728,-4.030300046672925e-05,-5.879488471050227e-05,1.5142895864389477e-06,7.825870936642023e-23,6.0,1.3261593993283474,6.06689223194306e-23,6.395994873719147e-07,-2.0152950307129617e-07,0.702368592354037,0.0,0.0,0.0,-0.45272326751822173,4.9638794782904725e-06,5.7491282842119e-06,7.942997062068828e-10,523.113929802152,523.117458898006,523.1155677895572,523.1158264674516
1.5599999999999987,1.7899893743399693e-07,5.999999765730588,1.3772113172026692,-3.775916108487217e-05,-3.526618824027222e-05,1.4759295789375234e-06,7.412148463842112e-23,6.0,1.3617826547896081,5.746159922819765e-23,-7.407032691686681e-08,1.6687400137711788e-07,0.6697565203611926,0.0,0.0,0.0,-0.43212426419390865,9.83938585081712e-07,-7.087102548698099e-07,1.9324698967726552e-10,523.6911240763649,523.6912146428826,523.6914485252133,523.6908915429045
1.6119999999999983,1.457598496107615e-07,5.999999805965994,1.4110559517870611,6.271690061923102e-06,2.0223972586883862e-05,1.4435625675106106e-06,7.016552201703556e-23,6.0,1.3958451668168363,5.43947969397562e-23,-8.199047468828885e-07,8.401377787114278e-07,0.6381970531803102,0.0,0.0,0.0,-0.41181790518484185,-3.4023915261584792e-06,-4.752745629740481e-06,-1.1069130716192099e-10,524.2591902628825,524.2565096375831,524.2580714992839,524.2576276326381
1.663999999999998,1.203206807818489e-07,5.999999843743369,1.4432917128376512,2.71942807198801e-05,2.9601942567494013e-05,1.4129328171973e-06,6.638689142708297e-23,6.0,1.4283807750202406,5.146546872067846e-23,-7.007061401397706e-07,9.262695967270272e-07,0.6076748651610482,0.0,0.0,0.0,-0.39168033969244204,-2.313916854263093e-06,-1.5990811991161843e-06,-2.0093867907819431e-10,524.8198578784536,524.8185730365602,524.8190973990758,524.8193321170045
1.7159999999999975,1.0723800804123456e-07,5.999999870064722,1.4739722133566122,5.641239434829377e-06,-6.255098050275381e-06,1.38231935599966e-06,6.278122961108593e-23,6.0,1.4594270488928947,4.867023201928296e-23,-1.8459315833229514e-07,5.246616092007066e-07,0.5781817611324515,0.0,0.0,0.0,-0.37164565260614285,1.527664889567886e-06,2.90007935065191e-06,-1.9332744331272597e-10,525.3763915125163,525.3778438286364,525.3768919199542,525.3773420768604
1.7680000000000007,9.241788433842757e-08,5.999999893183317,1.503150890917787,-1.7475370263803715e-05,-2.7053144082010988e-05,1.3514915198540427e-06,5.93686880187222e-23,6.0,1.4890245333432743,4.600543639375842e-23,-1.0566428152104669e-07,3.200160521101098e-07,0.5497131912180411,0.0,0.0,0.0,-0.3516692571260564,2.4043257743219573e-06,2.4808431912628594e-06,-1.5698350785655928e-10,525.932007033872,525.9336076939428,525.9327942831823,525.9328193546536
1.8200000000000003,6.712887753867409e-08,5.999999922582688,1.5308806417611465,-9.336382378721163e-06,-6.9075199490581155e-06,1.3206943153724272e-06,1.3088944312124759e-10,6.0,1.5172160869662734,4.346722309062266e-23,-4.605230225007969e-07,5.167467588627274e-07,0.5222582980318912,0.0,0.0,0.0,-0.3316770067841812,-1.3572898801817642e-07,-1.121351402258872e-06,-1.231288401054506e-10,526.488556621514,526.4881451648793,526.4885117684119,526.4881891630437
1.8719999999999999,3.918321871047541e-08,5.999999955306909,1.5572143726421168,1.3577402351556541e-05,1.9950600015409334e-05,1.2902759842259336e-06,6.288222570677816e-10,6.0,1.544046303329238,4.105157714896265e-23,-6.550233836995863e-07,7.11623526696604e-07,0.4958241133757527,0.0,0.0,0.0,-0.31175853707559026,-1.9361490634094767e-06,-2.470230480274525e-06,-1.0375062786327739e-10,527.0419822574495,527.04054151262,527.0413488394412,527.0411742119419
1.9239999999999995,1.9599439293185833e-08,5.999999982090488,1.5822050200907452,1.8788375574191244e-05,1.7884989527697303e-05,1.2604463873269541e-06,1.3001155284557928e-09,6.0,1.5695610064918093,3.8754372821069045e-23,-4.529909698937642e-07,6.011383977497179e-07,0.47040576733986345,0.0,0.0,0.0,-0.2919427617007567,-7.956109400280923e-07,-2.763668582796137e-07,-9.316245206874322e-11,527.590922326846,527.5905721895247,527.5906621357655,527.5908317351101
1.975999999999999,7.89404926203343e-09,6.000000000567586,1.6059051259226818,4.334009625856911e-06,-2.8956276912202138e-06,1.2313049623614507e-06,1.995709476956519e-09,6.0,1.593806812833563,3.6571413023078813e-23,-1.936738565955923e-07,3.5823032489311843e-07,0.4459927509754914,0.0,0.0,0.0,-0.2722351071003184,1.1232808315033982e-06,1.777805626056472e-06,-9.021737680378904e-11,528.1361941642533,528.1371407590996,528.1365603672605,528.1367739320083
2.0279999999999987,-4.307927205650943e-09,6.000000016495526,1.6283668051606626,-5.617028929998178e-06,-1.0083962327301682e-05,1.2028779740726632e-06,2.6376480441386975e-09,6.0,1.6168307520392287,3.4498463459393385e-23,-1.9110394893213047e-07,2.759962276031257e-07,0.42258163587647646,0.0,0.0,0.0,-0.25273787889992,1.1042482791815487e-06,9.967173710201498e-07,-8.944294825025302e-11,528.6758615220439,528.6765463460466,528.6762211501231,528.6761860996944
2.0799999999999983,-2.0190171912525176e-08,6.000000034094685,1.6496422019368597,1.4931151460524958e-06,3.126413357663246e-06,1.175137822919877e-06,3.16243677442894e-09,6.0,1.638679940794884,3.253128200128868e-23,-3.276905726305449e-07,3.4968836478081493e-07,0.4001704634350225,0.0,0.0,0.0,-0.23359018105635826,-3.9714542792368997e-07,-9.490385916725055e-07,-8.887257850316234e-11,529.2057518522464,529.2053134933356,529.2056222225533,529.2054425091687
2.131999999999998,-3.457777848356959e-08,6.000000050688923,1.6697826004584233,1.2462678097966314e-05,1.4651483533148363e-05,1.1480575273677799e-06,3.496446566625307e-09,6.0,1.659401303386441,3.0665643842699175e-23,-3.2841508887959654e-07,3.645058900852512e-07,0.37873762628321694,0.0,0.0,0.0,-0.21480757133375133,-1.0463155690446216e-06,-1.2072140893337918e-06,-8.790900967867331e-11,529.724621376504,529.7238882765303,529.7242806944014,529.724228352201
2.1839999999999975,-4.270615966494438e-08,6.000000061828416,1.6888381759093636,1.1715748775763563e-05,9.38031679649058e-06,1.1216058717033419e-06,3.5809225852982635e-09,6.0,1.6790413339698909,2.8897362904104996e-23,-1.7307433997651466e-07,2.4159038163541393e-07,0.35826027577267916,0.0,0.0,0.0,-0.19640448163230056,-1.753550949826966e-07,1.8571815225854004e-07,-8.613982583224525e-11,530.2320018487019,530.2320052166993,530.2319445612762,530.2320619102131
2.2360000000000007,-4.6588233760009416e-08,6.000000067725616,1.7068581393043363,2.585419135697542e-06,-2.212413002284165e-06,1.0957662632276904e-06,3.3993390104292032e-09,6.0,1.6976458958065508,2.722230990829215e-23,-5.8221563432654444e-08,1.0963573699244313e-07,0.3387227451248489,0.0,0.0,0.0,-0.17847258529061416,7.197443251695203e-07,1.0124834412494722e-06,-8.472274738267496e-11,530.7260033296081,530.7265657799481,530.7262367371987,530.7263317889112
2.2880000000000003,-5.100452698517113e-08,6.000000072124297,1.7238906128541631,-1.3623148327804357e-06,-3.692449590650634e-06,1.1146886622545606e-06,2.964791604262432e-09,6.0,1.7152600532309215,2.5636427509047894e-23,-7.80426372514089e-08,7.9316195605827e-08,0.3200994828229526,0.0,0.0,0.0,-0.16103464970535264,4.4969277929308655e-07,3.0255096145173375e-07,-5.167545405091919e-08,531.2064755272504,531.2067195581985,531.2064435937615,531.2063958603376
2.34,-5.674498969327704e-08,6.000000076791879,1.7399823779830965,3.3928587334136946e-06,4.168913982319249e-06,2.3346082369539377e-06,2.2934621970451532e-09,6.0,1.7319279325481864,2.4135742815188775e-23,-1.2573710706477547e-07,1.0122134100824658e-07,0.30236529003152496,0.0,0.0,0.0,-0.1441246073385175,-3.645957017112088e-07,-6.557251770993409e-07,-1.4101119205625093e-07,531.6721886757347,531.6718579692202,531.6715857068825,531.6714913458793
2.3919999999999995,-6.069233235672223e-08,6.000000079912114,1.7551787859850378,7.983503207901386e-06,8.353621241263649e-06,2.6749541690381282e-06,1.3933477582463408e-09,6.0,1.7476926084469484,2.2716377617336856e-23,-8.985991397035686e-08,7.487013741802625e-08,0.2854937015214932,0.0,0.0,0.0,-0.12778081147492654,-5.159839753621171e-07,-5.313551771615307e-07,-5.8877609167232286e-08,532.1213572918556,532.1210181147172,532.1209879421165,532.1209829642044
2.443999999999999,-6.10904515518291e-08,6.000000079618783,1.7695238875192107,5.668322623062854e-06,3.5688409111143667e-06,2.207198640311373e-06,2.769014343707925e-10,6.0,1.7625960128642881,2.1374556593211244e-23,-5.073755965020796e-09,-2.9824249349649365e-09,0.2694576817044124,0.0,0.0,0.0,-0.11203018835490368,5.242511543845664e-08,2.7454566647710654e-07,-5.170299518209713e-10,532.5536746820251,532.5537804843722,532.5536898713243,532.553761745868
2.4959999999999987,-5.98495597890018e-08,6.000000076831889,1.7830603523287196,4.507966297185741e-07,-2.271845022421582e-06,1.5749419553588252e-06,-1.0247285015978348e-09,6.0,1.7766788635579835,2.0106613738594947e-23,3.1062887753915405e-08,-5.815943934428504e-08,0.2542301902905163,0.0,0.0,0.0,-0.09690477490145254,4.192376041442755e-07,5.309809375096937e-07,1.989235825624911e-08,532.9686751819264,532.9689824174833,532.9688789580982,532.9689150882297
2.5479999999999983,-5.9426349449924666e-08,6.000000073736489,1.795828972725926,-7.464777656333855e-07,-1.6444390061432334e-06,1.1026223940277026e-06,-2.471906517149397e-09,6.0,1.789980609927876,1.89089972452827e-23,6.595911276195418e-09,-5.9381458787816505e-08,0.23977331632012336,0.0,0.0,0.0,-0.08235200447367474,1.5124192842177013e-07,2.9090130279740254e-08,1.9316666274340604e-08,533.3679149842118,533.3679732476106,533.3680300483452,533.3679905823841
2.599999999999998,-5.96685898480379e-08,6.000000070923508,1.8078691420026338,2.0995388029048077e-06,2.689366880383412e-06,8.449485174896509e-07,-4.031729685757272e-09,6.0,1.802539393887735,1.7778273023964294e-23,-1.0657936970816016e-08,-4.909574591496471e-08,0.2260624179928353,0.0,0.0,0.0,-0.06840836750137717,-2.493453573666927e-07,-3.902838204510279e-07,1.2031594269236881e-08,533.7501885328612,533.7499820233335,533.7501492331991,533.7501037300635
2.6519999999999975,-5.882694590269441e-08,6.000000067282903,1.8192184238560702,3.737359985799379e-06,3.7883004975495874e-06,7.424095836865768e-07,-5.679528735068438e-09,6.0,1.8143920238231028,1.6711127048917625e-23,1.5586046510986134e-08,-6.787060428125457e-08,0.2130602235810361,0.0,0.0,0.0,-0.05501464049962371,-2.2515409598983667e-07,-1.9529154015024212e-07,5.2686801557827325e-09,534.1169655118806,534.1168298607818,534.1169108997472,534.1169205344968
2.7040000000000006,-5.637885101913468e-08,6.000000062173205,1.8299127606346957,-2.4401684673836763e-06,4.758251283924624e-06,1.034196002560942e-06,-7.389522303275789e-09,6.0,1.825573959881864,1.5704366682365585e-23,4.256839695738956e-08,-1.0934479672922082e-07,0.20073836661431815,0.0,0.0,0.0,-0.04216930006400882,1.2414038658280298e-06,-9.196791669090243e-07,-5.6371034073846185e-08,534.4684974462765,534.4686011781052,534.4687049155674,534.4680081298493
2.7560000000000002,-5.188096758501866e-08,6.000000058150135,1.8399870086058918,-8.03942654232488e-06,5.174125219993977e-06,1.3418727563665178e-06,-9.130438104159056e-09,6.0,1.836119309034758,1.47549211192005e-23,8.981065914692908e-08,-7.685672770131382e-08,0.18907800332421731,0.0,0.0,0.0,-0.029951709057101872,9.082018689687275e-07,-4.349011093186293e-07,-3.4829062001742645e-08,534.8025879796752,534.8027404879556,534.8027615817683,534.8023288033143
2.808,-4.5392440499836996e-08,6.0000000573575,1.8494743087826953,1.909597135416139e-06,-3.695646747548253e-06,1.264398981518822e-06,-1.0865486450548525e-08,6.0,1.8460608285147504,1.3859841077321783e-23,1.3434827934998836e-07,-6.30936856191499e-10,0.17803902991434997,0.0,0.0,0.0,-0.018261268894461433,-7.311126379819419e-07,6.999472946147094e-07,-7.590046990594032e-09,535.1221615375282,535.1221515013408,535.1219001706734,535.122361015477
2.8599999999999994,-4.050966867281921e-08,6.000000055848197,1.8584062336682867,1.1304651300499866e-05,-9.18597966238578e-06,1.0336276704679634e-06,-1.2552062158705693e-08,6.0,1.8554299363987707,1.3016297844914227e-23,9.109843911676315e-08,-2.7673546222737767e-08,0.1675971957105964,0.0,0.0,0.0,-0.007113707263046387,-1.048746584361513e-06,6.765125561072221e-07,5.234466381454103e-09,535.4267170583857,535.4265972558895,535.4263973920058,535.4269526618875
2.911999999999999,-3.954386701230379e-08,6.00000004971826,1.8668129234244657,6.691677552316851e-06,-4.137844760096949e-06,8.237820909909555e-07,-1.4157394950370832e-08,6.0,1.8642567282345006,1.2221581783463056e-23,6.175645180781574e-09,-1.323333493100768e-07,0.1577248982524281,0.0,0.0,0.0,0.00350253498183066,1.1014432950798719e-07,-2.4678490592515193e-07,7.55564412327255e-09,535.7165225203586,535.7164785667592,535.7165837309833,535.7164689164507
2.9639999999999986,-4.032716558519939e-08,6.000000040633249,1.8747232241657805,8.813300580423004e-07,7.966735903194523e-06,1.0268554252064952e-06,-1.5674276923752368e-08,6.0,1.8725699987400377,1.1473100374034625e-23,-2.3411424395348135e-08,-1.783999501684175e-07,0.14839690927319799,0.0,0.0,0.0,0.013589225457335881,-1.2293446292745104e-07,-1.645146501276087e-06,-3.8968537883714845e-08,535.9921082835725,535.9915398316131,535.9919358653191,535.991446462035
3.0159999999999982,-3.799886419740947e-08,6.000000031232265,1.8821646691883147,-1.5442053356637674e-06,7.749088935483e-06,1.1231446683671277e-06,-1.7109025716910127e-08,6.0,1.8803972677167593,1.0768375884223974e-23,6.032041770441369e-08,-1.8096849115380145e-07,0.1395869780669365,0.0,0.0,0.0,0.02316600856484078,5.1378883946790584e-08,-3.753118148688625e-07,-1.8533165402036232e-08,536.2530403992106,536.2529363029427,536.2529937372425,536.2528566196162
3.067999999999998,-3.255843223516311e-08,6.0000000226962555,1.8891631033438732,-4.013858746047658e-06,-6.301355948637229e-06,9.881640292147993e-07,-1.845592671695553e-08,6.0,1.8877648094167154,1.0105042724075628e-23,1.1496888032383955e-07,-1.6062012198175294e-07,0.13126136355714668,0.0,0.0,0.0,0.03231981920044849,2.271143334946277e-07,1.21196389871697e-06,-1.0365954583553138e-09,536.5022714635315,536.5027336981162,536.5023408813764,536.5026572168769
3.1199999999999974,-2.970695545066002e-08,6.000000016055252,1.8957432586854657,-4.1144247144295385e-06,-1.2206692729215588e-05,7.955453533647334e-07,-1.969417109342085e-08,6.0,1.8946976846965067,9.480844551123904e-24,3.915247559074616e-08,-1.2004885290622195e-07,0.12340539266867104,0.0,0.0,0.0,0.04099458116648269,8.376642085207795e-08,8.321437175324547e-07,5.5765077952255825e-09,536.7387218161343,536.7390158786069,536.7387677012513,536.7390079755547
3.1720000000000006,-3.199055831230457e-08,6.000000011348766,1.9019287059409287,-1.9913033188504082e-06,-2.818356701569469e-06,6.457272993630066e-07,-2.08128487933173e-08,6.0,1.901219775370882,8.893631177383053e-24,-6.361289244670697e-08,-8.369447724550169e-08,0.11599200633605344,0.0,0.0,0.0,0.04923546484718651,-1.362215113620064e-07,-5.878789941009189e-07,5.712353446209985e-09,536.9634432635371,536.9632108807216,536.9634189920134,536.9632740433041
3.224,-3.561191799540985e-08,6.000000007675998,1.9077418609180337,-5.340679001984231e-07,6.852511228426275e-06,5.590188098400215e-07,-2.183005258259214e-08,6.0,1.9073538202520388,8.341355324565836e-24,-6.731846071592366e-08,-6.798676196242981e-08,0.10900080198203235,0.0,0.0,0.0,0.057044071911467494,-1.2597141939690717e-07,-9.184317822199584e-07,3.642972256564082e-09,537.176096034422,537.1757609907377,537.1760680191001,537.1758137984762
3.276,-3.6463236774608404e-08,6.0000000043819,1.9132039249721595,-1.0898434184017887e-06,4.6128873348073684e-06,5.193403161524273e-07,-2.2773209940077712e-08,6.0,1.9131214524257405,7.822069267945692e-24,-8.511693473832835e-10,-6.223575908532563e-08,0.10240851257909893,0.0,0.0,0.0,0.0644510266330788,4.6961990323586396e-08,3.371107603867403e-08,1.633799902120567e-09,537.3775037558936,537.3775296260384,537.37752437297,537.3775201236823
3.3279999999999994,-3.53208340984477e-08,6.000000001648917,1.9183349723901009,-2.0769288939432394e-06,-3.401579120913894e-06,5.045164126433243e-07,-2.3655897404911816e-08,6.0,1.91854323737355,7.333921404039217e-24,2.5561653069935675e-08,-4.9286896993208775e-08,0.09619394000055233,0.0,0.0,0.0,0.0714758969187736,1.16852811897096e-07,7.227573858600805e-07,3.866098422298958e-10,537.5685004927848,537.5687696422791,537.5685392662775,537.5687334979694
3.379999999999999,-3.548648516809073e-08,5.999999999866175,1.9231540978368595,-1.7394700950727937e-06,-4.85910043371338e-06,4.985063223714765e-07,-2.44779549908248e-08,6.0,1.9236387116024527,6.875152772606431e-24,-1.4445744135018713e-08,-2.9554252227086064e-08,0.09033869291277327,0.0,0.0,0.0,0.07812702484427714,1.3088164650526059e-08,2.860649996893673e-07,-1.5889276972189055e-10,537.7494738100814,537.7495696758048,537.7494774641768,537.7495649415123
3.4319999999999986,-3.7657041571071526e-08,5.999999998889274,1.9276793166145019,-5.190578945188919e-07,9.821816780502089e-07,4.931775525599543e-07,-2.5242927349816302e-08,6.0,1.928426421489449,6.44409355929598e-24,-4.841344570945157e-08,-1.5897827146828032e-08,0.08482253575308132,0.0,0.0,0.0,0.08442905843721747,-8.766123794788753e-08,-4.4533654027008703e-07,-2.838501895633863e-10,537.9209428990647,537.9207721506033,537.92091385182,537.9207992687765
3.483999999999998,-3.9459075105069014e-08,5.999999998198178,1.931927778456417,1.4503609486278893e-08,4.81352388692891e-06,4.858360956713461e-07,-2.5964800957101742e-08,6.0,1.932923962089968,6.0391596015477625e-24,-2.6746549304077496e-08,-1.2948691818154436e-08,0.07962883818817074,0.0,0.0,0.0,0.0903881241637927,-5.087246300127425e-08,-4.2531099548697703e-07,-2.3040617866671283e-10,538.0828946847055,538.0827421829074,538.0828776096713,538.0827576925499
3.535999999999998,-3.924854175632252e-08,5.999999997545179,1.9359156803141384,-4.780210238806205e-07,1.9943127344010853e-06,4.764979915618735e-07,-2.665600361394147e-08,6.0,1.937148015695633,5.658848917062768e-24,1.4378371239138386e-08,-1.2280114834585885e-08,0.07473987734176793,0.0,0.0,0.0,0.09601983143743284,4.3819644298764466e-08,1.551339258837805e-07,-1.4163718356674406e-10,538.2358053893827,538.2358690878395,538.2358189379974,538.2358545772067
3.5879999999999974,-3.813612722661362e-08,5.999999997114649,1.9396583869460133,-9.213348313708414e-07,-2.251506375253518e-06,4.6601151491762463e-07,-2.7318317161660148e-08,6.0,1.9411143899594738,5.3017382712172934e-24,2.0799277383742237e-08,-6.418959591292614e-09,0.07013953839984854,0.0,0.0,0.0,0.10133783298230029,5.704562182644646e-08,3.9663237018893154e-07,-7.468407624354037e-11,538.3802198595107,538.380365073462,538.3802378651992,538.3803465606493
3.6400000000000006,-3.790746216745384e-08,5.999999997086506,1.943170305116332,-5.763692007850403e-07,-2.0018984206431585e-06,4.5515700816836273e-07,-2.7947126390184065e-08,6.0,1.9448380554355629,4.9664797971995476e-24,-2.8338008617168915e-09,1.6120460188986933e-09,0.06580950072605525,0.0,0.0,0.0,0.10637541803015282,-1.0340477478611628e-08,5.485796488615012e-08,-3.9008987299346395e-11,538.5170878027625,538.5171020483688,538.5170843613992,538.5171052249158
3.692,-3.8519227016966916e-08,5.999999997317905,1.9464651006618956,5.745714114599964e-08,1.366948017602863e-06,4.44406599351861e-07,-2.8541203469978857e-08,6.0,1.9483331824055796,4.651797680347041e-24,-1.3050346085836653e-08,5.070648074225542e-09,0.061737382415482954,0.0,0.0,0.0,0.11112665192232928,-5.067367374273679e-08,-2.8789774710022307e-07,-2.6289418267146387e-11,538.6461434863344,538.6460351693478,538.6461271854191,538.6460512918404
3.7439999999999998,-3.8591406922806564e-08,5.999999997538926,1.9495557865370983,1.7744743338015172e-07,2.5628766458550297e-06,4.339574364979805e-07,-2.9104571018365782e-08,6.0,1.9516131768873832,4.3564849161320035e-24,5.066329816314968e-09,3.6658568462329473e-09,0.05790899587885284,0.0,0.0,0.0,0.11560502459802377,-1.5354601344267736e-08,-1.687836071260823e-07,-2.51440631853505e-11,538.7676768318054,538.7676179349389,538.767671835308,538.7676227608234
3.7959999999999994,-3.759349442935657e-08,5.999999997687891,1.9524545165071912,-1.724689755792287e-07,3.740846153952317e-07,4.2384342972402377e-07,-2.9639605810258677e-08,6.0,1.9546907157405122,4.079400149453658e-24,2.3855045725616027e-08,2.746213742874274e-09,0.05430899470559884,0.0,0.0,0.0,0.1198364577227118,3.176852851995643e-08,1.5061679285969616e-07,-2.7689044981990644e-11,538.8824483213779,538.8825066451502,538.8824583865008,538.882496392186
3.847999999999999,-3.641278993805358e-08,5.9999999979038305,1.9551728148144585,-3.443422826444538e-07,-1.606163067883585e-06,4.140341723048607e-07,-3.0143077373354324e-08,6.0,1.9575777808010437,3.819464601322647e-24,2.0117587845898624e-08,4.980313285643262e-09,0.05092499524834655,0.0,0.0,0.0,0.12383123044963842,2.4955949776168505e-08,1.9927037367936049e-07,-3.015618980133646e-11,538.9908269402923,538.9908986296978,538.9908348169139,538.990890548539
3.8999999999999986,-3.5895150469689655e-08,5.999999998259741,1.9577215103165386,-8.742034940674244e-08,-8.539030349326697e-07,4.04488838105395e-07,-3.061021251716455e-08,6.0,1.9602856919935125,3.575659087644721e-24,5.472133990219224e-09,7.512841282214429e-09,0.04774522069284074,0.0,0.0,0.0,0.12759580219765673,-1.4543523029545546e-08,-2.8424962399906647e-08,-3.1392178512063197e-11,539.0929892461834,539.0929755109468,539.0929844907838,539.0929800534653
3.951999999999998,-3.5759328928068697e-08,5.999999998650764,1.9601109045783063,2.0673872427099656e-07,9.592377392562635e-07,3.9517662180452867e-07,-3.103997205160293e-08,6.0,1.9628251393810066,3.34702113360546e-24,2.957270945306819e-09,7.209077435249321e-09,0.04475886167365498,0.0,0.0,0.0,0.1311364903350719,-2.65123808099855e-08,-1.669924051747753e-07,-3.1517486649010995e-11,539.1890420677217,539.1889802233101,539.1890334874803,539.1889885898596
4.003999999999998,-3.525167601498877e-08,5.999999998951654,1.9623506495003542,1.722276397741677e-07,1.1149871679654438e-06,4.0847618755507197e-07,-3.143404082876914e-08,6.0,1.9652062141262028,3.1326421861079607e-24,1.3535121350561298e-08,5.064594569513495e-09,0.04195280317134147,0.0,0.0,0.0,0.13448085823832234,-8.688130625736286e-10,-5.084222028460751e-08,-1.6821461358957085e-08,539.2797364263796,539.2797199022382,539.279679132482,539.2796631635932
4.055999999999997,-3.428575042006224e-08,5.999999999172376,1.9644498238767776,-4.660851525132549e-08,-2.8106981935636486e-07,6.351789575396597e-07,-3.179283240034347e-08,6.0,1.967438438346232,2.931664925804091e-24,1.980595108505226e-08,4.0426539619372435e-09,0.03931800792078549,0.0,0.0,0.0,0.13762819275785415,1.994203154205306e-08,1.0880991411907019e-07,-2.5873113760032535e-08,539.3650546511591,539.3650957870365,539.364973339645,539.365001732683
4.1080000000000005,-3.3434618474726264e-08,5.999999999403256,1.966417029032075,-9.667740272443423e-08,-1.0634528509944793e-06,6.801063064731651e-07,-3.2114653271819323e-08,6.0,1.9695307938530089,2.74328067947231e-24,1.3616211338332639e-08,4.727468270837311e-09,0.03684465618742892,0.0,0.0,0.0,0.14058796062561105,9.132109527706005e-09,8.908565885044538e-08,-1.0144171652854781e-08,539.4452669044922,539.4452982801217,539.4452354486671,539.4452609898002
4.16,-3.3038608460833155e-08,5.999999999667967,1.9682603657757614,6.387575066604107e-08,-3.534619241273823e-07,5.817185329260505e-07,-3.239838987348542e-08,6.0,1.9714917497781903,2.5667269328175635e-24,5.050539768800612e-09,5.131567258595487e-09,0.03452276245186066,0.0,0.0,0.0,0.1433748557501536,-1.1756692770095524e-08,-4.441302502581643e-08,3.497031240834871e-10,539.5208106333395,539.5207926924556,539.5208080629816,539.5207976323886
4.212,-3.2815168014566194e-08,5.999999999901427,1.969987399892377,1.8172685224444163e-07,5.530629500190429e-07,4.584082884090745e-07,-3.264495141230321e-08,6.0,1.9733292890883607,2.4012849431890094e-24,4.919671927811777e-09,4.006525612188252e-09,0.032342902788506975,0.0,0.0,0.0,0.14600290164625465,-1.2643950786885013e-08,-8.902522959462168e-08,3.863753680067442e-09,539.5920336101811,539.5920011408315,539.5920426607703,539.5920182674352
4.263999999999999,-3.238115008794386e-08,6.0000000000535305,1.9716052827009012,1.1178105663526648e-07,3.8747501059228295e-07,3.6762544404955567e-07,-3.285684300939888e-08,6.0,1.97505093400151,2.24627745121928e-24,1.0175383999655858e-08,2.396564525157761e-09,0.030297504767484783,0.0,0.0,0.0,0.1484757749125893,3.3149523912456497e-09,-4.418106819081728e-09,3.580145011534321e-09,539.6590258399117,539.6590254876492,539.6590390248091,539.6590365554646
4.315999999999999,-3.1792410470664335e-08,6.000000000152213,1.9731207398833905,-1.2833248279899952e-08,-4.0864271381050987e-07,3.175050625736461e-07,-3.303576479960171e-08,6.0,1.9766637703204903,2.10106648997318e-24,1.110148601590789e-08,1.7679318969909517e-09,0.028378297380204854,0.0,0.0,0.0,0.15080350459037428,1.1270538369923265e-08,6.85820392153419e-08,2.1648832918928366e-09,539.7220825422494,539.7221080380426,539.7220934726203,539.7221117713677
4.3679999999999986,-3.1377685210371915e-08,6.000000000250349,1.9745401409310748,-1.6719140274279953e-08,-6.325712775795993e-07,2.9587592929707333e-07,-3.3182205330063436e-08,6.0,1.9781744707029847,1.9650512898470158e-24,5.880424754702953e-09,1.9803754815109218e-09,0.026578552520262137,0.0,0.0,0.0,0.1529889321281424,2.2775528620776657e-09,3.401056685198531e-08,9.144076726615904e-10,539.7812966205474,539.7813082055576,539.7813004441588,539.7813105749477
4.419999999999998,-3.1238495153383506e-08,6.00000000035185,1.9758694471818927,7.328006171234571e-08,-1.0951246049398317e-07,2.8853503698341775e-07,-3.32975671663958e-08,6.0,1.9795893168907066,1.8376662771730065e-24,1.4007943581016425e-09,1.8432250176158945e-09,0.02489066784587823,0.0,0.0,0.0,0.15504312071479934,-7.758849608857341e-09,-3.773872966632534e-08,1.7905421268307473e-10,539.8369546355923,539.8369401119526,539.8369527651059,539.8369431949928
4.471999999999998,-3.1161300918834176e-08,6.000000000420603,1.9771142599940572,1.3476069150302374e-07,3.279474774308097e-07,2.9121129258938284e-07,-3.3384644952076934e-08,6.0,1.9809142209231423,1.718379164249807e-24,2.0437063607674004e-09,9.943930030708539e-10,0.023307385562976186,0.0,0.0,0.0,0.15697882360832674,-2.995994598334026e-08,-6.779169039935006e-08,-4.681318688231316e-09,539.8894001373557,539.8893689363185,539.8893747251439,539.889362649748
4.523999999999997,-3.090302258937153e-08,6.000000000376016,1.9782798209698713,1.0988918037060792e-06,1.139443042267102e-06,3.5705476453089464e-07,-3.344655181819725e-08,6.0,1.9821547453632267,1.6066891283335576e-24,7.669741962717495e-09,-3.043428458227294e-09,0.02182297360040518,0.0,0.0,0.0,0.15879754356219544,-1.7624311951976057e-07,-1.697544330309826e-07,-7.755977326876562e-09,539.9387007424735,539.9385903146791,539.9386182363523,539.938620307267
4.5760000000000005,-3.019089554593325e-08,5.999999999889095,1.9793711179898452,5.256566487054789e-07,2.2329075450425e-07,3.696339677198264e-07,-3.348517029503448e-08,6.0,1.983316122563944,1.5021250769783097e-24,1.6475998703775956e-08,-1.2712241731885567e-08,0.020431972396939536,0.0,0.0,0.0,0.16050309824018616,4.9916641308047914e-09,3.754504807426839e-08,-3.145066329360482e-09,539.9848178241291,539.9848313988889,539.9848087708524,539.9848191596284
4.695999999999998,-2.9330935852559717e-08,5.999999999066215,1.9816290924575342,-1.4864749263253631e-06,-1.1914104716128719e-06,2.753272958756619e-07,-3.3451721093208605e-08,6.0,1.9856091537222602,1.2956730925159938e-24,-6.87510447774486e-09,5.850798596193464e-09,0.017479947912058307,0.0,0.0,0.0,0.15159778525965353,1.3937773839906165e-07,8.127943359327277e-08,2.7944612405062792e-09,539.7435774583206,539.7436479082108,539.7436314215515,539.7436128723284
4.7479999999999976,-2.989948019850206e-08,5.999999999720388,1.9824991348729257,2.2673253902438612e-07,1.4345112931471235e-06,2.17559257611081e-07,-3.3417093202506136e-08,6.0,1.9865364295376204,1.212186249552376e-24,-1.086455113760949e-08,1.4996506142646043e-08,0.016224763791172554,0.0,0.0,0.0,0.16287682536747716,-1.7699255265242463e-07,-4.1431613478689935e-07,5.922988057934014e-09,540.049178212607,540.0489895304596,540.0491417829634,540.049066054799
4.800000000000001,-2.9843461570021287e-08,6.000000000264925,1.9833056106803235,2.001276095256735e-06,2.9677561530347604e-06,1.8475715364977527e-07,-3.336693281576469e-08,6.0,1.9874052485806815,1.1339625346551437e-24,1.0882403162028447e-08,5.3242910676773e-09,0.015043389245184427,0.0,0.0,0.0,0.16572654488083635,-2.261179574122122e-07,-2.95992525280551e-07,3.1600213233407018e-09,540.1263250267863,540.126158449064,540.1262635786542,540.1262412853914
4.852,-2.8586489012410143e-08,5.9999999999853975,1.9840550430848023,7.3384862763699e-07,-5.600470196158834e-07,1.900151272069837e-07,-3.3304020820741804e-08,6.0,1.988219182492298,1.06068037681576e-24,2.8632321274897788e-08,-1.0789116135304312e-08,0.014002473664831521,0.0,0.0,0.0,0.16806386525514327,6.02524800668103e-08,2.513097846597995e-07,4.817365690761036e-10,540.189468865103,540.1895682564289,540.1894897163126,540.1895506654098
4.904,-2.7560129207308622e-08,5.999999999384164,1.9847541531313149,-1.456528645521327e-06,-3.746054955301773e-06,2.0796106520613898e-07,-3.322499564342016e-08,6.0,1.9889815948887866,9.92036934417309e-25,1.0073948807375721e-08,-9.32748830065516e-09,0.013080718161017368,0.0,0.0,0.0,0.16992840325906328,2.0826067020763703e-07,3.529487642724999e-07,-6.78467014101247e-10,540.2398995668823,540.240078581304,540.2399637022436,540.2400098548098
4.9559999999999995,-2.8109682589555342e-08,5.999999999378342,1.9854084023620298,-1.4805421430867937e-06,-2.1289864546969807e-06,2.2953824076724744e-07,-3.312673052837579e-08,6.0,1.9896956525329237,9.277470894590581e-25,-2.207173273279445e-08,5.8668244345150565e-09,0.01225517913083896,0.0,0.0,0.0,0.1713991972524146,8.400112181120168e-08,-8.051514229681561e-08,-4.973503136444887e-09,540.2798033064602,540.2798044183351,540.2798132726763,540.279760799192
5.007999999999999,-2.9550599321246886e-08,6.000000000043543,1.9860221398410511,-4.160784781024545e-07,2.216114113855039e-06,2.8536930945943676e-07,-3.301345691158129e-08,6.0,1.9903643359969236,8.675424875201763e-25,-2.581868195079967e-08,1.5983226112660085e-08,0.01150515146985871,0.0,0.0,0.0,0.1725680094623622,-1.7667852998328823e-08,-4.420885910287758e-07,-5.9516599852357576e-09,540.3115110284881,540.3113643949047,540.3114852589447,540.3113498952388
5.059999999999999,-3.011260623246869e-08,6.000000000885978,1.9865988270261168,9.302926842535509e-07,2.3701442366161592e-06,2.9372667736479675e-07,-3.2895359377732076e-08,6.0,1.9909904498308157,8.111706222546518e-25,-4.670864504547492e-10,1.4691495188703702e-08,0.010816353873632552,0.0,0.0,0.0,0.17349908100973185,-1.1450277778604806e-07,-9.948536235525442e-08,-2.282358716908762e-09,540.3366623940306,540.3365941483639,540.3366181555882,540.3366229449823
5.111999999999998,-2.9675571641247093e-08,6.000000001330483,1.9871412520709943,1.1289790834532411e-06,-1.2154585741712094e-06,2.690991311927524e-07,-3.277800037012805e-08,6.0,1.9915766322504884,7.583939631327478e-25,9.802473287592896e-09,4.265726455264513e-09,0.010176161223318422,0.0,0.0,0.0,0.17426278089703162,-4.491736248711084e-08,3.075392771917056e-07,6.585174212461261e-11,540.3572488808686,540.3573326337454,540.3572347790096,540.3573471811201
5.163999999999998,-2.9708625319153747e-08,6.00000000128101,1.9876516448199955,1.7677716830044925e-07,-2.7666084690730583e-06,2.38849825502424e-07,-3.266065747981118e-08,6.0,1.992125364360319,7.089891250860797e-25,-9.628667409199573e-09,-3.147919630769468e-09,0.009575621572466771,0.0,0.0,0.0,0.1749127937345352,6.78604744934505e-08,2.1289873309314296e-07,8.364841838229124e-10,540.3748340405807,540.3749235747157,540.3748585108066,540.3749047635192
5.2159999999999975,-3.1348431614486145e-08,6.000000000911738,1.9881318755668593,-2.1983591820514402e-05,4.410950072316713e-05,-1.0359107547837676e-06,3.9717961302175624e-05,6.00001916169377,1.9926389789257635,6.627460786712076e-25,-7.50059115154406e-08,-2.4175947793979277e-08,0.009008703179900844,0.0,0.0,0.0,0.1754902138493049,-0.07923168194763995,0.1643644125999641,1.4629912766699473e-06,526.639036754685,553.7957853043554,500.0467278752601,577.9294191529502
5.268000000000001,1.1820237961851625e-05,6.000005682159071,1.9885736113106194,-0.4327626634220523,0.8617954578310134,-0.004083291960755718,0.0018935875309229145,6.000974839290609,1.9931196687116202,6.194673993384047e-25,0.0008386492184193994,0.00040327363090660745,0.00812398234921023,-0.3376577723522969,0.6600524849459142,-0.0003815709350235027,0.17934764850052734,-0.1482650620371197,0.23216376564455038,0.0015321622567294033,524.2863669664524,551.1732780953427,478.933921699391,600.4106502204668
5.32,0.0004948503829210985,6.000253220559642,1.9889667442292243,-2.6177822696011503,4.738114128315888,-0.09116080547102766,0.007409147751423983,6.004161855457181,1.9935694944018274,5.7896755437616415e-25,0.018679169451184176,0.009711843433269886,0.008817438966012971,-0.9593550593610345,1.6108286197240929,0.012966637814203628,0.1867629337736045,0.02013043561735446,-0.13473967238753368,0.018307217775570914,527.8618735559379,489.01732883921335,593.7197645027029,546.9250332514267
5.372,0.0031015489498569947,6.00168736014312,1.98919139477899,-5.543928661324983,8.874148886605889,-0.24533422033987928,0.016563057695476682,6.010041441324663,1.993990392116745,5.410722260962608e-25,0.07498753073357486,0.04192370154939028,0.01724518846236928,-0.8627527151300087,1.0111062839603302,0.07172858368548116,0.23187621515300302,0.15655833501175132,-0.31123749889008745,0.013815195213129055,543.2066445275057,491.69411326035436,632.0891433349724,488.17035455013627
5.4239999999999995,0.00957184291164193,6.005548700009489,1.9890462376230245,-6.858530832875687,9.34831137602166,-0.02143633264268412,0.028946379746227834,6.0186860137399,1.9943841805438223,5.056176698275473e-25,0.1566688077475364,0.09432040366766095,0.03150880931534964,-0.1554166040706653,-0.4036909479323033,0.08270572350061767,0.30765384995430345,0.0819819487824896,-0.06421857859237777,-0.034008932185035534,595.810665335885,600.9263811592455,508.8384882874283,456.6491231407478
5.475999999999999,0.020114895381257717,6.012435529189574,1.9885834245425082,-6.399115557653503,7.144482087594588,0.3144078332519918,0.04426262286329262,6.029925336603854,1.9947525676974311,4.724501052974607e-25,0.23043492542284785,0.15136433563440815,0.03695247178622317,0.2527229395197146,-0.7622695531703043,-0.023096623614126212,0.3590338976451953,-0.03812626440313331,0.20457755141213813,-0.026483500005939634,563.129267194836,611.949512167261,455.1446573851669,539.2632174407349
5.527999999999999,0.03379189318697357,6.022177140636989,1.9881214799016615,-5.789075276973028,6.262271535267996,0.2032223965574351,0.06232146070905383,6.043435844617351,1.9950971573234568,4.414251399976367e-25,0.2835930895990472,0.2031933846235648,0.04396849420146122,0.12973105597149212,0.10811929759015429,-0.08264749909710921,0.3627971205032408,-0.050139927818702336,0.13949665279025056,0.017192934838606573,500.67398363140603,530.5387255743155,544.2858715321219,601.3364971555832
5.579999999999998,0.05016950821798738,6.034459213695336,1.987811069878157,-5.861610808554267,7.873507214003564,-0.12090166379139572,0.08294774125681086,6.0588349791412375,1.9954194549639859,4.124072231527941e-25,0.3351192895737125,0.25049023357899125,0.0661371189798811,-0.08017014882390547,0.7105894347040128,-0.0214216612086186,0.3577201382049892,0.026349625849510047,-0.11591066406609582,0.027950505735985107,511.5608053444761,480.444730758194,610.7017084231985,569.1453230031105
5.631999999999998,0.06985736075512494,6.049229107632471,1.9876032546732452,-5.988732195243963,9.305679009820686,-0.19021026620393341,0.10596195247661541,6.075751032128125,1.995720873697116,3.852691289393494e-25,0.4023017042148219,0.29686519082094887,0.093490039281973,0.03554152030676636,0.1978446721312333,0.051421255306110136,0.3617436092051988,0.054751312684910805,-0.16350808157730468,-0.0019848894522520866,565.5426905873591,531.3712310962212,575.718972809139,506.1906518802705
5.6839999999999975,0.0934045929403238,6.066472636224446,1.9874388764981754,-5.368477122701377,8.456290361130902,0.03872259095415086,0.13125451398652488,6.093865400934004,1.9960027395665887,3.598914676312091e-25,0.47723782892393923,0.34152517767316104,0.10243116020944303,0.2928936182308453,-0.5597304710314759,0.03182545006091736,0.36479606505487194,0.005517496531648944,0.030125069086129455,-0.023163477793425327,577.7163246171821,588.2519904983433,500.9764057928741,509.3705805054937
5.736000000000001,0.12040462298676538,6.085887201884252,1.9874074298159916,-4.32205345794408,6.682898092739743,0.16819381541290634,0.1587651718049878,6.112918322042025,1.9962662967155471,3.361622233841749e-25,0.5390381264747187,0.38013857677679336,0.09499324088314576,0.3465831799710886,-0.49146003813188816,-0.032176115874506514,0.340513485966121,-0.03404887769675762,0.15382111498922788,-0.006970012082755615,537.53930848853,574.6548112430122,501.7297517181685,562.5676492601236
5.788,0.15004301957943986,6.106970197367147,1.9876202398563634,-3.509078134380669,6.353948539839155,0.059885617505008475,0.18850086305236652,6.132682135714905,1.9965127122383342,3.1397631740673717e-25,0.5845061744888642,0.4102105523975349,0.09632509033758752,0.21807205901966603,0.1602220941773001,-0.0430724295009776,0.3010196760981365,-0.024449381334165625,0.047523630867933965,0.011387856755345843,520.4814781316298,528.0658449476049,551.4579529802676,573.5080279210623
5.84,0.18209570783035764,6.1293020361385535,1.9880402098291778,-3.0834885936616323,7.4024662850348095,-0.0692391186246032,0.2204017361686196,6.152966429136472,1.9967430807638091,2.9323519530315774e-25,0.6298462062548992,0.43300445985292235,0.11367497455283257,0.11829863159133595,0.38223784098337976,-0.007299539421288355,0.26880419105085374,0.0071630874961708425,-0.0901615324597002,0.009333209901366865,540.3642661781639,513.2134326712679,573.2210730119534,543.1752503762372
5.8919999999999995,0.21693030570266036,6.15263701579145,1.988555488270306,-2.683648595442071,7.869185321585559,-0.06691951467988866,0.25437861340798223,6.17361368584438,1.996958428783234,2.7384643741427556e-25,0.6845370318268996,0.45098559479762546,0.12671799267192896,0.15948415320496673,-0.05081907532333776,0.01534395693821485,0.2499497640037934,0.011021065267739846,-0.07536559099643558,-0.0023441513090304155,556.3923881765049,536.0933429585008,552.0880627703247,524.4310872882112
5.943999999999999,0.2546879471554878,6.176761751245553,1.9890975093625527,-2.0687606266698415,6.908882057019237,0.006557645794706842,0.29032757662186903,6.1945024717790815,1.9971597187353252,2.557233910218198e-25,0.740384812707017,0.46468919547916887,0.11925515352468526,0.22499618869363505,-0.445231789219226,0.0054456551626795935,0.23397402338245857,-0.009113238527481918,0.05414510427080951,-0.005682701369559131,544.3890365816095,558.4619138243842,521.9615612954186,542.4444068183888
5.995999999999999,0.29491492797921737,6.2013860839216335,1.9896740167386395,-1.4117740156358713,5.7724261202639715,0.02965299095337726,0.3282020106447863,6.215531384939026,1.9973478528606126,2.387848233229925e-25,0.7847677002032336,0.47299910819606533,0.10384802204938463,0.20338740171483644,-0.266720399815368,-0.00883402182500961,0.21331256528901898,-0.02060503129210662,0.09646892677402058,-0.0004049314721843321,529.9008169635335,554.0229756512502,521.7403472721436,559.073044193876
6.047999999999998,0.33707150222034127,6.226203289923468,1.9902889804138273,-0.9457433345250226,5.725952136967892,0.004059514584229601,0.36796875402619506,6.236611874769699,1.997523676836792,2.2295459412327343e-25,0.8193796521626868,0.47579418688520114,0.1017728574626302,0.1251149010026516,0.13730865448067844,-0.00751073679391495,0.19402026355521917,-0.012222719464254378,0.018454002683315228,0.0023347682147165003,535.9312471481115,537.9311487877764,539.9491718970883,549.6525056572125
6.099999999999998,0.3810711369077222,6.250990708781788,1.9908985772411119,-0.6643219040775313,6.3180134878660725,-0.014220918309592434,0.4095417034972643,6.257665286434073,1.997687983206296,2.0816134723656416e-25,0.8549127388020838,0.4746523832703148,0.11118182896841114,0.08365967988228552,0.17009797725327774,-0.0007869214165226029,0.1835672779153858,-0.0007786545983867934,-0.05816062902207694,0.0011891794421875768,547.9426709458318,529.0819185181537,551.6522236617604,533.4261056565026
6.1519999999999975,0.4271075321593873,6.275612117406481,1.9914513344363516,-0.4026484844625478,6.2971452235884735,-0.011882515854722872,0.45283943671524,6.278638154618483,1.997841514606861,1.9433821962270039e-25,0.8947847200276804,0.4710326801752183,0.11299235818130553,0.09482398446109881,-0.13820992887187866,0.0012427020445412635,0.18035720525464494,0.0007095390687079034,-0.015481053332969674,-0.00011934313087172616,543.0726347152032,538.3649938764388,542.8960662300201,537.7323049777381
6.204000000000001,0.4751356534368465,6.299948400668212,1.9919348374715675,-0.08360968156513036,5.548619409299982,-0.005981617050277078,0.49782554116374234,6.299465482875534,1.997984966815411,1.8142256733282315e-25,0.9321861874860694,0.46506833164981104,0.10150824489154123,0.11199219058291002,-0.2783091224888903,0.0007668094260931092,0.17811769826394408,-0.007203134386036546,0.058351595380926116,-6.137590926671435e-05,532.3502011343469,548.6575566890872,529.8016529444573,550.7116368653836
6.256,0.5248056433198217,6.3238610414300505,1.9923645050026921,0.22748448951080105,4.994849559013604,-0.0032555253912882557,0.5444444963387588,6.320090306909782,1.9981189916151394,1.6935570737295012e-25,0.9618336464156851,0.45628656832578657,0.09076039191349118,0.09333008193978587,-0.09586559301785283,0.0013815225554501334,0.17480562661551582,-0.013298516877052245,0.05263335607871858,-0.00013900845987772713,534.3010099430165,546.8403499199858,529.5149065712403,550.5538435481327
6.308,0.5758402695267936,6.34721823023271,1.992748412409095,0.4243669410762583,5.0763359734465165,0.0015811529748230736,0.5925879708239632,6.340476332343491,1.9982441994952367,1.5808267463516695e-25,0.9872385761131474,0.44504351376970613,0.09114267657237304,0.04690593962084622,0.08322748112023606,0.001116963565210106,0.17287464751455667,-0.00912920537802199,-0.004656999293481814,-0.0004794542672842986,543.3208169424871,538.9304948693806,538.7934139652939,540.2218933678715
6.359999999999999,0.628228895355571,6.369939278378179,1.9930793634445878,0.5041338718972499,5.262137724868393,0.0033002523875486577,0.6421763197905151,6.3605937439084315,1.9983611621922903,1.4755199308412225e-25,1.0135695056805445,0.43261367253856753,0.0954716479897027,0.018514362979190586,0.017498669871210466,-0.0006193841973135307,0.1738140624014929,0.0006336641388343589,-0.030111427734628278,4.121007167382117e-05,544.9562597086591,535.5537122851498,545.294757667274,535.4904670386151
6.411999999999999,0.6820157832424032,6.391995806771905,1.9933542647409475,0.5688724965115347,5.001211082883656,-0.001752321770527057,0.6931063773715812,6.380409900410765,1.9984704150819577,1.3771546042375852e-25,1.0403982182420797,0.41988532132823664,0.09257649937206244,0.027157907520662737,-0.15226422317865018,-0.000641068595736397,0.17578832787724719,-5.280663708745817e-07,0.00878151067956952,0.000637243053911907,537.9150676363319,540.7208115864747,540.0759702128245,542.8708812335254
6.463999999999999,0.7370646607003344,6.413369239369342,1.9935840945242054,0.6707920055086384,4.4769359656855725,-0.005767879411359999,0.7453164272847587,6.399899513315112,1.9985724594291214,1.2852794550548166e-25,1.0635488355489913,0.4066812361604433,0.08349785525013044,0.0370155433585901,-0.16080120529429595,0.0014843544838450753,0.17670909200085805,-0.005132015469452519,0.053723745233090994,0.0003026059230237479,532.1003808841361,547.6111875629961,531.477486360342,550.2299758968007
6.515999999999998,0.7931285997296054,6.434027331252,1.9937830268755976,0.767020541129883,4.244480805192075,-0.0015810005645180076,0.7987603993492878,6.419030014330982,1.9986677645043467,1.1994719777413635e-25,1.0818956917114715,0.392674905954959,0.07878557703554727,0.026010753074211516,-0.017007579035079705,0.0025821853294517748,0.17672720352496563,-0.006988266594869556,0.034357286705515425,-0.0005451391516308171,536.971267949438,545.6838900942452,532.8571323692794,546.0645727337162
6.567999999999998,0.8500796306314633,6.453941062395635,1.9939570808931797,0.8055408010801143,4.368380105875411,0.005423522987822366,0.8533737176225388,6.43777356862554,1.9987567695740707,1.1193366808220048e-25,1.0987323612286386,0.3782017916207664,0.08150243734194819,0.004358413969044617,0.059436718528485574,0.0009331030124226051,0.17711315047294324,-0.004308948890063276,-0.0011239894169178047,-0.0006203013436447743,542.3462310984373,540.6172081454088,538.8753747010948,539.8929241308108
6.619999999999997,0.9079425884000154,6.473106151177301,1.9941062386662785,0.7967829236477442,4.425437333872318,0.005296683060297986,0.9090759265042724,6.456110378341095,1.9988398857715979,1.044503402355032e-25,1.116502028891792,0.36390618099327726,0.08416690749697284,-0.005826351875170789,-0.02194268929197361,-0.0009254609146213241,0.17815362953190989,-4.232884216710114e-06,-0.005264745933872479,0.00015213029114388287,541.0449992723075,539.3641918282265,541.5573710129054,539.8808609540675
6.672000000000001,0.9667213644766067,6.49153924289535,1.9942333356396484,0.7876878749717819,4.17805972425148,-0.0004572114301184033,0.9657936440311524,6.474017510342297,1.9989174978556226,9.746257266548977e-26,1.1338160647952613,0.3500384808438749,0.08091986521006174,0.0008707898007312656,-0.11320780643335704,-0.0003449288434222319,0.1789355022475326,-0.00015687176432949916,0.020058782003825583,0.0005042539821707692,536.4432181981031,542.7988056041139,538.1084445852795,544.5438891664234
6.724,1.0262948658995839,6.509257679346806,1.9943455340104557,0.8025202742266291,3.866381623618588,-0.002662613742673214,1.0234687064021921,6.491480001752623,1.998989965862658,9.093794965359718e-26,1.1482217653363875,0.3363749384912619,0.07540534230218966,0.006195104403242635,-0.08354810407786659,0.0013614365567488353,0.17891714443122964,-0.0034417150186744033,0.03225792501052756,3.779743693391958e-05,535.8052416493001,544.9943100586967,534.8263686813601,546.2079896858792
6.776,1.0865127587750907,6.5262694999958635,1.9944486835173991,0.8081608572871118,3.7719478531171804,0.0009727571964033313,1.0820230079510726,6.508486335751711,1.9990576266594258,8.484614156264717e-26,1.1599698768524547,0.32276186898527137,0.07384880364011591,-0.002435755402081693,-0.0007734880905674688,0.0015785273138266393,0.17849383762267945,-0.003777342048818008,0.014014989021361826,-0.00043064017671572976,539.5671321594265,542.8269588936814,536.8952432091115,542.5759395950569
