Time_s,X,Y,Z,Roll_deg,Pitch_deg,Yaw_deg,Ref_X,Ref_Y,Ref_Z,Ref_Yaw,vx,vy,vz,p,q,r,T_pert,tau_x,tau_y,tau_z,RPM_0,RPM_1,RPM_2,RPM_3
0.0519999999999996,4.355858927025741e-22,2.0,0.01005499812927935,-8.183679464207452e-18,-1.7848699002870838e-18,-3.2731722034729514e-20,1.5224346620818545e-22,2.0,0.016216050707931907,9.372848407458391e-23,1.1263453921752312e-20,-1.3846141964980495e-22,0.0009999909531183127,0.0,0.0,0.0,1.9189653276384246,8.102642121278305e-19,2.363781979973336e-18,1.5859946025195737e-19,585.6698474118306,585.6698474118307,585.6698474118306,585.6698474118306
0.1039999999999992,-3.278198355941448e-21,2.0,0.011081132428502297,1.6757036947067797e-16,-1.5201594710808408e-16,2.953800452268817e-17,1.5097393766691693e-22,2.0,0.032758437754563774,9.294690054508255e-23,-2.1807612730354127e-19,1.5694239624262932e-19,0.05145496510386236,0.0,0.0,0.0,3.425672078294717,-2.0012862037833802e-18,3.4857323604322636e-17,-3.492660815811614e-18,622.1513008809478,622.1513008809479,622.1513008809478,622.1513008809478
0.1559999999999988,-9.892194424202086e-20,2.0,0.018272211866243827,6.357193537378982e-16,2.079364203379728e-16,-3.135150814515434e-17,1.4903402254008765e-22,2.0,0.05803618915790014,9.175259442082218e-23,-3.211158085029642e-18,1.7716138985004443e-18,0.20507638746931103,0.0,0.0,0.0,3.9864155037457207,-1.9168445067035904e-16,-2.670518857214495e-16,1.569549905823309e-17,635.1936486708419,635.1936486708419,635.1936486708419,635.1936486708419
0.2079999999999984,8.803672648236023e-19,2.0,0.034734652699266955,9.014527028052176e-16,1.412598336494623e-14,-3.7699540431149004e-17,1.4653207632675945e-22,2.0,0.09063739605111035,9.021227461825855e-23,-3.1620847623939445e-17,7.145753374643988e-18,0.39432829593692503,0.0,0.0,0.0,4.016445992906354,8.081668548634483e-17,-2.522576279616923e-15,-2.744853028283613e-18,635.8845820180704,635.8845820180699,635.8845820180704,635.8845820180698
0.259999999999998,9.827659669759113e-18,2.0,0.06126495675431526,-2.1172582251518458e-15,1.2719926986952126e-14,6.077684274809402e-17,1.435638982411102e-22,2.0,0.12931376221384347,8.838491979403984e-23,1.0926126967096825e-16,-1.8368096606382253e-17,0.5878019620494648,0.0,0.0,0.0,3.7157960126675884,4.680002223765702e-16,-1.404280465944752e-15,-1.31023121413268e-17,628.9330698064155,628.9330698064153,628.9330698064156,628.9330698064151
0.3119999999999976,2.6194745905123893e-17,2.0,0.097480286707903,-5.498269626416341e-15,-2.6971806091504722e-15,-2.567789820253966e-05,1.40214012588893e-22,2.0,0.17296390730279548,8.632256722269098e-23,3.491325634506521e-16,-7.20529056567268e-17,0.7673622593182398,0.0,0.0,0.0,3.22328380228876,4.754967145821816e-16,4.3048688050125384e-16,3.854386648129138e-06,617.3705750675467,617.3705750675471,617.3819868766906,617.3819868766906
0.36400000000000077,4.0560879760864503e-17,2.0,0.1423163986857494,-4.8311934545286545e-15,-1.9458219474249414e-14,-4.2248326149824764e-05,1.3655682786307592e-22,2.0,0.2206182634427897,8.407102639227651e-23,5.089362153783425e-16,-7.431481753188193e-17,0.9227760982649631,0.0,0.0,0.0,2.6401114325945225,5.869110950870805e-16,1.6587602454404046e-15,1.9701614713191716e-06,603.4030286334456,603.4030286334464,603.4089968057095,603.40899680571
0.41600000000000037,-1.650939879048653e-08,1.9999999834888658,0.19433970245741905,0.00030076049052705096,-0.0003007095389743364,-5.534343095445188e-05,1.3265768475711498e-22,2.0,0.27142541925873054,8.167052421235479e-23,4.007414110615757e-06,4.008118008655082e-06,1.0489814304181637,0.0,0.0,0.0,2.039903543604639,-6.13324788370516e-05,6.132145411224416e-05,2.7988817038349066e-06,588.6772023547724,588.6771991274651,588.6679389394252,588.7038433363059
0.46799999999999997,-1.8254379196369499e-07,1.9999998174323448,0.2519873721985461,0.00020834812591718043,-0.00020844064760217756,-4.810479577507586e-05,1.2857380329668416e-22,2.0,0.3246397784282443,7.915628811434681e-23,2.4844066276046294e-07,2.466346819900289e-07,1.1449615047865813,0.0,0.0,0.0,1.4708651882821906,-9.493252072528095e-06,9.526231215723552e-06,6.838223183912568e-07,574.3721745137586,574.3721844083021,574.3715025084879,574.377208793468
0.5199999999999996,-4.4605327201410824e-07,1.9999995539524869,0.3137159118253161,-0.00035323931667523094,0.00035299212653141387,-2.863064931767959e-05,1.2435513838021858e-22,2.0,0.37961041169852133,7.655907276391431e-23,-1.105077136589381e-05,-1.105467868345019e-05,1.2119271901589586,0.0,0.0,0.0,0.9643184466907859,5.2303591826533056e-05,-5.228574331112492e-05,-4.5351479205914943e-07,561.3303019202131,561.330307399618,561.3448818703405,561.3127733834161
0.5719999999999992,-5.397343554437414e-07,1.9999994603981235,0.37811063136545375,-0.0005144631772226904,0.0005149472443385019,-1.1000872897816843e-05,1.200451521877851e-22,2.0,0.4357709921370155,7.390563559343651e-23,-1.1214301938136094e-05,-1.120357534121443e-05,1.2530069905552699,0.0,0.0,0.0,0.5341845620128955,3.011675456166054e-05,-3.0240107470610524e-05,-6.793153803427162e-07,550.0118558643568,550.0118172163461,550.0190341653101,550.0001235271825
0.6239999999999988,-3.996554607380782e-07,1.9999996178029988,0.4439401222456433,-0.00026724059657054803,-0.00012910807862470696,-1.3982366461213286e-05,1.1568151115974967e-22,2.0,0.4926307132632521,7.121916589598403e-23,4.83133412583629e-06,-2.0741825172326346e-06,1.272077383313742,0.0,0.0,0.0,0.18351027558052913,8.65436494428634e-06,7.00364956138952e-05,1.157399244349049e-06,540.5929755814337,540.6180593973831,540.5996477740614,540.6192140478529
0.6759999999999984,-3.0483459160298977e-07,1.9999998987867356,0.5101874530960318,0.00015802113712094724,-0.0004623553153228268,-1.4490307938454689e-05,1.1129671455515752e-22,2.0,0.549766098720159,6.851967179643557e-23,1.063793227604326e-05,8.171527850229241e-06,1.2730885555353848,0.0,0.0,0.0,-0.09007788798544425,-3.118602827090728e-05,4.5385824613771336e-05,4.797223082457665e-07,533.153012466092,533.1576021012482,533.144577160427,533.1693265142525
0.727999999999998,-4.039296050462657e-07,2.0000001112166985,0.5760299234563856,0.0003522819539427876,4.7351526924959355e-05,-8.831137369998258e-06,1.0691866096895032e-22,2.0,0.6068136203627762,6.582432902703639e-23,-2.4601460980571473e-06,1.0634148023979896e-05,1.2598964508647086,0.0,0.0,0.0,-0.2943613944557113,-2.3556750633539033e-05,-3.794105470226558e-05,-5.064201289839631e-08,527.5338421680428,527.5137527504734,527.5259715263331,527.5212726206506
0.7799999999999976,-4.87314855803224e-07,2.000000169756766,0.6408449513741565,0.00013388850599436512,0.0005180424096351871,-2.3387061023269874e-06,1.0257115861185441e-22,2.0,0.6634630491384107,6.314779508052164e-23,-1.102273798178495e-05,3.6791664501510128e-06,1.2361196588600087,0.0,0.0,0.0,-0.44009475817633636,1.3152406579574049e-05,-5.181763235238071e-05,-2.2505604416553843e-07,523.4753303748223,523.462601811265,523.4788742154715,523.4574860948808
0.8319999999999972,-3.576437642343733e-07,2.0000001646121826,0.7041771361887053,-0.00012350746693528064,0.0002850335080761692,2.180856572856717e-06,9.827438463218619e-23,2.0,0.7194514699678843,6.050249199096437e-23,-2.792439869085839e-06,-2.2779216728416345e-06,1.2047531821905517,0.0,0.0,0.0,-0.5379263119476299,2.3944147389360878e-05,6.966238233658248e-06,-2.0237709700750905e-07,520.7238649055714,520.7340941241829,520.7310784046107,520.7254598729187
0.8840000000000003,-1.0669098380742013e-07,2.0000002044773595,0.765709962448945,-7.004487848441288e-05,-0.00024082798319501265,3.2853736857729426e-06,9.404529828053403e-23,2.0,0.7745578980697334,5.789886069805338e-23,8.79520797862983e-06,-5.559417993098832e-07,1.1682601322313553,0.0,0.0,0.0,-0.5981481613669906,-4.258204666132409e-06,4.855806933240916e-05,1.4575438973592587e-07,519.02720015414,519.0419082317409,519.0262996702883,519.0438352789
0.9359999999999999,4.8979209009381084e-08,2.0000002710088776,0.8252390159784267,0.00015540459549284573,-0.0003493106765787284,2.1998159574551234e-06,8.989801228228348e-23,2.0,0.8285984398503752,5.534558968208598e-23,8.82723530571283e-06,3.7950652548605938e-06,1.1285680725033136,0.0,0.0,0.0,-0.629821373680552,-2.2452902926484755e-05,1.9137320955696926e-05,1.364070292142532e-07,518.1420517482962,518.1409490386452,518.1350654446387,518.1488976765316
0.9879999999999995,6.068777063319123e-08,2.0000002759933064,0.8826452615672746,0.0001600340275878993,2.2993998619642553e-05,2.2451829277561287e-06,8.584412638556261e-23,2.0,0.8814219466613622,5.284982031230954e-23,-5.1884491487173466e-08,2.665361001042601e-06,1.0871523933610567,0.0,0.0,0.0,-0.6407860182586157,-5.36931462109311e-06,-2.9018116982446956e-05,5.273294586880215e-08,517.8378475098725,517.826403966128,517.8362468509179,517.8283769404761
1.0399999999999991,7.463006940710092e-08,2.000000215489332,0.9378744777471261,-3.208175155717681e-05,0.0002621500344622218,2.748081689620602e-06,8.189302669006795e-23,2.0,0.9329061144433597,5.0417331128308325e-23,-3.7163581923363226e-06,-1.6142629343877411e-06,1.045101402583063,0.0,0.0,0.0,-0.6375125500078525,1.528106886177193e-05,-2.683105704547114e-05,5.171924057694614e-09,517.9265576497869,517.9227146996018,517.9316602264029,517.9176485413874
1.0919999999999987,1.902726509136607e-07,2.000000165566358,0.9909179415416423,-0.00012514544066195664,7.423140924751663e-05,3.382209256283339e-06,7.80521540322784e-23,2.0,0.9829539865758713,4.8052703070997465e-23,1.0925398731113296e-06,-2.766047999930181e-06,1.0031602669689887,0.0,0.0,0.0,-0.6249273618348941,1.0818229526405964e-05,1.0388382612281958e-05,-2.12511476500182e-08,518.2763468471888,518.2833979449296,518.2798689198426,518.279725997766
1.1439999999999984,3.3635996039264984e-07,2.000000165654476,1.0417975580019514,-2.331835211049472e-05,-0.000201063931945148,3.856358591252232e-06,7.432724440200634e-23,2.0,1.0314908211681189,4.5759467494747513e-23,5.5334552886437e-06,-3.2613519169838307e-07,0.961823013387893,0.0,0.0,0.0,-0.606717444856206,-6.743921782008643e-06,2.5371790873257978e-05,-2.3561688473678363e-08,518.7902875599412,518.7964751072865,518.7879644225551,518.7986321765216
1.195999999999998,4.0177608573568255e-07,2.00000017683005,1.0905546530044488,9.066688030003321e-05,-0.00018654374882131846,4.082854606963424e-06,7.07225440914816e-23,2.0,1.0784612875935782,4.354023862362699e-23,3.6639333896092688e-06,1.395525351901244e-06,0.9213884889000286,0.0,0.0,0.0,-0.5854471116341861,-1.1275728474119433e-05,3.72443516893897e-06,-1.6097024365208098e-08,519.3937841749989,519.3912787845154,519.3899864257577,519.394963225072
1.2479999999999976,3.888250150327597e-07,2.000000152806019,1.1372417926635532,6.140595337464874e-05,2.691142394277278e-05,4.116409190046567e-06,6.724100202888095e-23,2.0,1.1238269603189213,4.139683196127978e-23,-6.090725845912469e-07,2.9167062895609587e-07,0.8820210433806883,0.0,0.0,0.0,-0.5628168828195835,1.676587658422772e-07,-1.758872780983134e-05,-7.969905526857497e-09,520.0321158458619,520.0263429086797,520.0321433899597,520.0262593360277
1.3000000000000007,3.823747131558694e-07,2.000000103684997,1.181917309347003,-4.025350021318936e-05,0.00011116345198976942,4.0435499519362305e-06,6.388444152125764e-23,2.0,1.167564081035454,3.933037002422731e-23,-1.4296698924326643e-06,-1.4199561518160377e-06,0.8438036761902907,0.0,0.0,0.0,-0.5399447557083434,8.623247156876115e-06,-1.0546940708407306e-05,-2.5985018925598204e-09,520.6722652829299,520.6716286025091,520.675110167277,520.6687654542736
1.3520000000000003,4.1890674326939706e-07,2.0000000701446985,1.2246414229481908,-6.524441166085092e-05,-1.2580701509363037e-05,3.931494290763682e-06,6.065371342523694e-23,2.0,1.2096615627930534,3.734137664120022e-23,8.576480613811643e-07,-1.3537449253286118e-06,0.8067449198660309,0.0,0.0,0.0,-0.5173242868053791,3.776673382111133e-06,8.813232651872128e-06,-8.228036480597333e-11,521.3047374212709,521.3088991988686,521.3059855708844,521.3076504792239
1.404,4.508764614550112e-07,2.0000000634697814,1.2654743989900716,-8.263173500268673e-07,-0.00012824850538626693,3.816154641860906e-06,5.754883257582867e-23,2.0,1.250119212286515,3.5429860945352273e-23,1.9463002897587086e-06,-1.1565725521754816e-07,0.7708405670769739,0.0,0.0,0.0,-0.49526189434705675,-4.834014128410782e-06,1.1984329027145318e-05,6.516355467007226e-10,521.9241052575424,521.926466097872,521.9225114731147,521.9280644345139
1.4559999999999995,4.311006423299743e-07,2.0000000584330393,1.3044751679918496,4.623987899752726e-05,-8.099283838470754e-05,3.7107944675000777e-06,5.456909913264962e-23,2.0,1.2889461486731593,3.3595392080898e-23,3.734842583619672e-07,3.617169330042405e-07,0.7360566009227909,0.0,0.0,0.0,-0.473734881352789,-5.061074096300191e-06,-1.3669892734775082e-06,5.252742373691128e-10,522.5291007810918,522.5269808568905,522.5274335173013,522.5286517971066
1.5079999999999991,3.771219176118518e-07,2.0000000354905194,1.3417013829649465,1.4420474514605322e-05,3.647237112198618e-05,3.880856428862107e-06,5.171320634722729e-23,2.0,1.3261593993283471,3.183716554990757e-23,-1.4028392523409465e-06,-3.202172611222506e-07,0.7023739296401873,0.0,0.0,0.0,-0.4527603492497787,2.6663433303703186e-06,-1.1012660901860696e-05,-8.216809859893034e-08,523.1161775047456,523.113428043008,523.116768740691,523.1122625714651
1.5599999999999987,3.3695807717168694e-07,2.000000007099872,1.3772095947537053,-4.470406494337641e-05,6.616364750115832e-05,4.455382417135299e-06,4.897933611353707e-23,2.0,1.3617826547896077,3.015406203786579e-23,-1.3287698215376935e-06,-9.412465126851065e-07,0.6697659285050251,0.0,0.0,0.0,-0.4322103157428603,6.15779786726777e-06,-4.9770129473632505e-06,-6.979531167687024e-08,523.6886945235664,523.6890830738438,523.6904771984795,523.6868131646928
1.6119999999999983,3.2358706310025e-07,1.9999999965291229,1.4110548277736648,-3.4085979279264345e-05,-1.799577859599619e-05,4.389522687863135e-06,4.6365243535243016e-23,2.0,1.395845166816836,2.854469947737944e-23,-7.005359901561875e-08,-4.571973514400692e-07,0.6382107504941595,0.0,0.0,0.0,-0.41195729042124424,3.59955276289675e-07,6.461933504214758e-06,-2.1634386757807963e-08,524.252878603794,524.2551210016354,524.2529214920817,524.2549272510753
1.663999999999998,3.0422981227830604e-07,2.0000000004057124,1.4432912286312773,1.1584913295090755e-05,-6.903609537333498e-05,4.6611762519622725e-06,4.38683316261385e-23,2.0,1.4283807750202402,2.700747903740263e-23,1.5011747835569863e-07,1.8206836487777117e-07,0.607685338454939,0.0,0.0,0.0,-0.3918086625048425,-2.722964955541577e-06,4.828245630645305e-06,-1.8237369629363223e-07,524.8156117713119,524.816303049346,524.81408247974,524.816561955464
1.7159999999999975,2.5757243251974125e-07,2.0000000003249396,1.473971972574991,2.438380151945166e-05,-2.3506773262324036e-05,6.0938033262981975e-06,4.148571715397878e-23,2.0,1.4594270488928942,2.5540625659903218e-23,-7.664992964946994e-07,1.6602596131921456e-07,0.5781816795159135,0.0,0.0,0.0,-0.3716936556458862,-1.4852325628410365e-06,-2.8796124305901803e-06,-1.9560994094513803e-07,525.3768374371011,525.3754057494472,525.3756697095959,525.3752123464982
1.7680000000000007,2.0104220305458903e-07,1.9999999903528536,1.5031502286476215,5.329044879573879e-06,3.01523426337115e-05,5.969404155996587e-06,3.921428854131322e-23,2.0,1.489024533343274,2.4142223706431848e-23,-1.296800432975319e-06,-1.716436176426199e-07,0.5497016526665688,0.0,0.0,0.0,-0.351618047700826,1.237853627004398e-06,-4.87524337255847e-06,-6.038093165617181e-08,525.9349316793241,525.9337398663802,525.9351274152656,525.9331244209346
1.8200000000000003,1.5682213184730974e-07,1.9999999779652102,1.5308794783471131,-1.2862753512473396e-05,2.2904207410416193e-05,4.885055840995759e-06,5.102374653815563e-10,2.0,1.517216086966273,2.281024822304618e-23,-9.626629283587772e-07,-3.20388699346543e-07,0.5222498608879882,0.0,0.0,0.0,-0.33163214445566347,1.6704486745583682e-06,7.68023746168909e-08,1.7602938407179526e-08,526.4892801480944,526.4898520418121,526.4898880181051,526.4893664009046
1.8719999999999999,1.2291667344577014e-07,1.9999999707300895,1.557212420005928,-2.8017235984228868e-06,-1.0517800586540256e-05,4.200639757432908e-06,1.8734962122102684e-09,2.0,1.5440463033292375,2.1542592282997266e-23,-5.69653266775298e-07,-1.409799290745747e-07,0.4958073847645073,0.0,0.0,0.0,-0.3116273677118491,-1.8350631037095058e-06,2.074911138259572e-06,-4.9556181142733845e-08,527.0449475993041,527.045026021367,527.0441757264293,527.045454154023
1.9239999999999995,8.621577057191251e-08,1.9999999647315376,1.5822023488465635,1.7393002488334907e-05,-1.0254111240556284e-05,3.971248814347353e-06,3.751035386382423e-09,2.0,1.5695610064918089,2.0337090822067415e-23,-6.558921548118376e-07,-1.8703830074466258e-08,0.47039477775657546,0.0,0.0,0.0,-0.2918359766018035,-2.5580870032488474e-06,2.4712333900506875e-07,-2.585040758692606e-08,527.5941288547014,527.5933740349458,527.5932037574189,527.5941200109185
1.975999999999999,4.6022277580578834e-08,1.9999999522129277,1.6059021206661177,4.10383011403832e-06,6.995578464494231e-06,3.4966973182134054e-06,5.85113317442577e-09,2.0,1.5938068128335625,1.919154134104178e-23,-8.116314938984586e-07,-2.3639410788151122e-07,0.4459892705515241,0.0,0.0,0.0,-0.27217756337695176,6.172185162922143e-07,-1.28419453075629e-06,4.301033400910998e-09,528.1383618641815,528.1381442373815,528.1385781414531,528.1379577316987
2.0279999999999987,9.265679781003919e-09,1.999999938229677,1.628364019372038,-2.0421893667069026e-05,1.5041322340476284e-05,3.0017819953763933e-06,7.90704715983634e-09,1.9999999999871771,1.6168307520392282,1.8103721813142816e-23,-7.642418520410181e-07,-3.656719684849162e-07,0.4225911738675198,0.0,0.0,0.0,-0.2527905473298211,2.3543244089932394e-06,-7.935678301438315e-07,1.4630194566414831e-08,528.6744673934244,528.6749761340427,528.6752853870594,528.6742593074564
2.0799999999999983,-2.0567796467983133e-08,1.9999999327127842,1.6496399526893315,-2.0344960464703495e-05,7.88100817639783e-06,2.643324474841893e-06,9.705963321114294e-09,1.999999999513108,1.6386799407948835,1.7071406101012062e-23,-5.889985917835429e-07,-1.713307666550266e-07,0.40018123659092436,0.0,0.0,0.0,-0.2336666004605393,5.874013729785858e-07,5.721164311048795e-07,1.2898769286933232e-08,529.2032099301199,529.203587506294,529.2034457596525,529.2034407823857
2.131999999999998,-4.624586598585099e-08,1.9999999358578737,1.6697807781458138,3.395772677948838e-07,6.291024266008138e-07,2.4354799584063977e-06,1.1099829242189312e-08,1.9999999984357144,1.6594013033864405,1.6092377157684083e-23,-4.868609998118388e-07,8.101476878604179e-08,0.3787436785705536,0.0,0.0,0.0,-0.21485919286166622,-1.5750864366268189e-06,8.058474330131092e-07,7.60731813893876e-09,529.7229417281121,529.722691484845,529.7224555824463,529.7232301305885
2.1839999999999975,-7.081006023405137e-08,1.9999999392709873,1.6888366673224884,1.1148402408442784e-05,4.242925972207222e-06,2.330519482575839e-06,1.1987373524673478e-08,1.999999996848729,1.6790413339698904,1.5164438258681458e-23,-4.858965275734103e-07,1.0189443831862126e-07,0.3582664768925453,0.0,0.0,0.0,-0.19646914733493592,-1.1747358103420216e-06,-1.2798697185170004e-07,3.0943434895420835e-09,530.2304264422381,530.2300030554314,530.2300553186705,530.2303955135649
2.2360000000000007,-9.295925114195497e-08,1.9999999382659728,1.7068570974041213,1.417194320316376e-06,1.2021771073415718e-05,2.27634613803825e-06,1.2297931415386674e-08,1.999999994835153,1.6976458958065503,1.428542248761209e-23,-4.58782413460298e-07,-2.8175999248832187e-08,0.33873160633759963,0.0,0.0,0.0,-0.1785695927328112,6.616503418283292e-07,-7.082565083788122e-07,4.90513004422727e-10,530.7236184223243,530.7236032893338,530.7238349490867,530.7233901412689
2.2880000000000003,-1.095811074095757e-07,1.999999936577891,1.7238899611252416,-1.0204906238099575e-05,1.2778349236124386e-05,2.238707054727795e-06,1.1985510749372798e-08,1.9999999924683487,1.715260053230921,1.3453200675238584e-23,-3.4258349676466457e-07,-6.295541719183938e-08,0.32010524812583674,0.0,0.0,0.0,-0.16111990974980722,1.1931162484914779e-06,-2.502880378311578e-07,-5.728213889364983e-10,531.2040097663405,531.2043156250726,531.2043948487876,531.2039266003821
2.34,-1.2034943393649288e-07,1.999999938987728,1.7399819351456647,-7.009054192660638e-06,6.722137292280768e-06,2.2012272121219543e-06,1.104338999566095e-08,1.999999989813022,1.731927932548186,1.2665687971699047e-23,-2.1060070161741046e-07,4.038583106411476e-08,0.3023684346658289,0.0,0.0,0.0,-0.14420081721157618,9.916524570078177e-09,4.171088547934854e-07,-7.544116088990644e-10,531.6696170499036,531.6697554580247,531.6696176703874,531.6697496501909
2.3919999999999995,-1.27785112994597e-07,1.999999944332734,1.7551784860580772,4.135685401332476e-06,2.702245347575138e-06,2.159147189636348e-06,9.504671922088367e-09,1.999999987014445,1.747692608446948,1.1920849213201499e-23,-1.4309229001085503e-07,1.195597084293042e-07,0.2854951824976839,0.0,0.0,0.0,-0.1278456967285996,-9.87065541914692e-07,3.6568518731917366e-07,-5.911916384931559e-10,532.1194052060085,532.1192039734318,532.1190835162954,532.1195216014618
2.443999999999999,-1.336780270256885e-07,1.9999999480606159,1.769523689871253,6.8235704147712275e-06,4.642453966043068e-06,2.113125038904137e-06,7.417992460880746e-09,1.9999999846163203,1.7625960128642875,1.1216703227905967e-23,-1.2122329682423173e-07,7.883476038334863e-08,0.26945957060727277,0.0,0.0,0.0,-0.11210050476565094,-4.352861127717143e-07,-1.6345704338752057e-07,-3.8103144925682405e-10,532.5518935427928,532.5516997986898,532.5517513830686,532.5518393427869
2.4959999999999987,-1.373775962734683e-07,1.99999994893944,1.783060049069248,-7.529266247801767e-07,7.556020582040208e-06,2.0652470659023553e-06,4.8417743952230515e-09,1.9999999826536168,1.7766788635579829,1.0551326210696073e-23,-8.010950850194415e-08,6.481899237410394e-09,0.2542255497237329,0.0,0.0,0.0,-0.09691814916641799,5.772461100249194e-07,-3.590736521900599e-07,-2.317798850870372e-10,532.9684611069883,532.9685316490536,532.9686469539972,532.9683442121641
2.5479999999999983,-1.3775260476979323e-07,1.9999999499977954,1.7958282909583598,-6.1600536659372035e-06,6.261538530894814e-06,2.0172581342489744e-06,1.838657512405733e-09,1.9999999810742028,1.7899806099278754,9.922854282974517e-24,-8.617590740640181e-09,1.2274329360595594e-08,0.2397633533691522,0.0,0.0,0.0,-0.08230778535324684,5.972117024120189e-07,-3.08054311689409e-08,-1.561063160464294e-10,533.3690982515394,533.3692812510436,533.3692906689454,533.3690877636636
2.599999999999998,-1.3535715504899865e-07,1.9999999535204316,1.8078678004889508,-2.539304011414198e-06,2.31871094821028e-06,1.9701478554255824e-06,-1.517821220457683e-09,1.9999999798313495,1.8025393938877343,9.329485341362791e-24,4.922703551201449e-08,7.237132155868977e-08,0.22604902827723766,0.0,0.0,0.0,-0.06831996999722514,-1.8371257635228473e-07,2.6980568614462804e-07,-1.306315464194185e-10,533.7525138874721,533.7525416832119,533.752454127266,533.752600548688
2.6519999999999975,-1.3186658792674667e-07,1.9999999581024037,1.8192163310627503,3.4728630780253177e-06,5.195534342943971e-07,1.9242874367748836e-06,-5.146411634589604e-09,1.9999999788832084,1.8143920238231022,8.76948028812325e-24,6.752369729305528e-08,9.420155110049866e-08,0.21304495843732094,0.0,0.0,0.0,-0.05488856565797355,-5.565730853437293e-07,1.505066127929652e-07,-1.2891660129942853e-10,534.1204239187439,534.1202929077367,534.1202439079366,534.1204720361615
2.7040000000000006,-1.281125894638411e-07,1.9999999612520776,1.8299101467748589,3.4724983707124183e-06,1.8082419714457344e-06,1.879708309715591e-06,-8.968197202998427e-09,1.9999999781923412,1.8255739598818634,8.241163726140454e-24,6.963994421669881e-08,5.7847262520924666e-08,0.2007317565793963,0.0,0.0,0.0,-0.04209731799610539,-1.0875993689443231e-07,-1.3418786879381684e-07,-1.340593358823824e-10,534.4704616381134,534.4703833061362,534.47042611292,534.470417914368
2.7560000000000002,-1.236361585140224e-07,1.9999999628902665,1.8399840633965696,-1.142176433961709e-06,2.9002091983557063e-06,1.8363153314908627e-06,-1.291145772867771e-08,1.999999977725291,1.8361193090347574,7.742924192298745e-24,8.538571555579398e-08,2.5735173019475975e-08,0.18907155080341512,0.0,0.0,0.0,-0.029870009447407087,3.857740006187513e-07,-1.699885268101507e-07,-1.381939288156869e-10,534.8048039701628,534.8048735008726,534.8049278024899,534.8047487238787
2.808,-1.1800894814420334e-07,1.9999999648921831,1.8494712159365299,-3.097032410624589e-06,1.6126306282951202e-06,1.7940012389657035e-06,-1.691226074693124e-08,1.9999999774521935,1.84606082851475,7.273213994981061e-24,1.1030181790743951e-07,3.882142139159244e-08,0.1780380023015897,0.0,0.0,0.0,-0.0182158054292927,2.5321435375819374e-07,3.6970983591028474e-08,-1.3931752519074612e-10,535.1233393662311,535.1234328145124,535.1234204328766,535.1233507961009
2.8599999999999994,-1.1176668155866355e-07,1.9999999681132707,1.8584031028076635,-2.777962662471537e-07,-4.944005994126951e-07,1.7526867198539295e-06,-2.090899302392672e-08,1.9999999773464243,1.8554299363987703,6.830548714110197e-24,1.2118449289087349e-07,6.605843812698449e-08,0.1675980124302034,0.0,0.0,0.0,-0.007084190836276774,-1.894542534228961e-07,1.5844571127231974e-07,-1.3792870937691876e-10,535.4274774000105,535.4274674200119,535.4274159538986,535.4275279243732
2.911999999999999,-1.0580249651237069e-07,1.9999999714321317,1.86680996199732,2.5459808986010247e-06,-9.91806261384382e-07,1.7123225709554451e-06,-2.484537840969234e-08,1.9999999773842771,1.8642567282345002,6.41350641557759e-24,1.1296738532016729e-07,6.391121542293055e-08,0.15772908686499482,0.0,0.0,0.0,0.0035023649242324345,-2.799643270051926e-07,4.9561642438033774e-08,-1.3517684148924846e-10,535.716546079727,535.7164719653796,535.7164555615018,535.7165615611445
2.9639999999999986,-1.0035861297044914e-07,1.999999973661642,1.8747203912312163,1.6649639180298335e-06,-2.6370998306452187e-08,1.6728792660624709e-06,-2.8674376924083762e-08,1.999999977544678,1.8725699987400373,6.020726625992156e-24,1.0248126601732899e-07,3.866225427280098e-08,0.14839794164447223,0.0,0.0,0.0,0.013610909753559233,2.1716750412488424e-08,-9.505898485629614e-08,-1.3192535392706492e-10,535.9923611914361,535.9923376113532,535.9923677236325,535.9923301793503
3.0159999999999982,-9.505535528616819e-08,1.9999999751249946,1.8821618988655473,-8.496544048714658e-07,4.121024805273045e-07,1.6343367894972332e-06,-3.235781917890363e-08,1.9999999778089177,1.880397267716759,5.650909108366826e-24,1.0155444729483051e-07,2.5883405978543757e-08,0.1395884440464245,0.0,0.0,0.0,0.023180368024179908,2.2161569538121376e-07,-7.250140583807315e-08,-1.286879416330843e-10,536.2533245723881,536.2533724904267,536.2533953501814,536.2533008353325
3.067999999999998,-8.963814884305259e-08,1.9999999769290224,1.8891604366510304,-4.9727874208569286e-06,3.276866080709013e-06,1.8644423094307602e-06,-3.5865564610942026e-08,1.9999999781604187,1.8877648094167152,5.302812474587947e-24,1.012918786466323e-07,3.357603058079834e-08,0.1312623105099136,0.0,0.0,0.0,0.03233826031798479,9.68269584525446e-07,-8.384807267318543e-07,-4.165649721974605e-08,536.5030535436765,536.5030952320528,536.5032226280439,536.5026422969738
3.1199999999999974,-8.298311640180099e-08,1.9999999807414226,1.8957405652877148,-4.275743350340357e-06,3.4190289275706764e-06,2.0126986030462043e-06,-3.917237671330928e-08,1.999999978584516,1.8946976846965065,4.9752526662303615e-24,1.3515793587953628e-07,8.374681967571042e-08,0.12340466082671472,0.0,0.0,0.0,0.04102351384235242,2.506054323797202e-07,-3.0261347562308626e-07,-2.2321650718664152e-08,536.7397129091102,536.7396962114132,536.7397173512857,536.7395397348548
3.1720000000000006,-7.51137761227921e-08,1.999999986211666,1.9019260510049996,4.599529818423638e-06,-4.239132177495333e-06,1.896994688704874e-06,-4.225161970592628e-08,1.999999979068264,1.9012197753708817,4.667101331441946e-24,1.547063748206586e-07,1.0966395928954314e-07,0.11599247904104408,0.0,0.0,0.0,0.04925605179836004,-7.489002157387571e-07,6.29654421467281e-07,-3.4153491167025086e-09,536.9639223556046,536.9638840865475,536.9636703878831,536.9641128017041
3.224,-6.914009723745452e-08,1.9999999897175855,1.9077392422013961,8.545412498479432e-06,-8.360688695082655e-06,1.6951455688148366e-06,-4.5076273532325695e-08,1.9999999796002597,1.9073538202520386,4.377284122183117e-24,1.0241792560677926e-07,5.4234652861181114e-08,0.10900210215998443,0.0,0.0,0.0,0.05705592914012257,-5.459625687304155e-07,5.36442305551496e-07,4.597889111187004e-09,537.1762511770869,537.1762481229963,537.1760916783779,537.1764389127499
3.276,-6.680487120370421e-08,1.9999999895678935,1.9132014064033347,2.7871716486945495e-06,-3.652271935011933e-06,1.5226329227944468e-06,-4.763230393235281e-08,1.999999980170483,1.9131214524257403,4.104778933029968e-24,2.950504621849729e-08,-1.7774519865123613e-08,0.1024110678726757,0.0,0.0,0.0,0.06444852435600837,3.402942628918898e-07,-2.508075315228022e-07,5.521359445129673e-09,537.3774276427407,537.3774563392453,537.3775555487827,537.3773659949302
3.3279999999999994,-6.619449755726469e-08,1.999999988103266,1.9183326208167966,-3.555333719226893e-06,2.3533667346787944e-06,1.4100243643592865e-06,-4.992737693202652e-08,1.9999999807701536,1.9185432373735498,3.848614100000674e-24,9.52871621639601e-09,-2.7815656100698746e-08,0.09619756903778041,0.0,0.0,0.0,0.07146026014552212,5.838111591819511e-07,-5.356963602432408e-07,3.757813453032086e-09,537.5681962907213,537.5682117146458,537.5683962178025,537.5680373427938
3.379999999999999,-6.475502089712169e-08,1.9999999880245332,1.9231519548406384,-2.540187570359362e-06,1.9989746245254667e-06,1.3458922163029496e-06,-5.198131135729859e-08,1.999999981391599,1.9236387116024525,3.6078665754092886e-24,3.4489618221351954e-08,7.68008945411631e-09,0.0903431324850176,0.0,0.0,0.0,0.07809832406062424,5.3198762183478595e-09,-5.160387798447984e-08,1.783810173100809e-09,537.7487454341891,537.7487306021357,537.7487532024134,537.7487349607719
3.4319999999999986,-6.252797011473655e-08,1.9999999890192264,1.9276774002477055,3.7426675502384537e-06,-9.453172364566867e-07,1.4242633996909059e-06,-5.38102078064855e-08,1.999999982028138,1.9284264214894493,3.381660092562593e-24,4.2441819174633414e-08,2.161091894722037e-08,0.08482595849901128,0.0,0.0,0.0,0.08440383088220968,-9.216105397166068e-07,-8.436798083923418e-08,-2.6889299858359673e-08,537.9203781020979,537.920055831544,537.9199914877436,537.920259702883
3.483999999999998,-6.061097187816657e-08,1.9999999884143445,1.931925959267583,7.157462393643911e-06,1.482102759525445e-07,1.5793594272342486e-06,-5.542499974098264e-08,1.9999999826739738,1.9329239620899683,3.169163332166368e-24,3.558864826121834e-08,-2.6920956575218588e-08,0.07962947941809044,0.0,0.0,0.0,0.09038155624265268,-6.380197866128472e-07,-2.3012887928579624e-07,-1.9534237624278877e-08,538.0828117555315,538.0825337234703,538.0825410657114,538.0826716962914
3.535999999999998,-5.8745342764329e-08,1.999999984902758,1.9359138828476214,-6.864980347495856e-07,-9.359360764991418e-07,1.5385158536106072e-06,-5.683584888875146e-08,1.9999999833240993,1.9371480156956333,2.969588100574204e-24,3.5980004455739887e-08,-7.892702800487633e-08,0.07474023459459446,0.0,0.0,0.0,0.09601434465791814,5.437294044830479e-07,6.61034249181096e-08,-5.278098273156648e-09,538.2355992762023,538.2357945248738,538.2357554359164,538.2356025155809
3.5879999999999974,-5.7351758560779994e-08,1.9999999816644598,1.9396565412290516,-7.906363553313756e-06,-2.8870438513799315e-06,1.405524998127648e-06,-5.805463092128335e-08,1.9999999839742113,1.9411143899594738,2.7821875284731335e-24,2.2052519764638556e-08,-5.009176458992713e-08,0.07013818064839769,0.0,0.0,0.0,0.10134674416417211,7.676285489912305e-07,2.2606024934588718e-07,2.102920233244503e-09,538.3803717651994,538.3806898265013,538.3806246085791,538.3804512626416
3.6400000000000006,-5.721435416064056e-08,1.9999999817437168,1.943168434335079,-4.8437023680769114e-06,-2.421795121998793e-06,1.2759862888813053e-06,-5.909403756130146e-08,1.9999999846206307,1.9448380554355629,2.6062542972363257e-24,-5.0267048914424596e-09,2.1215497439647056e-08,0.0658099279178063,0.0,0.0,0.0,0.10637047514235494,-7.80791804603098e-08,4.4751155496022965e-08,3.756239529641762e-09,538.5169596031022,538.516948938124,538.5169473675309,538.516986673276
3.692,-5.8139345179017624e-08,1.9999999839530789,1.9464632133017898,2.6314876330861416e-06,-5.909660722779393e-08,1.1844900796203233e-06,-5.997196278417051e-08,1.999999985260234,1.9483331824055796,2.441118898966363e-24,-2.122448941467191e-08,4.527902395821569e-08,0.06173568340874638,0.0,0.0,0.0,0.1111419901002549,-6.543913401215564e-07,-1.705627322090022e-07,2.8665981887988597e-09,538.6466327568036,538.6463688347316,538.6464331294885,538.646587917556
3.7439999999999998,5.207467957198772e-06,1.9999999852046755,1.949541832452613,-6.10279749043173e-05,0.8158709975523807,8.251591380138859e-07,0.002108765071456059,1.9999999858903896,1.9516131768873832,2.286147935186713e-24,-7.79050736965179e-05,-1.980341494077255e-08,0.05736309844258691,-7.025649640580253e-05,0.7265127305745269,3.3878577545804343e-08,0.12077694205886214,2.6266398958593703e-05,0.41949176325915244,1.8712108451946467e-07,467.04153223605834,602.2583999332163,467.05195605106746,602.251452149857
3.7959999999999994,0.0005069003025912813,2.000000035813606,1.9523913585368777,-0.0010463398769759236,6.472795083597316,-4.308400719487886e-05,0.010494578536863162,1.9999999865089024,1.9546907157405122,2.140742458200505e-24,0.01630291374136706,1.6713268818790942e-06,0.05490789834326455,-0.0005588895840662294,2.6499968544174792,5.288367803089135e-06,0.1335339708405543,0.0002606758889763559,-0.0008372964887503886,1.228532917713426e-05,539.3253316872944,539.1410580030702,539.4502461049085,539.0993883671964
3.847999999999999,0.003964808420376921,2.0000005917749095,1.9548453133628427,-0.003548341909639957,15.11116353023538,-0.0002869152943106987,0.02636321993692187,2.000000083841564,1.9575777808010437,2.0043363583100088e-24,0.09343735908677572,1.5684364909744742e-05,0.06700585416198082,-0.0008958821789228362,2.6652004322198732,6.00358899585317e-05,0.2160304540214339,-0.00045849707992348866,-0.4900015126349737,3.589456466523319e-05,614.5410344847952,456.7527316593979,614.5192298564197,457.06925274285265
3.8999999999999986,0.013999983963531451,2.00000273818231,1.9563503546226078,-0.012921135754896538,19.2552236836463,-0.00028580005611818476,0.04928664997209234,2.000020311004729,1.9602856919935125,1.876394799366932e-24,0.2361748194472313,4.3722971504269175e-05,0.1031946961065729,-0.007280338160798173,0.35125596144293325,0.00015492602599565032,0.40316888361513453,-0.003784631357634491,-0.4376393597695431,-1.920774486263696e-05,612.196076120529,471.8545671161352,611.0723678728338,473.16053413028817
3.951999999999998,0.03242540378952592,2.0000121125925174,1.956837684421005,-0.06765421535664119,16.188488290966315,0.002247757974521763,0.07755535568012323,2.000101794234634,1.9628251393810066,1.756412704491172e-24,0.39849798388431007,0.00017625442525867892,0.12372513399575089,-0.025725748298326377,-1.7183514738661423,-0.00021173546210001725,0.5590536515782036,0.0011662347364761129,0.1332100693658094,-0.000557688812056141,530.1905138984799,572.2018297096947,528.644627148295,570.0650895575876
4.003999999999998,0.058028488378394895,2.000053879889034,1.957084390152314,-0.14952763784411427,11.244789908898788,0.007956917522858244,0.11005896155285978,2.0002540649100258,1.965206214126203,1.6439132932447178e-24,0.5242479049191842,0.0008771593902008612,0.11451855182155209,-0.02585636032594716,-1.273075445140789,-0.0020668549070640154,0.5747637149895077,0.006815297182424643,0.37264192996216505,-0.0005525390286774609,489.20168336630377,608.3573549095322,489.5377721020065,604.7559954501529
4.055999999999997,0.08862401585598993,2.0001648490167026,1.957824755290593,-0.18824391790367478,10.388160086431732,0.002135090816206798,0.14578710748646992,2.0004708172939876,1.9674384383462322,1.538446671069169e-24,0.6081186036275127,0.0023386474221794113,0.13000278976063737,-0.0009631515313442568,0.32253553430121895,-0.0026196263516567015,0.5035536053489569,0.007864358988038285,-0.011175285626299547,0.000899324438524306,548.2177327317492,547.1759933340616,553.6613303018385,547.7032339958129
4.1080000000000005,0.12361186551953496,2.0003606222351613,1.9591048037462535,-0.13835470380921838,11.82841086383113,-0.005490719940341826,0.183252948887793,2.000718665209192,1.969530793853009,1.4395884713820036e-24,0.6889150100001509,0.003991141759270582,0.1715367290463589,0.02772002942900644,0.2627384696753828,0.000133689058111149,0.44687174798453905,0.0017748025590207206,-0.3653874501467702,0.00027080806477851815,601.7666553564254,486.62467714652826,603.096018869597,487.0132454701291
4.16,0.1633699548879713,2.0006170008624085,1.9606842856545184,-0.04462825871665416,9.838028155796609,-0.0008412019378446242,0.22105681275286734,2.000970831326523,1.9714917497781905,1.3469385503712369e-24,0.7815886548411721,0.0050547565931218395,0.17364657300382919,0.028506556953756063,-1.337045188575766,0.0005753195917949017,0.39806233986425504,-0.003795039786061663,-0.11043580632868637,-0.0004146074504346559,564.7775572945948,528.7758432112413,562.2721883132517,528.5793666374999
4.212,0.2068999997247953,2.000891755002753,1.9625969735831543,-0.00044390609518440977,4.32766234262436,0.00035823267815037363,0.25845714647400364,2.001213984018743,1.973329289088361,1.2601197342238567e-24,0.8488882586670947,0.005268916853858297,0.11155604254650738,0.004565174086335028,-1.9247263680432987,-0.0004132445130658609,0.31893256093906486,-0.0007013295524335521,0.28928075937572506,8.469391868897534e-05,496.3188314225784,588.0404967748251,496.38723800766047,588.5091007000045
4.263999999999999,0.2517164111769081,2.001163410992134,1.9648795847731964,-0.014992611698703362,0.466846091750458,-0.000402048456283261,0.295185073960584,2.0014413047483735,1.9750509340015103,1.1787766182651991e-24,0.8603348718129127,0.005197042729298806,0.05578679667433646,-0.007887177333558502,-0.7134920797447812,-0.00020267129849401672,0.2347093546760582,0.004788089314866183,0.27151529503336314,1.8593865914492314e-05,496.0903211207266,584.2378766144258,497.81904576361103,582.8821928500237
4.315999999999999,0.296039655014584,2.0014363760132197,1.9673806456698144,-0.022742456077474268,0.7399059218238154,-0.0004953250284652756,0.331197007377612,2.001648527521704,1.9766637703204906,1.102574417268254e-24,0.8460448361942774,0.005279747148380306,0.057822392193387015,0.0032821099694668224,0.4864979403174557,0.0001653437178173739,0.17185339711900385,0.005049346004402478,-0.06543621683237061,2.181601201497389e-05,549.8016610400012,530.5369541234928,551.4543353344645,528.9697070398552
4.3679999999999986,0.33987457540888616,2.0017132865311007,1.9699055586362972,0.014045216352295754,2.068336168143824,0.0001627533412762476,0.36651604544680133,2.0018334196676384,1.978174470702985,1.0311978660099238e-24,0.8402329656849231,0.0053164842844682396,0.07769195330418117,0.01683505448708065,0.226092775063946,0.0003276412385664027,0.13187942050503884,0.0008069098930392322,-0.19709557096457148,-0.00010326882077536986,569.8779169262028,507.05987802412704,569.7906767772022,506.4129640292187
4.419999999999998,0.3837424980525626,2.001978636983648,1.9723323347255972,0.06060834476822483,1.085773409675688,-6.179433215527171e-05,0.4012375528521826,2.001996119649447,1.979589316890707,9.64350169000798e-25,0.8423509663953211,0.0049702638758533,0.064141263977614,0.012201728817578793,-0.6732624143793318,0.0001559543083518455,0.10660008136484378,-0.0013507882089371847,0.001666338152733926,0.00014663520341267578,538.2237655931368,538.3247871985554,538.2892679840728,539.2542927161422
4.471999999999998,0.427244688756701,2.0022127337823425,1.9745781578358008,0.07078850905539229,-1.3187291923953597,-0.0018796025627342743,0.43549027843262395,2.0021375090789566,1.9809142209231427,9.017519981925113e-25,0.8295320161680928,0.004268780746864155,0.02497715587764042,-0.002404638626395761,-0.7394006758673504,0.000596170563675871,0.09817870016177013,0.0009628808742301843,0.18973405274943708,0.00013779314309466306,506.6035125695214,567.777283568334,507.42754888129093,567.9286276259055
4.523999999999997,0.46938507197463536,2.0024110742997197,1.9765666528629064,0.050707707078742933,-2.2179857049488056,-0.000432367434691599,0.46942747137272095,2.002258942615489,1.9821547453632269,8.43140537368822e-25,0.7973134820168701,0.0035849563905954182,0.004962703408161144,-0.007429057640910859,0.037859319967191156,0.0008660974511608365,0.10470415569102455,0.0037864218087459564,0.11232490855785458,-0.000224505591276698,519.9550006510021,557.1096038428632,520.420460895999,555.1985001413465
4.5760000000000005,0.5097776935490776,2.0025820906965777,1.9782829834754896,0.04099288948806299,-1.0628583791918491,0.0021024350053747212,0.5031476048570536,2.0023623101104957,1.9833161225639442,7.882685718501624e-25,0.7652685592169712,0.00309922680194075,0.015090750009070456,0.00046860206437584275,0.5142250264920125,0.0002887418111252082,0.11500541919366249,0.0030863807427478625,-0.07494392442374602,-0.0002481022869351985,550.5355930840101,527.5638837436265,550.6779081587031,525.6928011024613
4.628,0.5489017912180963,2.002730480518132,1.9797712623134187,0.05474046444869115,0.006921146090649664,0.002637598782418034,0.536690798048148,2.002450143668572,1.9844032730060808,7.369036220839015e-25,0.7455628826395617,0.002652565543891817,0.026691817370115955,0.006168748919993961,0.168665241719025,-0.00032425245862407364,0.1225916784804778,0.0005482997025896648,-0.0985215807751001,-5.702323152301339e-05,554.4929537284265,523.1594670710837,554.4753771980269,522.7794868607397
4.68,0.5872333418199382,2.002851317207404,1.9810767797215647,0.06612429213583762,-0.4325422451671364,0.0009166876878506465,0.5700893789654333,2.0025270508708903,1.9854208227382177,6.8882711965140725e-25,0.7312472697653283,0.002086316976441093,0.019336486902771503,0.0007868831903918291,-0.3152880570666043,-0.00037426120773973874,0.1295853498881233,-0.0005760286376568032,0.02927393317713784,0.00014584980516967324,534.2915373300574,543.4686870144936,534.6046311151329,544.1414672872074
4.731999999999999,0.6246298931861776,2.0029405777100293,1.9822138386158499,0.0480558766705452,-1.385767098717663,-0.0005235765285208603,0.6033644629946947,2.002606099452729,1.9863731199506143,6.438336241963003e-25,0.7101462096593554,0.0014991935991908723,0.004119172572282845,-0.01088439944553976,-0.23900808180245217,2.106886562418824e-05,0.13990344220618303,-2.6584970963407097e-05,0.10749661505454464,5.2261890403162646e-05,521.8867792015117,556.242288832706,522.0610168777044,556.4222353640915
4.783999999999999,0.6607186418597044,2.0030068293070036,1.9831905714328126,-0.0015122148626555787,-1.3376013308424353,-0.0002088709030745231,0.6365294665295133,2.0027110866128393,1.9872642507149523,6.017300797637342e-25,0.6834483788307429,0.001188027169454165,0.0010745460446706008,-0.019799481889030614,0.1905748900526883,0.00014653650455226998,0.15126991361909778,0.0007683320124206488,0.0379931623504481,-3.612237799741527e-05,533.5728760984636,545.9479912981129,533.6972601150138,545.5844091123495
4.8359999999999985,0.6955311325990919,2.003072424761395,1.9840384845401728,-0.06746253106684819,-0.39513321453641526,-0.0003940832489786424,0.6695725180546978,2.002873322253609,1.9880980539219766,5.623351090368069e-25,0.6614567935890621,0.0013840455517767024,0.009959252807163482,-0.023059619844127403,0.3342193650483007,0.00015385615899516,0.15930749788897158,0.0013491401951371555,-0.05587307319743361,6.333132760531178e-05,548.4785746680468,531.0715663326665,549.1131527882147,530.8517219705877
4.887999999999998,0.7294784628857279,2.0031670433153144,1.9847972946868,-0.13627631390655792,0.16770636626209942,-0.0005048864725835292,0.702460957124704,2.0031224379538344,1.9888781354489644,5.254783439615174e-25,0.647882776629821,0.0021613067940073807,0.015813228337939488,-0.022684492449778375,0.05795692577293391,0.00034056802623262124,0.16360346594372296,0.0024478100453450657,-0.04406871268986019,-5.200827880518138e-05,546.7556000096947,533.4763280458194,547.3528992792088,532.5065459791732
4.939999999999998,0.7628259366037323,2.0033213715774556,1.9854912705558962,-0.19943480641589129,-0.14595793004006188,0.0012288960674453743,0.7351683852095795,2.0034784914456956,1.989607881588678,4.909997912647746e-25,0.6365373324763258,0.003515648012149955,0.01178526374255046,-0.020158091068522416,-0.1753437666192751,0.00010108141027558738,0.16665992003492194,0.0019104310610844068,0.0366048980978833,-0.00023320461290898044,534.3713629244523,546.6508094553044,534.1897067958957,545.2670282899503
4.991999999999997,0.7954722487168613,2.0035632407003017,1.9861268893489972,-0.25674401130989843,-0.53414770790349,0.0019835883816228766,0.7676919585262213,2.0039603059001534,1.9902904717710292,4.587492313896257e-25,0.6214779398844451,0.005400400230349331,0.006149492849821125,-0.018859298927276013,-0.057389281323420395,-0.0004632947759007558,0.1701274754966586,0.001060491492215029,0.06039750264200397,-1.422742192826793e-05,530.3774949032077,549.9835068544188,530.6729449816542,549.603808157773
5.0440000000000005,0.8272725377947542,2.0039174286775276,1.9867091845320088,-0.3142973775342499,-0.2659954419507327,-0.0006724904395506775,0.800019454766441,2.004584972585484,1.9909288906081726,4.285856493970333e-25,0.6051996503680251,0.0077592421971448165,0.007572261806283173,-0.019733998593581974,0.1758419463155285,-0.00023797915444873883,0.17302988230440797,0.001452711445028586,0.007285805802422888,0.0003275727869687223,538.3728356594772,541.1626839775579,539.9477016125547,541.8061492625616
5.096,0.8583492424385973,2.0044081636060653,1.9872497548694716,-0.3705099061014156,0.33222561100565773,-0.003158568388224952,0.8321275075865373,2.005359190096417,1.9915259392930844,4.0037669641325536e-25,0.5932638569244242,0.010559138684970031,0.01317153341453535,-0.01726692542712906,0.17905873668096411,0.0008011340490414433,0.17440269612295783,0.0036730598759497765,-0.035001333412152856,0.00018627729947146422,545.0213419706806,535.0242391707651,546.8045126705391,534.4773142719274
5.148,0.8889683296386623,2.005058066464321,1.9877593294714049,-0.40382484556385195,0.5606200670087517,-0.0012513180816620655,0.864016986835898,2.006273436683427,1.9920842463810164,3.7399818023529567e-25,0.5860347764611664,0.013722246540901354,0.015430496326770899,-0.005838854721889279,0.0016225285335473895,0.0012147092408257656,0.17470214454684846,0.004575061945252689,-0.012442911809243363,-0.00027754716435758484,542.0904051563199,539.5834908122602,542.6086606548387,537.1767807154451
5.199999999999999,0.9192462006765604,2.005879007994712,1.9882420749463154,-0.3919066759034046,0.3714249305359494,0.002438065744812616,0.895692744035891,2.0073017798061414,1.9926062779823963,3.4933358374340503e-25,0.5793491268114778,0.01699538631988544,0.01315525540080571,0.010555259638542074,-0.07915937760175562,0.00039956012857263954,0.17484548559920185,0.003097286769105614,0.03022040234052774,-0.0003297121338771784,535.5970766089948,546.2116893813933,535.4683552717448,544.127166672391
5.251999999999999,0.9491212505936566,2.006862824671334,1.9886978130225144,-0.33922702548748807,0.29411102628774816,0.0026250408225122735,0.9271718674151475,2.008412050828074,1.9930943473949676,3.262736098083394e-25,0.571016088877193,0.019982262902691065,0.01152339340235005,0.021055243833787714,0.02607994847152425,-0.0003448372473542364,0.17524901023097084,0.0006490438656396422,0.030274938182599152,2.999508532626088e-05,535.3793258203362,545.2421569150133,535.6905556965099,545.1375708431436
5.3039999999999985,0.9785707634723217,2.007983452833333,1.9891269568686905,-0.27641933553540765,0.5823108876391591,0.000245293189110989,0.9584619471731447,2.009576949548983,1.993550624202074,3.047157514217259e-25,0.5633682354316614,0.022393235686036857,0.01356055954357183,0.019620828380046484,0.13002920428505577,-0.00014475190905362126,0.17553058057672216,-3.876309317038854e-05,-0.0006247373661768633,0.00017654383625853763,540.1987728437691,539.9870720305516,540.7834673242138,540.5967090185286
5.355999999999998,1.0077229362876725,2.009210268144987,1.9895319533548401,-0.22812134386496402,0.9369884549460873,-0.0008574911411462136,0.9895842670433989,2.0107718682765556,1.9939771428631214,2.8456388581976647e-25,0.5589664029137339,0.024234343727656642,0.016627253696770546,0.014466678997618068,0.09272830154491754,0.00032824822527758115,0.17556377992659256,0.001671711262779297,-0.016556929827382202,2.7402213520082267e-05,542.7145336417242,537.9673380036992,543.3372788212782,537.5247675625257
5.407999999999998,1.0367367368714053,2.0105186060853404,1.9899144862087175,-0.18153087303529297,1.0270157706541887,-2.2115580008913515e-05,1.0205472292756355,2.0119700885293836,1.9943758108213354,2.657278914132889e-25,0.5570775776678919,0.025636693523217256,0.017287586855394884,0.017859407247947823,-0.009810332545737441,0.0003746685470126664,0.17556312791282547,0.003051369864408964,0.0033430175092918277,-0.00011335796393680003,539.5640080762868,541.6023929216669,540.1542058875409,540.2472423302028
5.459999999999997,1.0656611215785898,2.0118848855715075,1.990274887938281,-0.11139371721235339,0.935325248730835,0.0008913351843530847,1.0513744202220192,2.0131439107424858,1.9947484161530291,2.4812328638043694e-25,0.5552175667529096,0.02654623861869982,0.015942807512394807,0.027413772266799113,-0.027197352357829625,0.00011750703117120094,0.17570584841137035,0.001675487168004327,0.0262676232220681,-8.449996474049903e-05,536.0665508885813,544.975204191683,536.3169706253316,544.1613748658364
5.5120000000000005,1.0944662324039234,2.0132762397657546,1.990613273816094,-0.022638493619095677,0.9792002075095549,0.0008706656706295176,1.0820941873355174,2.0142719379245624,1.9950966347816597,2.316708878217627e-25,0.5527946824002046,0.026746832769340367,0.01567899018071096,0.029565421218332742,0.04669492051282601,-5.9721288669334326e-05,0.17597001596016856,-0.0014567080644408764,0.013170353223816683,-2.225027639372655e-05,538.570366203633,542.3054130993223,538.0284762347169,542.6931686455481
5.564,1.1231739005532675,2.014652688455207,1.990930300283967,0.04873740381773824,1.2068158288174435,0.000596543390332958,1.1127219328857345,2.015343448685998,1.9954220372790439,2.162964904208776e-25,0.5514871602498411,0.026188985779934643,0.01732481234429507,0.019019566132462654,0.08466053479395505,-0.0001527481984421909,0.17628478059091257,-0.0010731006583503157,-0.00359652260968033,-1.1605035927533919e-05,541.1756117042878,539.6866234168008,540.7945745988882,539.9898809619984
5.616,1.1518823044494884,2.015982037133311,1.9912268198584455,0.07855015980940604,1.389003945178108,0.00020478099180585609,1.1432525523625996,2.0164087233370425,1.995726095275197,2.0193056359686527e-25,0.552281514007872,0.025122769505539322,0.018825758515211437,-0.0019021934289452289,0.03438679221542896,-0.00025958369607165883,0.17670143279059644,-0.0526898853622401,-0.02389047357216125,4.435044679330794e-05,552.4246623159514,527.9957346643408,535.8875918258016,545.0699611702548
5.667999999999999,1.180668837421969,2.0172594149268512,1.9915029987918533,-0.28251041745247557,1.258974748031976,-0.0018343015158421433,1.173498781521198,2.0180283515308757,1.9960101874973404,1.8850796617724973e-25,0.5539194753359201,0.024456249918769424,0.017692569211896318,-0.23047662823900827,-0.10135032086034931,-0.0012075436359712999,0.1772755922685748,-0.034549331561138735,-0.006584144586419739,0.00026613360689004093,546.5125790771683,533.3847557385551,536.4153752664756,545.3253063498829
5.719999999999999,1.2094748995992954,2.018657764484614,1.9917597611829407,-1.355751029478467,0.811222702838952,-0.00019510533714052616,1.2033438098111575,2.020564142840857,1.9962756054577542,1.759676776621457e-25,0.5531503388587549,0.029460225346170533,0.013649724636587795,-0.4097566348042346,-0.16027144122064077,-0.0017319641277918328,0.17812830770919375,0.04184421770790819,0.0315344189625569,-0.00048123559751538645,529.46546103476,552.8324418455095,541.2910916881933,537.9988490245513
5.7719999999999985,1.2381100852693137,2.020637853693308,1.9919911108211885,-2.356805096463851,0.4908586613734952,0.00430634069556605,1.2327711553772136,2.024101124565269,1.9965235588092773,1.6425254519129168e-25,0.5484237290910111,0.04456799319264644,0.01082071604306586,-0.23977281108014284,-0.05629061806726017,-0.0018996229092818145,0.18097788446485408,0.06445197145100347,0.03555674002722494,-0.00020737026075412425,524.7164673270065,556.5927526842643,544.77768047808,535.5594694328248
5.823999999999998,1.2664360621539243,2.023627299201172,1.9921892890030661,-2.5205172991472686,0.5601233212958017,-0.0016940125778098566,1.2618131985744063,2.0286523616878185,1.9967551803864023,1.5330904536577634e-25,0.5421917471669494,0.06575009258830163,0.011617244282915712,0.05276174435991645,0.06626695526477333,1.5074810495755664e-05,0.18487507291706823,0.0028364077845854235,0.002819931254908113,0.0008083290512417436,538.3717012857416,540.1791857494942,542.011740783238,542.0065022592835
5.875999999999998,1.2944799826912279,2.0277022235490025,1.9923608296041497,-2.247558312695042,0.7786479386075195,-0.006185688508061442,1.2905094944713016,2.034241684903135,1.996971530949093,1.4308706011536384e-25,0.5375115619413159,0.08577257094291053,0.013730706249708324,0.07268642127080215,0.05843805176873608,0.0022852503935179673,0.1873567971457797,-0.04201990092677775,-0.015472757029632776,0.00019514228942260913,549.4721921113927,531.1353660014681,536.7968674677884,545.2525851518085
5.928000000000001,1.3223368138918983,2.0327429566271373,1.992519204909319,-2.354146219576784,0.7951537008106617,-0.0009682053389562144,1.318895876228772,2.0408597931753074,1.9971736036456418,1.3353966584031869e-25,0.5343876153396008,0.10371870649016338,0.014695906128252525,-0.11470289826297123,-0.030612051100310622,0.0012994597416883605,0.18823412747234486,-0.01461840295227257,0.002549263176869928,-0.0006338687671194303,543.7214822269243,539.8827714134486,536.914816614939,542.3968812901593
5.98,1.350020822318249,2.0387762264656812,1.9926683424018834,-2.8718840045096674,0.6366385802729422,0.005780361111048042,1.3470115133838243,2.048473664069719,1.9973623282101156,1.2462293509347802e-25,0.5307205710413989,0.12396704962896325,0.014926435187374559,-0.18043788289210289,-0.05390623163486685,-0.0010880431420544818,0.18949134782675023,0.036123026359045136,0.025280936608972383,-0.0006043739878342633,531.9347779411015,551.4685456031848,541.4748361296599,538.0132517374099
6.032,1.3774716831882625,2.0459989790072317,1.9928026087910526,-3.1562742775498642,0.5906060792929914,0.003625701101067585,1.374915745312488,2.057004651584318,1.9975385749091648,1.1629575010395394e-25,0.5258296290321796,0.14825984175346082,0.015995114174515542,-0.016863911574066227,0.01986968387823724,-0.0013201920065230893,0.19182270023276632,0.03525283340857206,0.024129761255078333,0.0005162455537353306,530.3986764387585,549.3532905027809,543.4702964977968,539.9318319376787
6.084,1.4046752506365339,2.0545129813662646,1.992922380408946,-2.8732701416219313,0.7959241054463412,-0.006272789037569587,1.4026839320671265,2.066348589560275,1.9977031582522629,1.0851962747829876e-25,0.5214422849493593,0.17274545093087573,0.018063927309732063,0.15268517992870695,0.09318191971510535,0.0017212148908822135,0.19333024132326565,-0.007791457634048662,0.004091463044823154,0.0009853692825062435,539.7963350274123,538.6138466257197,540.6450166856503,544.4194125856384
6.135999999999999,1.4317228750309055,2.064180204384936,1.9930393153367725,-2.4018898524069527,1.0643524907428306,-0.00848550434529588,1.4303799941628343,2.0763954784469867,1.9978568404787265,1.0125855344812842e-25,0.5193952667491527,0.19313853727380428,0.01999029044779499,0.13587222998118123,0.0760313133208971,0.004131126236918624,0.19263248305266803,-0.028742811586089777,-0.004738894332880142,6.248624846694222e-05,546.0574639393494,535.3870041295851,537.1228400102929,544.769606225551
6.187999999999999,1.4587346795941616,2.0747764817087244,1.9931635560418293,-2.206069823179394,1.1813993646541139,-0.00192650518467483,1.4580592530696748,2.087042410101652,1.998000334834198,9.447882906515165e-26,0.519388329393264,0.20961099796899055,0.0212402292719829,0.019453731673199602,0.014988272989515158,0.0031657749117950168,0.19058945914926667,-0.005444303600687591,0.0030558949600129645,-0.0005844394476416936,542.1654195029171,541.4057390058732,538.4518351338984,541.1653927351927
6.239999999999998,1.4857676122086483,2.0861892141651683,1.9932954503808407,-2.222677130617317,1.1796425432105209,0.0038642028255515444,1.4857563120369348,2.09819371135676,1.9981343086486136,8.814892477524058e-26,0.5199157800090781,0.22499994727925454,0.022027292741249,-0.0027421238738302043,-0.0025839616196085802,0.0011494742342112079,0.1886258941816415,0.018268006038456366,0.017386616280150112,-0.00045005654701695035,535.8026631318353,547.1497982924902,540.1252442508016,539.8439658358576
6.291999999999998,1.512825907900705,2.0983984178015036,1.9934305043735017,-2.0868897533394684,1.2301773934787774,0.00380324486212909,1.5135090038866421,2.1097696799266203,1.9982593862270763,8.223934383262879e-26,0.5204272713126701,0.2400782494841355,0.02254949739219703,0.08474528015456025,0.034923889339043765,0.0004995731864289799,0.18700060344102296,0.009886814496722398,0.016352797083488035,6.370037357724428e-05,536.3956757113064,544.7603456886346,539.7783780023199,541.8387268747102
6.343999999999998,1.539933401944701,2.111326046582676,1.9935664616828608,-1.70830873422521,1.3981178212019074,0.0007083891025112359,1.5413489666567206,2.121701530193139,1.9983761515644256,7.672249404354933e-26,0.5217632017289544,0.2528445285884496,0.022914129244242843,0.14315905609506882,0.06468280739408315,0.0010998499649133753,0.18528931214790448,-0.012409145975395497,0.0004067456486568713,0.00017788905651223373,542.2652748939912,538.43754217195,538.9110532950465,542.9936791911995
6.395999999999997,1.5671618114852934,2.124794038453051,1.9937029159639645,-1.3427235451405934,1.5658868654170475,-5.624719278252283e-05,1.569303411880488,2.1339324293724813,1.9984851508937587,7.157256735564109e-26,0.5246848806259642,0.26180076569781563,0.02311796181608187,0.09725652159798345,0.044198903636550865,0.0011913829089762401,0.1835050136832573,-0.017310183218154196,-0.002993558618064617,-4.8800231701476047e-05,543.9157499620844,537.4445406783606,538.2378333940904,542.8021803367903
6.448,1.594582936582503,2.1386292835206637,1.9938380312257535,-1.1883439997498502,1.6247189234130461,0.0010095882232580968,1.597389428594105,2.14641123675402,1.9985868950785755,6.676542683528274e-26,0.5287346264116839,0.2679683813355131,0.023153938831852856,0.02596823821739851,0.004858569488794007,0.0004934176741893492,0.18203403342042182,-0.001304193773829834,0.004845731715288886,-0.00014682100893578473,540.2511856689243,541.3796624152,539.3376562794191,541.2990731648053
6.5,1.6222223168595562,2.1527486599068006,1.9939685694057763,-1.1360903855410613,1.6166841927113622,0.0016992942349784753,1.6256234668503513,2.1590966688693496,1.9986818618577324,6.227850059968741e-26,0.532928367558695,0.27315880821604077,0.022953893971177808,0.022352768698176533,-0.001311984754664327,4.5096595512067755e-05,0.1810611909066612,0.008297298866890224,0.013571291889689172,-8.827514126937045e-05,537.194245829863,544.1642156045835,539.5503848914649,541.2322106076052
6.552,1.6500758818396468,2.1671167567980087,1.994091898228532,-0.9926702619559453,1.6567205203497979,0.0012394351370433902,1.654022942604949,2.171954801175686,1.998770497951863,5.809068229412465e-26,0.5370436318104428,0.27762804955734194,0.022680731628279528,0.06687527447054302,0.023962590688603153,0.00017735060617064021,0.18048887430262345,0.0009337016957663409,0.009415323609829914,4.597698856491852e-06,538.8657305345265,542.1651772424771,539.1798262958301,541.8838308680514
