Time_s,X,Y,Z,Roll_deg,Pitch_deg,Yaw_deg,Ref_X,Ref_Y,Ref_Z,Ref_Yaw,vx,vy,vz,p,q,r,T_pert,tau_x,tau_y,tau_z,RPM_0,RPM_1,RPM_2,RPM_3
0.0519999999999996,4.6185094191863215e-22,-4.0,0.01005499808135517,-5.672932396232063e-19,3.0181391343702043e-18,8.431075798928318e-21,1.9621303612894789e-22,-4.0,0.016216050707931907,-3.6836754086284923e-22,-3.0153847209531225e-22,-1.4989855331421563e-23,0.0009999902824983295,0.0,0.0,0.0,1.9189653338673935,-2.973613489800524e-19,-4.987462937604163e-19,-2.927020720756053e-19,585.669847567348,585.6698475673481,585.669847567348,585.6698475673481
0.1039999999999992,1.319424172837532e-20,-4.0,0.011051140771424786,-1.2804969334940232e-14,4.492470696855466e-16,-7.65014571055295e-18,1.9457685392856356e-22,-4.0,0.032758437754563774,-3.652957958582868e-22,4.589850076581791e-19,-9.416696428191216e-18,0.0505111583322523,0.0,0.0,0.0,3.434264946766187,3.1842719728880225e-15,-1.6891883779848288e-16,1.0742320427921186e-17,622.3532247747337,622.3532247747346,622.3532247747346,622.3532247747337
0.1559999999999988,4.1773694886929306e-19,-4.0,0.018197453599822132,-3.7546835682107865e-14,3.811616195790314e-15,-1.9114551536331039e-16,1.920766702008288e-22,-4.0,0.05803618915790014,-3.606019867737278e-22,5.210536664075694e-18,-1.3042132436975562e-16,0.20437931949492533,0.0,0.0,0.0,3.9941437272597193,3.474292789313314e-15,-8.783799166460301e-16,3.1211743164212525e-17,635.3715293397629,635.3715293397636,635.3715293397639,635.3715293397627
0.2079999999999984,2.8672941531284727e-18,-4.0,0.034637748021715084,-3.6727787589180254e-14,2.8060826191853827e-16,-4.612128016058825e-16,1.8885213469217746e-22,-4.0,0.09063739605111035,-3.545482900409266e-22,5.649809697749152e-17,-2.5794998502123937e-16,0.3940570150803933,0.0,0.0,0.0,4.021549103767405,1.67977995228903e-15,4.867497798430438e-16,6.060586867247968e-17,636.0019183948901,636.0019183948908,636.0019183948907,636.0019183948905
0.259999999999998,5.5258006642911774e-18,-4.0,0.06116203132728044,-2.5010176939923697e-14,-4.616685206102908e-15,-6.670425581800544e-16,1.850267144724338e-22,-4.0,0.12931376221384347,-3.473665009665865e-22,7.871139486108132e-17,-2.577442165593389e-16,0.5877888361791441,0.0,0.0,0.0,3.7190717033126655,1.636233191969168e-15,4.696071073915358e-16,3.4125002566522704e-17,629.0092230121707,629.0092230121713,629.0092230121712,629.0092230121709
0.3119999999999976,5.7279456293969085e-18,-4.0,0.09738505746345653,-2.5366564030880585e-14,4.164283243461425e-15,-3.008055193589228e-16,1.807093453867384e-22,-4.0,0.17296390730279548,-3.3926113414452814e-22,-4.172283501550879e-17,-3.418829603536941e-16,0.7675920155032975,0.0,0.0,0.0,3.224435175182262,1.6318424303651827e-15,-1.78615528928236e-15,-2.831787835610277e-17,617.4035502050673,617.4035502050674,617.4035502050677,617.4035502050667
0.36400000000000077,8.383901511988642e-18,-4.0,0.142237187663423,-3.654795637667378e-14,1.3368086534797634e-14,-3.220301406064507e-17,1.7599592591062299e-22,-4.0,0.2206182634427897,-3.3041222799778953e-22,-1.0891365502190256e-16,-5.663956346503419e-16,0.9231576541470415,0.0,0.0,0.0,2.6395163984780763,3.8349725362657774e-15,-1.8437876195483885e-15,-1.192846216811478e-17,603.3915931189184,603.3915931189191,603.3915931189194,603.3915931189179
0.41600000000000037,1.8133685489540747e-17,-4.0,0.1942828499441396,-3.968606552164732e-14,3.040452248817611e-15,3.975645624794016e-16,1.709706678409225e-22,-4.0,0.27142541925873054,-3.2097788054637853e-22,1.4574205972086778e-16,-7.371694939318592e-16,1.0494144437369375,0.0,0.0,0.0,2.0382991427861334,2.4678151542174224e-15,-6.392489703175067e-17,-4.9478004317134767e-17,588.6416928934946,588.6416928934955,588.6416928934952,588.6416928934946
0.46799999999999997,-1.4236467481857985e-08,-3.9999999857649238,0.25195251411691116,-0.00029366979369136706,-0.0002937132786332825,-3.000849399416872e-05,1.6570731696945652e-22,-4.0,0.3246397784282443,-3.1109654108254145e-22,4.423198153577656e-06,-4.422521643071407e-06,1.1453681024471725,0.0,0.0,0.0,1.4687665976760842,6.0505715442209305e-05,6.051473101304797e-05,6.473502003324627e-06,574.2913809656236,574.3276939971543,574.3301396135382,574.3301423186264
0.5199999999999996,-1.6862160470558655e-07,-3.9999998313966505,0.31369980056711877,-0.00022188388516174382,-0.00022176896185188363,-7.673634998771458e-05,1.6027025571299202e-22,-4.0,0.37961041169852133,-3.008890802324465e-22,1.0455321972063465e-06,-1.0476977453892814e-06,1.21224476481366,0.0,0.0,0.0,0.962353669407265,1.120191827912106e-05,1.1164846860573451e-05,5.214954738673492e-06,561.2664572865436,561.2733245105923,561.2868798728264,561.2868684912058
0.5719999999999992,-4.228835950644194e-07,-3.9999995770907266,0.37811159804801325,0.00033211090526175547,0.00033238679837530407,-7.367521419802579e-05,1.5471549860220213e-22,-4.0,0.4357709921370155,-2.9046065887288217e-22,-1.074227427573828e-05,1.0737882662692694e-05,1.2533441190950483,0.0,0.0,0.0,0.5315142582938992,-5.066549862098221e-05,-5.068757238464601e-05,1.4066842667362246e-06,549.9532535287493,549.9214940430059,549.9420530020936,549.9420460852295
0.6239999999999988,-5.236287419524241e-07,-3.999999476194929,0.4439560368958956,0.0005123203969818532,0.0005118414447135055,-4.569825812744583e-05,1.4909159055535782e-22,-4.0,0.4926307132632521,-2.7990241453740717e-22,-1.1538418565495827e-05,1.1549622053323369e-05,1.2723044478665158,0.0,0.0,0.0,0.18131591882531484,-3.062816410335378e-05,-3.0505014734041573e-05,-5.835990134408628e-07,540.5588494504426,540.5393603582003,540.5471118975914,540.547151157421
0.6759999999999984,-3.916788452040937e-07,-3.9999996082205476,0.5102100309930917,9.230171077633126e-05,9.113474108163155e-05,-1.8413364765337772e-05,1.4344041697120912e-22,-4.0,0.549766098720159,-2.692929822731112e-22,6.176549792129847e-07,-5.971095854247512e-07,1.2731800686952512,0.0,0.0,0.0,-0.09150563265827527,2.7690003353737197e-05,2.7829493625789408e-05,-1.0338572267723558e-06,533.1097701750386,533.1277163276106,533.1151760190867,533.1152211082983
0.727999999999998,-2.1206113670667572e-07,-3.9999997884064324,0.5760574082874343,-0.0002849463345283755,-0.00028500791039578035,-1.1642118972733954e-06,1.3779793386253984e-22,-4.0,0.6068136203627762,-2.586998653828821e-22,8.721141401492854e-06,-8.72982101682366e-06,1.2599816128613772,0.0,0.0,0.0,-0.2958746269977277,3.695363230221888e-05,3.6871462278155866e-05,-7.997172644951359e-07,527.4710895797551,527.4952077972192,527.4803909828174,527.4803641382204
0.7799999999999976,-1.4981398061890532e-07,-3.9999998512335337,0.640876244189118,-0.00015680917247619085,-0.0001550745864981095,6.5914369234478936e-06,1.321948255104411e-22,-4.0,0.6634630491384107,-2.481806700961109e-22,4.173399075324958e-06,-4.215645780967078e-06,1.236174468469915,0.0,0.0,0.0,-0.44146647624243296,-5.014324573170861e-06,-5.23835107682702e-06,-4.323100677977102e-07,523.4326974505929,523.429322032648,523.4295369390601,523.4294631841411
0.8319999999999972,-1.5605773179212328e-07,-3.999999844845984,0.70420894558746,0.00016932219807320014,0.00017079608399754538,8.501663802854108e-06,1.2665709644325285e-22,-4.0,0.7194514699678843,-2.377842169414681e-22,-3.0846680464265347e-06,3.0605029817783135e-06,1.2047405804158402,0.0,0.0,0.0,-0.5387927795427392,-3.033602189142503e-05,-3.0381849217292332e-05,-1.5927147305103235e-07,520.7146196003822,520.6945252056515,520.704020974786,520.7040058083556
0.8840000000000003,-9.715720371607589e-08,-3.9999999029918847,0.7657395739428047,0.00019685227900076714,0.00019613253966777234,7.843728186844129e-06,1.2120660392770247e-22,-4.0,0.7745578980697334,-2.275515404381333e-22,-2.3204801695037195e-06,2.3465001348338643e-06,1.1681983541452066,0.0,0.0,0.0,-0.5985539094490009,-9.284757907194057e-06,-9.09086937949445e-06,-1.5078351973416484e-08,519.0264570573121,519.0203560012698,519.0233212482804,519.0233856229477
0.9359999999999999,4.060538855016446e-08,-4.000000040279012,0.8252644220970128,-5.6743227520471066e-05,-5.847696057591874e-05,6.487975539813057e-06,1.1586153659785696e-22,-4.0,0.8285984398503752,-2.1751678766692805e-22,3.5145140224163576e-06,-3.476575733733799e-06,1.1284798879468354,0.0,0.0,0.0,-0.6298988914325865,1.997024226800758e-05,2.010566594685333e-05,1.0182042262064096e-07,518.1327094177196,518.1460380799392,518.139710472546,518.1397555124541
0.9879999999999995,1.5511524004226305e-07,-4.000000155012315,0.88266592825002,-0.00021417135516367254,-0.00021437017703983903,4.607961713517075e-06,1.1063684433534483e-22,-4.0,0.8814219466613622,-2.0770802532128086e-22,5.583489649008645e-06,-5.58401866832816e-06,1.0870610028916012,0.0,0.0,0.0,-0.6406949454674955,1.8299118902828042e-05,1.817526156504589e-05,1.3130559787397602e-07,517.828489731271,517.84062771855,517.8350428600153,517.8350016426616
1.0399999999999991,1.8218487361347306e-07,-4.000000182401339,0.9378905079063186,-8.405929071807909e-05,-8.255593504153474e-05,3.819953751885388e-06,1.0554462404760492e-22,-4.0,0.9329061144433597,-1.9814796396178016e-22,1.7974632744675377e-06,-1.826205186845715e-06,1.0450147466339148,0.0,0.0,0.0,-0.6373158284114243,-7.479443112548633e-06,-7.67698957032838e-06,6.038137798456511e-08,517.9326140860298,517.9275712408571,517.9303386321469,517.9302729045571
1.0919999999999987,1.722618816380275e-07,-4.0000001722080265,0.9909297659602607,9.912910095727293e-05,0.00010002877572737583,3.860089687186047e-06,1.0059446556567049e-22,-4.0,0.9829539865758713,-1.8885460739971564e-22,-1.6321066473739725e-06,1.624029777399783e-06,1.003083968309781,0.0,0.0,0.0,-0.6246815198559134,-1.7275243707662808e-05,-1.7269607289550983e-05,9.146653599533935e-09,518.2924976280957,518.2810117818539,518.2867860580483,518.2867879321055
1.1439999999999984,1.9943892396812168e-07,-4.000000198750789,1.0418058573696696,8.259590893406323e-05,8.160775863174146e-05,4.15196830109697e-06,9.579376149563705e-23,-4.0,1.0314908211681189,-1.7984183440778084e-22,-6.14337772904842e-07,6.398667175965386e-07,0.9617623380357451,0.0,0.0,0.0,-0.6064875049637015,-2.10688709515119e-06,-1.9345497501781955e-06,-1.1536540906406914e-08,518.800512232812,518.7991698210559,518.7997717587378,518.79982900266
1.195999999999998,2.589843906615435e-07,-4.000000258050258,1.090560263986233,-6.503344512773126e-05,-6.644721867986019e-05,4.38442460274529e-06,9.114798450514316e-23,-4.0,1.0784612875935782,-1.711199192937373e-22,1.9980758858231683e-06,-1.9750101072683698e-06,0.9213413759641146,0.0,0.0,0.0,-0.5852350655278769,1.2297006632827589e-05,1.2373891759607562e-05,-1.42004572800381e-08,519.394405122968,519.4025904127652,519.398435054776,519.3984605636608
1.2479999999999976,2.9229767551217253e-07,-4.000000291691535,1.1372453193898366,-0.00011906650963598404,-0.00011904435117765843,4.475983735107779e-06,8.666093520491658e-23,-4.0,1.1238269603189213,-1.626959972696747e-22,2.0959657218024693e-06,-2.102633015521276e-06,0.8819856911888847,0.0,0.0,0.0,-0.5626312731092541,7.226685937024637e-06,7.11216770455364e-06,-9.93516850847938e-09,520.0320760701907,520.0368275851431,520.0344358857913,520.0343979374906
1.3000000000000007,2.7681023000179946e-07,-4.000000276574808,1.181919248625154,-3.2519773349186025e-05,-2.529406000960485e-05,4.744393363969077e-06,8.233496349293067e-23,-4.0,1.167564081035454,-1.5457448000035704e-22,-1.7870730414032274e-08,-6.170915745633523e-08,0.8437761339001547,0.0,0.0,0.0,-0.5397695802610583,-4.708279607185651e-06,-7.5215109808111386e-06,-9.6502459595953e-08,520.6790551048063,520.6750074787291,520.6771580544298,520.6762269742125
1.3520000000000003,2.4970944495696117e-07,-4.000000245970194,1.22464197080754,4.11894103696864e-05,6.97159959130422e-05,5.392443037683183e-06,7.817116596246407e-23,-4.0,1.2096615627930534,-1.4675742621428347e-22,-1.3003337360850439e-06,1.051117696779048e-06,0.8067180548392333,0.0,0.0,0.0,-0.5171082769326899,-6.461873020215922e-06,-1.0166708080229613e-05,-7.939329292696734e-08,521.315764628151,521.310267872787,521.3133502163589,521.3121255428441
1.404,2.493223863896261e-07,-4.000000231131111,1.265473641139075,2.6084841374948438e-05,2.8442080904300803e-05,5.296903567010648e-06,7.416956173303891e-23,-4.0,1.250119212286515,-1.3924487180617067e-22,-2.8686135616508054e-07,5.449491052542753e-07,0.7708191768565162,0.0,0.0,0.0,-0.4950567775863545,2.2814237235088843e-07,1.7104776161557313e-06,-2.3748616212378748e-08,521.9307549096405,521.9313949823579,521.9307470637744,521.9312364853757
1.4559999999999995,2.6069883702591795e-07,-4.000000227258179,1.3044737489096356,-2.9671582136932762e-05,-6.415010720260144e-05,4.813192738096356e-06,7.032924884275288e-23,-4.0,1.2889461486731593,-1.320351234456749e-22,8.603477457899852e-07,-2.2852480376789438e-07,0.7360486071500739,0.0,0.0,0.0,-0.4736138271985692,4.9510079733496795e-06,8.628955318064045e-06,6.61874549508456e-09,522.5291784321277,522.5336569671283,522.5308343823964,522.5320473323014
1.5079999999999991,2.467785255968345e-07,-4.000000212111994,1.34169987950163,-4.0807008661794525e-05,-7.019572984431618e-05,4.321538992099117e-06,6.664854313995311e-23,-4.0,1.3261593993283471,-1.251250193306294e-22,3.5957293685111156e-07,-7.779438286653039e-08,0.7023762629502969,0.0,0.0,0.0,-0.4527155167996854,2.0613602016253426e-06,2.5957401755574927e-06,1.4383537881472903e-08,523.1151201868955,523.1166543356552,523.1158495030857,523.1160255392947
1.5599999999999987,2.0415563790559254e-07,-4.000000180594671,1.377208169535121,9.09986912341914e-07,5.394109024279331e-06,4.199865313859761e-06,6.312510142980852e-23,-4.0,1.3617826547896077,-1.1851016038065325e-22,-8.924279854986904e-07,6.267173183300327e-07,0.6697657639914355,0.0,0.0,0.0,-0.43214430325355135,-3.991588154945356e-06,-6.625352827308179e-06,-6.712447635837509e-08,523.6924741203646,523.6889805113171,523.6909263610506,523.6900596944449
1.6119999999999983,1.635239643967311e-07,-4.000000149730273,1.4110532114787087,3.915962354538816e-05,5.82164142950759e-05,4.663135875238411e-06,5.975603046548987e-23,-4.0,1.395845166816836,-1.1218511485563068e-22,-1.2517034785263676e-06,9.113237515730371e-07,0.6382042070222965,0.0,0.0,0.0,-0.41183289935936795,-4.626293958604978e-06,-6.265625683307453e-06,-6.482169403797689e-08,524.2593346599847,524.2557544415529,524.2575879727972,524.2570491175375
1.663999999999998,1.4633477066015496e-07,-4.000000134642184,1.4432892812266689,1.5829982471952406e-05,1.7727738245932215e-05,4.879026780481531e-06,5.653798322291084e-23,-4.0,1.4283807750202402,-1.0614359910052932e-22,-4.272912662701499e-07,3.844361184854784e-07,0.6076803583801728,0.0,0.0,0.0,-0.3916925520050764,1.2600041805473503e-07,1.393701659663569e-06,-1.0303407971395543e-07,524.8188047822647,524.8193037800839,524.8184872983489,524.8189035513742
1.7159999999999975,1.3761799292274367e-07,-4.000000126942454,1.4739699492457852,-1.958452506188297e-05,-3.468080261594378e-05,5.084733950425192e-06,5.346724376097595e-23,-4.0,1.4594270488928942,-1.0037863686081307e-22,9.496296016031904e-08,-4.3533523938277495e-09,0.5781836624535617,0.0,0.0,0.0,-0.3716346151509715,2.764515048874509e-06,4.572936842629382e-06,-5.9564849720955494e-08,525.3763247922554,525.3787315011251,525.3770243264133,525.3776174950709
1.7680000000000007,1.1550963185892764e-07,-4.0000001117270045,1.5031487138395137,-2.8492517081629628e-05,-3.65007112934157e-05,4.6559579622780646e-06,5.053980184480318e-23,-4.0,1.489024533343274,-9.488269937901037e-23,-2.0094894650878442e-07,1.122279816453959e-07,0.5497138038837666,0.0,0.0,0.0,-0.35164885253322714,1.494471891035372e-06,1.300449852553e-06,-6.4709843529478364e-09,525.9329277499869,525.9338435248043,525.93339493394,525.9333313613178
1.8200000000000003,7.86936182347715e-08,-4.000000085049911,1.5308784782669873,-5.680943153775681e-06,3.8267995753199576e-06,4.027031710677079e-06,3.3992943586838356e-10,-4.0,1.517216086966273,-8.964782827073608e-23,-7.538878051318931e-07,4.946086895175593e-07,0.522257655895648,0.0,0.0,0.0,-0.33163941533628205,-1.4419518420735014e-06,-2.9282268466320115e-06,1.615388312346319e-08,526.4900818772545,526.4886514710832,526.4896659950919,526.4891795214569
1.8719999999999999,4.34311123604645e-08,-4.000000056056563,1.5572115019804065,1.5106154492874876e-05,2.8248457079842496e-05,3.5131596849456796e-06,1.1043847261688012e-09,-4.0,1.5440463033292375,-8.46657429857077e-23,-8.334638660380097e-07,6.450182956346906e-07,0.4958064104895386,0.0,0.0,0.0,-0.3115703943623718,-1.915917349246135e-06,-2.52269077796875e-06,1.794561874369155e-08,527.0471760537303,527.0457247854746,527.0466118552698,527.04641346179
1.9239999999999995,2.0077623336379612e-08,-4.000000033437029,1.582201242777734,9.8946590309679e-06,1.1478055819216824e-05,3.194886901689407e-06,2.0332682806155602e-09,-4.0,1.5695610064918089,-7.99279344843354e-23,-4.831029502379542e-07,4.7147909989698253e-07,0.4703901192291934,0.0,0.0,0.0,-0.29174509768988865,2.276099751031588e-07,1.0995700327115574e-06,1.1805481736631368e-08,527.595988181795,527.5964216706665,527.5961034254595,527.596388228538
1.975999999999999,2.285381649854308e-09,-4.000000015445631,1.605900902289963,-1.0165591923578918e-05,-7.986912353052114e-06,3.385853541100325e-06,2.9482599874371757e-09,-4.0,1.5938068128335625,-7.542574660165999e-23,-2.932102426217258e-07,2.8200494946928565e-07,0.4459891352637464,0.0,0.0,0.0,-0.27212350521831197,3.001723209916688e-06,9.198758698550043e-07,-7.903841024531023e-08,528.1392541642282,528.140533734091,528.1399600391688,528.1392807574676
2.0279999999999987,-1.7665780187749515e-08,-3.999999993724873,1.6283629548369176,-1.8274713192487694e-05,3.5940453734181687e-06,3.858014583361937e-06,3.7398333932018084e-09,-4.0,1.6168307520392282,-7.115044642635939e-23,-4.0698287949124313e-07,3.417729855828174e-07,0.42259532832297175,0.0,0.0,0.0,-0.2527716844612597,1.81111557372361e-06,-1.1569215391250758e-06,-5.824414108173463e-08,528.6752628420646,528.6754760813837,528.6756518101943,528.6746843564724
2.0799999999999983,-3.589570120454811e-08,-3.9999999652619076,1.6496390673784325,8.125762226861004e-06,1.2188430784627753e-05,3.7519157322732998e-06,4.312028527018815e-09,-4.0,1.6386799407948835,-6.709328489188832e-23,-3.9563935155530034e-07,5.983420875427682e-07,0.4001844086686295,0.0,0.0,0.0,-0.23364451653957177,-1.8783119958589637e-06,-9.388569224309886e-07,-1.5669000630743616e-08,529.2045169306692,529.2035995712876,529.203851171796,529.2041570881394
2.131999999999998,-4.8836761944085885e-08,-3.999999940536525,1.6697802020136465,2.9771668962965873e-05,5.290768026181787e-06,3.3729811020372635e-06,4.5896047375096015e-09,-4.0,1.6594013033864405,-6.324554865836189e-23,-2.5512363691999216e-07,5.797465801362515e-07,0.37875244089801796,0.0,0.0,0.0,-0.21489568827418448,-2.3104896406854524e-06,4.835894440627485e-07,6.161086204342555e-09,529.7221088496708,529.721514534589,529.721378476149,529.7222874274296
2.1839999999999975,-5.913263398171279e-08,-3.999999928503925,1.6888366639559418,1.459879176758232e-05,9.047282935462323e-07,3.3512235342094736e-06,4.533369837730752e-09,-4.0,1.6790413339698904,-5.959860425643837e-23,-1.9914129096363502e-07,2.4709088122845203e-07,0.35827743364079195,0.0,0.0,0.0,-0.1965359743527773,1.7926684532112613e-06,-5.044566248037182e-07,-6.808020572445915e-08,530.228285183657,530.228703855741,530.2286331087494,530.2278865369916
2.2360000000000007,-6.839211750220678e-08,-3.9999999229888363,1.7068574889818031,-1.4584072061810601e-05,9.965557528672518e-06,3.602202436929047e-06,4.133602695412534e-09,-4.0,1.6976458958065503,-5.614393536719416e-23,-2.0872258869734205e-07,4.6469549311279027e-08,0.3387378261995654,0.0,0.0,0.0,-0.17861443604878097,3.161414913363363e-06,-1.2243987277475377e-06,-4.6023228136019636e-08,530.7221409724094,530.7227699216121,530.7230089729431,530.7215848987221
2.2880000000000003,-7.348794878904522e-08,-3.9999999123797823,1.7238906405626524,-5.230138639440803e-06,6.03078648173229e-06,3.3934943140078326e-06,3.3898548309858058e-09,-4.0,1.715260053230921,-5.287317402390274e-23,-1.0263229809393917e-07,2.096245110232568e-07,0.3201105265313781,0.0,0.0,0.0,-0.16116510208801105,-2.7020239148749485e-07,1.1796073890183276e-07,-8.952169960074904e-09,531.2029578080324,531.2029084198766,531.202839347956,531.2029652705401
2.34,-7.591495457626633e-08,-3.9999998999713813,1.7399827618528785,2.2443176124254034e-05,-4.704438723798434e-06,2.9983745241110887e-06,2.3233073530827866e-09,-4.0,1.731927932548186,-4.9778126441886227e-23,-2.7601816287810545e-08,3.0350573620885534e-07,0.30236993254393557,0.0,0.0,0.0,-0.144219769990576,-2.6268030704324153e-06,1.0346445534577963e-06,8.612286446029871e-09,531.669406927763,531.668890874381,531.6685851323916,531.6697718875447
2.3919999999999995,-8.004636449916665e-08,-3.9999998969025183,1.7551793482646625,2.7412294402954924e-05,-3.603693383863946e-06,2.8439846053402393e-06,9.703720110332841e-10,-4.0,1.747692608446948,-4.6850794110460187e-23,-7.971919123500572e-08,9.750852188811103e-08,0.2854958455068717,0.0,0.0,0.0,-0.1278605321595698,-1.8634239776328967e-06,-5.614216314033581e-07,-5.188467563061181e-08,532.1193776607688,532.1185923797095,532.1185959654363,532.1190176162501
2.443999999999999,-8.51689495202444e-08,-3.999999905806762,1.7695245209822077,1.2651753104838767e-05,1.3229657423395369e-05,3.1434811856640652e-06,-6.41782139637102e-10,-4.0,1.7625960128642875,-4.408339071572096e-23,-1.3012738882271383e-07,-1.7566151957406142e-07,0.2694579183596265,0.0,0.0,0.0,-0.11209530179826711,2.8813919169933943e-07,-2.0087232841912724e-06,-4.765848010308939e-08,532.552299041641,532.5517422872499,532.5522287001464,532.5514854707583
2.4959999999999987,-8.495465888221536e-08,-3.9999999201760166,1.7830609020042076,-5.5853047854345936e-06,1.4932421183779363e-05,3.4078697041680283e-06,-2.493157482631709e-09,-4.0,1.7766788635579829,-4.1468355403923677e-23,-8.901199492705333e-09,-2.9351277716077707e-07,0.2542273931526442,0.0,0.0,0.0,-0.0969433319221343,5.858429373621994e-07,-1.4747363791019692e-06,-8.091250744426996e-08,532.9680875301374,532.9678001224383,532.9679994514493,532.9673331998595
2.5479999999999983,-7.847111492043693e-08,-3.999999932373996,1.7958292061912158,-6.0815732438365526e-06,1.0748843986331571e-06,3.435918264835274e-06,-4.5421926250878e-09,-4.0,1.7899806099278754,-3.8998362841877077e-23,1.4288051175147937e-07,-2.3469809061387692e-07,0.23976297891362058,0.0,0.0,0.0,-0.08231461911318749,-9.552750119496205e-08,7.585749980204296e-07,-3.445391726159073e-08,533.3689540624448,533.3691682856952,533.3688051229819,533.3690810740335
2.599999999999998,-7.155575536581051e-08,-3.9999999416771597,1.8078686047180994,-2.709422991665121e-06,-1.5355790523503985e-05,3.021158301794986e-06,-6.717987798848507e-09,-4.0,1.8025393938877343,-3.666633048262148e-23,1.53717788630003e-07,-1.751588573165895e-07,0.22604691721932882,0.0,0.0,0.0,-0.06831106820942431,-2.7659100972165023e-07,1.6867624373164959e-06,2.205648057887324e-09,533.752540010433,533.7529952935603,533.7524582646118,533.753092146186
2.6519999999999975,-7.099934122183701e-08,-3.9999999494702423,1.8192171524376735,-2.244071103106778e-06,-1.1887081542531924e-05,2.5356994076857784e-06,-8.952001787428013e-09,-4.0,1.8143920238231022,-3.4465423401179014e-23,2.523500839309603e-09,-1.4964012067126116e-07,0.21304760780516063,0.0,0.0,0.0,-0.05491933658018991,-1.1650813474537e-08,1.6202044888923695e-07,1.4618130971370258e-08,534.1194665231818,534.1195150376758,534.1195127910067,534.1195688234136
2.7040000000000006,-7.553450208200011e-08,-3.9999999560542103,1.829911101631703,-3.7080769564490824e-06,4.161987181223837e-06,2.17764587184007e-06,-1.1214309330997865e-08,-4.0,1.8255739598818634,-3.2389057025938634e-23,-1.0543768193936441e-07,-1.2725003238420077e-07,0.2007338141893562,0.0,0.0,0.0,-0.042124577275050076,2.035074866004248e-07,-1.2664878124657785e-06,1.3348285370329246e-08,534.4698250085956,534.4694822787233,534.4699362752876,534.4694623142499
2.7560000000000002,-7.85393149377246e-08,-3.9999999609034047,1.8399851264202032,-3.4933967020318954e-06,1.020177783823103e-05,2.589377982775221e-06,-1.3508423918694156e-08,-4.0,1.8361193090347574,-3.0430898055866343e-23,-5.6910073251827837e-08,-9.065115794209437e-08,0.18907444498913317,0.0,0.0,0.0,-0.029909325076003718,8.674524481754238e-08,-7.240037466301672e-07,-1.0144761739901518e-07,534.8040395904233,534.8038342517144,534.8037208076253,534.8034595662945
2.808,-7.731251848225859e-08,-3.999999964135393,1.8494724498965827,-1.2153242692271623e-06,1.6365080010361472e-06,3.0530883976481714e-06,-1.5834301982602054e-08,-4.0,1.84606082851475,-2.85848638218502e-23,3.710777707063849e-08,-5.811985270580584e-08,0.1780420265753651,0.0,0.0,0.0,-0.018270927335944598,-1.3041890870100328e-07,6.243522973542961e-07,-6.064656541386141e-08,535.1219036859211,535.1220627475321,535.121654528546,535.1218975879809
2.8599999999999994,-7.523198955462714e-08,-3.9999999667329353,1.8584045460552663,3.6572660611415317e-06,-2.9615021277676686e-06,3.0922968751980594e-06,-1.8171627573113106e-08,-4.0,1.8554299363987703,-2.6845120321784556e-23,3.7124214999982584e-08,-4.295062457426829e-08,0.16760034374463437,0.0,0.0,0.0,-0.007128821812982092,-1.0833276433093261e-06,-1.230472342312912e-07,-6.127516537562335e-08,535.4265520465552,535.4261637779082,535.4259941936331,535.4263032575301
2.911999999999999,-7.419156126481654e-08,-3.999999970830287,1.8668114693574795,6.5069160792233125e-06,3.758371851804291e-06,2.919658458812775e-06,-2.0494753052431912e-08,-4.0,1.8642567282345002,-2.5206079133152922e-23,1.4864415299835907e-08,-8.411422512768456e-08,0.1577301367237227,0.0,0.0,0.0,0.0034639418403088623,-6.372840022938186e-07,-7.902153122172475e-07,-2.0779562975471336e-08,535.7157250827742,535.7152658937651,535.715449184471,535.7153999904818
2.9639999999999986,-7.174080243604084e-08,-3.99999997744447,1.8747219673770046,-7.582591482553616e-08,6.028754523397863e-06,2.6759358493406114e-06,-2.2785060772066618e-08,-4.0,1.8725699987400373,-2.3662393383631145e-23,4.975557413823476e-08,-1.3347425187580169e-07,0.14839947300511852,0.0,0.0,0.0,0.01356706060990829,-1.20027371345851e-07,-9.390287726801351e-07,-3.722756886085359e-08,535.991386660498,535.9910461652181,535.991221113878,535.9909577981143
3.0159999999999982,-6.67683529272755e-08,-3.9999999840469966,1.882163412729202,-4.1089672749397285e-06,2.6676654673619373e-06,2.489506586787623e-06,-2.5021425996725092e-08,-4.0,1.880397267716759,-2.2208952939344826e-23,1.0571326951595299e-07,-1.264841401330741e-07,0.13958570325600497,0.0,0.0,0.0,0.02317256574563105,2.0770204492788467e-07,-3.846982736590527e-08,-1.3941132655647955e-08,536.2531321316337,536.2531865146093,536.2531513568337,536.253072249201
3.067999999999998,-6.081036354654528e-08,-3.9999999887304143,1.8891617801113576,-6.571652743434568e-06,-6.6846261524353075e-06,2.1375936058098453e-06,-2.7173156481478013e-08,-4.0,1.8877648094167152,-2.0840878951657953e-23,1.1698901515937326e-07,-8.310327234382356e-08,0.1312591762828962,0.0,0.0,0.0,0.03233728521532518,3.3299986487391556e-07,8.706353583875903e-07,5.59252891067955e-09,536.5027740171731,536.5031606266939,536.5029000312434,536.5030727206006
3.1199999999999974,-5.7702362680052795e-08,-3.9999999904839054,1.8957417539051742,-4.667804062262486e-06,-8.67583519774187e-06,1.7991955897341587e-06,-2.9208283926108254e-08,-4.0,1.8946976846965065,-1.9553517886539555e-23,4.563178505633943e-08,-2.296707759214704e-08,0.12340078655381063,0.0,0.0,0.0,0.04103713310296758,-2.5001576450806682e-09,4.310736462543681e-07,1.0947208128137181e-08,536.7399501394602,536.7400877371398,536.7399866178501,536.7401258209197
3.1720000000000006,-5.8320404188958583e-08,-3.9999999901243948,1.9019268339152762,-5.121846887672433e-07,-1.0104967312748959e-06,2.04355720408232e-06,-3.111208693251047e-08,-4.0,1.9012197753708817,-1.8342435145467097e-23,-2.5129394593024534e-08,1.2946367470606283e-08,0.11598268855281915,0.0,0.0,0.0,0.04932771204638599,-2.8826295117936306e-07,-5.317705180683303e-07,-6.703013667307523e-08,536.9660944908031,536.965831321879,536.9657738027718,536.9656956551669
3.224,-5.9513742191725944e-08,-3.999999989431351,1.9077394691521075,1.167807458896393e-06,5.033129539415023e-06,2.2655654907470334e-06,-3.289284774852063e-08,-4.0,1.9073538202520386,-1.720340837331259e-23,-1.9670086171618134e-08,1.2103982088216617e-08,0.10899155408323606,0.0,0.0,0.0,0.05714903085093509,-1.455699025363116e-07,-5.971876866441565e-07,-3.635535298467726e-08,537.178972751666,537.1787344769425,537.1788023449892,537.1786574671326
3.276,-5.86820441430876e-08,-3.9999999891900484,1.9132011639346507,1.5846176388190695e-06,4.2749881454047355e-06,2.2187568064267107e-06,-3.456422749622052e-08,-4.0,1.9131214524257403,-1.6132420536564552e-23,2.460859134476594e-08,4.29448368812753e-09,0.10240304940214646,0.0,0.0,0.0,0.06453592494654935,-4.529028559332355e-07,-4.586286990302935e-07,-3.720911520095083e-08,537.380039027106,537.3797467195246,537.379767225384,537.3797653892349
3.3279999999999994,-5.5957968416736835e-08,-3.9999999897013043,1.9183321326177827,2.7800399961283868e-06,1.2911716630729501e-06,2.0856512391523944e-06,-3.612948899009482e-08,-4.0,1.9185432373735498,-1.5125652844435287e-23,6.014180926885035e-08,-1.5310226020057e-08,0.09619530979858844,0.0,0.0,0.0,0.07150876080945688,-3.051639136901146e-07,4.242329028464553e-08,-1.3066527573069304e-08,537.5695939766517,537.5695097513941,537.5694517221611,537.5695631462108
3.379999999999999,-5.2732849808272046e-08,-3.9999999913068223,1.9231514451021783,-1.2656784560700674e-06,-3.883905611189052e-06,1.7829032297954119e-06,-3.758190288317219e-08,-4.0,1.9236387116024525,-1.4179477575751988e-23,6.026169046421633e-08,-3.477828264450374e-08,0.09034299487244586,0.0,0.0,0.0,0.07813304124207113,3.197867090073021e-07,4.800912673599576e-07,4.717338971708227e-09,537.749548888149,537.7498052145653,537.7496674009152,537.7497187716154
3.4319999999999986,-5.116157032875077e-08,-3.999999992374296,1.927676912334609,-4.465632428355062e-06,-4.507459806076537e-06,1.5534016362111704e-06,-3.891172007604757e-08,-4.0,1.9284264214894493,-1.329045086592956e-23,1.900814113926677e-08,-1.3643324199305475e-08,0.08482668839719723,0.0,0.0,0.0,0.08443131491698376,3.9277536853452256e-07,1.9377261812349326e-07,-2.748852221435454e-08,537.9208711325257,537.9210590360226,537.9209035524557,537.9208398009469
3.483999999999998,-5.153881369807214e-08,-3.9999999915693336,1.931925537891368,-3.415780491877382e-06,1.0868026955504006e-06,1.900475784480451e-06,-4.0119271559322616e-08,-4.0,1.9329239620899683,-1.245530550066161e-23,-1.5264162837191985e-08,2.405797573157436e-08,0.07963165383195897,0.0,0.0,0.0,0.09039468743675892,3.6239733484927635e-07,-7.49455258303614e-07,-6.545087943245037e-08,538.0831695469673,538.0830455884455,538.0830632689155,538.0827071887203
3.535999999999998,-5.146477091271261e-08,-3.9999999892130456,1.935913582087921,-1.4493493704384395e-06,6.280114750827014e-06,2.039502243589716e-06,-4.1215579060220024e-08,-4.0,1.9371480156956333,-1.1670943756154587e-23,1.2235297834846701e-08,5.2404976054995074e-08,0.07474250832005044,0.0,0.0,0.0,0.09602390822968779,5.842324492455391e-08,-7.100955742637255e-07,-3.13828648302494e-08,538.236105364025,538.2358967198222,538.2360174908973,538.2357714362147
3.5879999999999974,-4.888044967510647e-08,-3.999999986299146,1.939656381768332,3.0735793972758213e-06,6.656377920504519e-07,1.7929906114708107e-06,-4.221034260258725e-08,-4.0,1.9411143899594738,-1.0934430319681738e-23,6.180254701697999e-08,5.462440932026189e-08,0.07014165255560992,0.0,0.0,0.0,0.10134066907796169,-3.6882839636035456e-07,3.6164633645331775e-07,-1.521612824925077e-09,538.3803731000297,538.3803708011853,538.380249878756,538.3804836902026
3.6400000000000006,-4.6011089381234316e-08,-3.9999999847156067,1.9431684646758216,4.656325487070631e-06,-6.337780194848015e-06,1.4526963233158183e-06,-4.310146294935497e-08,-4.0,1.9448380554355629,-1.024298531887294e-23,4.687407698109798e-08,1.915884788855255e-08,0.06581310212180856,0.0,0.0,0.0,0.10636264674282685,-2.3231371357478032e-07,7.226874466555121e-07,9.848149358073124e-09,538.5166529078195,538.5168098276329,538.5166119948732,538.5169175956513
3.692,-4.578022232507375e-08,-3.999999985151538,1.9464634258756555,1.7408414717655277e-06,-4.609163348794981e-06,1.1890327079020055e-06,-4.388277137089923e-08,-4.0,1.9483331824055796,-9.593977483413787e-24,-1.3127145875939815e-08,-1.7774165926287243e-08,0.061739767870385556,0.0,0.0,0.0,0.1111197682773074,1.834974394508771e-07,3.090950077568089e-08,1.0010501933898458e-08,538.6458511347315,538.6459197285969,538.6459438103913,538.6458949938936
3.7439999999999998,-4.754586977286257e-08,-3.9999999864076083,1.9495541759302872,-1.1281596941696892e-06,2.191967277780754e-06,1.0364015653295964e-06,-4.456181230046608e-08,-4.0,1.9516131768873832,-8.984917458638081e-24,-3.740977526141867e-08,-2.4008721584254806e-08,0.05790970188323937,0.0,0.0,0.0,0.11560872279526158,2.6537949937661837e-07,-5.657428680356842e-07,6.344991787536374e-09,538.7677849832997,538.7676889116674,538.7678913920328,538.7676255564227
3.7959999999999994,-4.8476999357542614e-08,-3.9999999872472833,1.9524529576859042,-4.774507698229656e-07,4.275527492268202e-06,9.661168741179554e-07,-4.515730106183733e-08,-4.0,1.9546907157405122,-8.413451286809495e-24,-6.434533144733605e-09,-1.2528542319214976e-08,0.05430999460165296,0.0,0.0,0.0,0.11983617692215988,-2.2988924372273532e-08,-2.8392394310810345e-07,2.8269828896684387e-09,538.8825140951614,538.8824159495626,538.8825163327976,538.8824328901468
3.847999999999999,-4.7621486781650517e-08,-3.9999999878838532,1.9551713071003758,1.7223463509322415e-06,1.404256816689183e-07,9.39091943509478e-07,-4.56839616044505e-08,-4.0,1.9575777808010437,-7.877354068642927e-24,2.3771631428364226e-08,-1.3923804653712948e-08,0.05092656171692476,0.0,0.0,0.0,0.12382355506347968,-2.1545951732114968e-07,3.1061246870901576e-07,6.57481870008912e-10,538.990638181895,538.9906686041088,538.990571525098,538.990739720347
3.8999999999999986,-9.365971523293976e-08,-3.9999999992212314,1.957720100818572,-0.0011171466445753292,0.005255031176458496,-7.786569570237209e-07,5.2743939073992226e-05,-3.999988523740462,1.9602856919935125,-7.374523814773488e-24,-6.346027837894562e-06,-1.3847401194843993e-06,0.04774542465832589,-0.0018774411305810736,0.00881973974611245,-2.5953972441007447e-06,0.12760540693470002,-0.015282940154268931,0.06705002285120701,1.0373774091473127e-06,530.7530828803164,547.3028609060714,525.7711896985686,552.0973622989137
3.951999999999998,1.1636050750464068e-05,-3.9999974322919685,1.9601085677083108,-0.1010107044759579,0.44030953463700845,-0.0004125140730459457,0.0008428181472093675,-3.9998016088283235,1.9628251393810066,-6.902975494395373e-24,0.0004540276026513336,9.834794215683581e-05,0.04473505338882898,-0.06566856017675578,0.27944413044104927,6.76282944613813e-06,0.13139780084214087,-0.014657219740190772,0.049429229245333633,0.00013857199057929395,533.3732563386737,544.4917308597547,529.0954451169189,549.5720706545999
4.003999999999998,0.0002440709597013809,-3.9999434806963525,1.962345258639975,-0.42768049706856265,1.739954403582212,-0.005186351304166931,0.002758414425073582,-3.99931874495303,1.965206214126203,-6.4608352861274334e-24,0.007318133715551711,0.0017123164058204844,0.04208172051200448,-0.12783602580914635,0.48859460209758493,0.0008806974908220407,0.135574206582609,0.011762110892110423,-0.05627344292439186,0.0008667365335843182,544.9226688115331,530.6598076966376,551.5098657638159,529.8250631687648
4.055999999999997,0.001248124058397535,-3.9996989250933157,1.9644278792852299,-0.7429030337731254,2.8478567934332863,-0.009526757299308302,0.005805765959250534,-3.9985274082006015,1.9674384383462322,-6.046335034282933e-24,0.026142993537919608,0.006432220586465041,0.040220932522803184,-0.0756163416432254,0.2396292023542935,0.0033188021260448543,0.1425389699709177,0.02145725901690762,-0.07764974262484911,0.00022939442957166652,548.016739806372,530.0523944442508,555.4783801068635,523.8309697567724
4.1080000000000005,0.003494420126130207,-3.999130077669213,1.966353983722257,-0.7912640495791021,2.897896605256596,0.0004385545524679996,0.009983789465303903,-3.997431079019252,1.969530793853009,-5.657806912096385e-24,0.05165363206706578,0.013190187335041783,0.038759967333231046,0.018745323973823218,-0.10495588204245998,0.003026295274217745,0.15037115054662822,0.0010213082204830089,0.009234069018755196,-0.001161919401976607,540.040639741338,543.3032491387606,536.421638926064,539.0535339619795
4.16,0.007011175719904352,-3.9982145086792027,1.9681419192227287,-0.6927308717785103,2.522254779950494,0.008424294086162614,0.015334656384590696,-3.9960219796512026,1.9714917497781905,-5.2936782920632774e-24,0.07502790930614843,0.0196265330558069,0.03704447241978634,0.027163914819377195,-0.08258460412581971,-0.0003218541384377879,0.15574330018360816,-0.01677499086208636,0.06649901025125461,-0.00043085575764974585,532.6004512608554,548.4529907433966,525.6487510999848,552.2744725003172
4.212,0.011634617413669097,-3.9969946469730653,1.9698166876355905,-0.7311792093564576,2.763781161337658,0.002076189997694121,0.021943638620660875,-3.9942744013355598,1.973329289088361,-4.952466822352687e-24,0.09578454689697755,0.025280548564038975,0.03629164457349126,-0.04383415984899386,0.19688010730998545,-0.0010990982013309295,0.15888679218103344,-0.010184222679636238,0.02626927544531299,0.000874294534933885,535.8790531283904,541.0268866998885,535.586199429813,547.1894721830993
4.263999999999999,0.01744703428312533,-3.9954590488738484,1.9713864209180654,-0.9571079267243775,3.6187824594993603,-0.009171728367520294,0.02990882048573837,-3.9921494851781585,1.9750509340015103,-4.632775707238007e-24,0.12044210619739874,0.03175731455871282,0.03736887035288101,-0.08721357146080058,0.3047421925085728,0.0018047881653237927,0.16321646248243127,0.008881689268575807,-0.03911196332423772,0.001148446791755462,542.9301762067996,533.248794052513,549.575036874339,534.3141882413099
4.315999999999999,0.024788360264932727,-3.9935178802205638,1.972842132884503,-1.1614913567948295,4.244760412795911,-0.009599322182072274,0.0392973348988129,-3.9896309299050507,1.9766637703204906,-4.333289188633436e-24,0.1521944363360237,0.0402079671600402,0.03918365224521931,-0.04590081545220637,0.12071887341330441,0.004640189614654422,0.17027584540301738,0.015597878797747829,-0.038850466348261926,-0.0002494083970216219,544.3641350328736,536.952772204919,548.4490483383112,531.0656002461776
4.3679999999999986,0.033908371642710995,-3.991089468305288,1.9741834769859112,-1.1622765558512866,4.213056302970153,0.0033735604196132923,0.05011486042397408,-3.986744900118056,1.978174470702985,-4.052768225108836e-24,0.1870358194781692,0.049784298360459514,0.03992425204536349,0.02801570887163186,-0.08051102154113046,0.0031250574298764093,0.17718173122152178,0.003917996903538464,0.007024873522879449,-0.0013302342419309163,540.940981628685,544.4158510751236,537.6843443702705,538.6791650879087
4.419999999999998,0.04477763058646989,-3.9881782486586657,1.9754309789511153,-1.0207627207201726,3.9446982151414325,0.010923620597811299,0.06234475392507088,-3.983532755449603,1.979589316890707,-3.790046364164176e-24,0.21974028891480363,0.058693264767730624,0.03972159821704187,0.050415784126323894,-0.063553319848156,-0.0006829100118806678,0.18091733255752548,-0.007960794683212962,0.0371203357811661,-0.0004761100249741016,536.6804928113057,545.9632055875118,532.486341699872,546.8811290250451
4.471999999999998,0.057258437561978695,-3.9848515834757454,1.9766084906775223,-0.9214211224952544,4.0193951731601425,0.004967616704203842,0.07599053458131781,-3.980037808413166,1.9809142209231427,-3.544025803063327e-24,0.25010297915544466,0.06621310508673231,0.04076578090776907,0.018573750363788402,0.08515781438074302,-0.00167761900956301,0.18213379973097535,-0.005477039485704938,0.012382854240355123,0.0006067439510371842,538.4394852056241,540.6451484016349,538.7462564978407,544.4290242877968
4.523999999999997,0.07134930316035575,-3.9811622690570894,1.9777237458754304,-0.9169113967522422,4.386334978850778,-0.0029278588024715113,0.0910538647031956,-3.976295273610876,1.9821547453632269,-3.3136736331421645e-24,0.28161800715803464,0.07299562974368566,0.04362768623845633,-0.0045281004318706965,0.12348441649582187,0.00016739396002451125,0.18353283664386266,0.004404356783900852,-0.022768938311345945,0.0005468080633923481,542.6069346902221,536.742872078335,545.8381245708783,537.1907945870258
4.5760000000000005,0.08717217818306913,-3.9771232378844474,1.9787729477851526,-0.904076498121811,4.568305526301966,-0.0025643258573132804,0.1075170281276643,-3.972337507902148,1.9833161225639442,-3.0980182622056683e-24,0.3156194502336798,0.07966011899545442,0.04620582123925755,0.015058730742213606,0.006613395018238684,0.0014469947387090224,0.18582454297944423,0.006545018141058272,-0.020199116505882568,-0.0002701139060043865,543.296244486229,538.9479641352494,544.4621957243969,535.9306716222914
4.628,0.10477501126008157,-3.972748922556526,1.979758851729948,-0.8020877957088759,4.372018166789851,0.003302674769046604,0.12532893429029102,-3.968194597755206,1.9844032730060808,-2.896146009402722e-24,0.3495346298861148,0.08586589079617188,0.0466877818377725,0.0447979392153012,-0.10169376373370762,0.00041785522349579535,0.1871794579686258,-0.0006183414866488281,0.010309662749764182,-0.0005912490041153206,540.1614743453133,543.244460401517,537.9589523464433,541.4482284171564
4.68,0.12404555137493174,-3.9680899751816465,1.9806943522570208,-0.661113953663882,4.071021523406428,0.005363960638053173,0.14442651898416353,-3.963890333361722,1.9854208227382177,-2.7071978668055124e-24,0.3804939095450133,0.09090857805081215,0.04599963408829805,0.04385281350316862,-0.08417276883851238,-0.0011944657309697015,0.18640388671354452,-0.006506641338479308,0.025181630664160827,-0.00013330871968662562,537.9280234380445,543.8776660826555,535.3846191139014,545.4888550522963
4.731999999999999,0.1448226391372717,-3.9632136426236557,1.9815906977146582,-0.5755015498888856,3.9576575524003816,0.002229915936520231,0.16474899488870903,-3.9594380776415083,1.9863731199506143,-2.5303664218156124e-24,0.40857987173307375,0.09472496454835566,0.04623355789769342,0.017248938544641858,-0.008186909279572104,-0.0014349457074119862,0.18435793292951508,-0.003927805985234584,0.006783690363646604,0.00025973440334572137,539.7354201817368,540.6464720531998,539.360853861514,542.7723838073289
4.783999999999999,0.16702194556023386,-3.9581636095764243,1.982449602280808,-0.5656218036531896,3.984872903228431,-0.0010170169157078174,0.18624796206212982,-3.954835039030503,1.9872642507149523,-2.3648929344615183e-24,0.43565637484128067,0.09792612156417448,0.04755119202336716,-0.003308650041757879,0.008362779279235764,-0.0006496175859377047,0.1824922594214182,0.00043653110726035987,-0.006377043357215483,0.00021262966126605094,541.166988336624,539.2720136062743,542.0235104596857,539.8529238180852
4.8359999999999985,0.19062082160184338,-3.952950077185428,1.983267645281679,-0.5766064987651788,3.9161166630567856,-0.0011065162706260458,0.20888065998458455,-3.950069345213601,1.9880980539219766,-2.2100645636378276e-24,0.46237890536337367,0.10106997770584203,0.04821769481114242,-0.0014680032359934534,-0.04850539194034756,-9.661672043681654e-05,0.1811504264234857,0.0015301369055419655,0.0001841274887509532,-6.734804550077317e-05,540.3842348987698,540.9306282581633,540.6443153309488,540.2151163699888
4.887999999999998,0.2155606378339288,-3.9475724230172995,1.9840441533718425,-0.5644876631762501,3.6929939996128414,0.000642570559602153,0.23260405431745687,-3.9451296608308675,1.9888781354489644,-2.065211736357057e-24,0.4875300642654891,0.10420127318801094,0.047342466082321566,0.007565103900744073,-0.08605259419556167,-0.0002838942851354118,0.1797300790125238,-0.000823084405628681,0.014840863672227925,-0.00016761584458756593,538.5505096285069,543.01739907982,537.7175922483068,542.7142962301915
4.939999999999998,0.24171864853137984,-3.942038844652277,1.9847818633450112,-0.5383089579716515,3.4614632992794014,0.0013134805670708806,0.2573642867909102,-3.9400115559113034,1.989607881588678,-1.9297056541366e-24,0.510070175083676,0.10711681368000085,0.045933597906269406,0.007738771458636609,-0.06480898386341903,-0.0006585236387919497,0.17799186354059895,-0.0019292327611989618,0.014467246507267925,-3.2627047891229114e-05,538.5109797157086,542.5083562596317,537.7823777768584,543.0110053323009
4.991999999999997,0.2689686526002388,-3.9363632806513738,1.9854825459331378,-0.5328181096915758,3.3476795668554438,0.00032727278961519846,0.2831215884466813,-3.9347085931117287,1.9902904717710292,-1.8029559307205554e-24,0.5304068359654265,0.109782608723593,0.04530630070747073,-0.0028265304021813627,-0.022278716203353848,-0.0006405124003068561,0.17633089347710576,-0.001422058994247423,0.0060812647966286045,9.774772600173683e-05,539.5043195721054,540.9904912782914,539.3812565893376,541.7731715589165
5.0440000000000005,0.29723479969380195,-3.93055098282327,1.9861452596284315,-0.5573520017917212,3.2987143520307054,-0.0005757451876182721,0.3098278334644959,-3.9292163040188517,1.9909288906081726,-1.6844083554350696e-24,0.5496288034323721,0.11243321566836544,0.04528321537221492,-0.010297317230291328,-0.020195065261614433,-0.0003268264937280255,0.17519457999036503,0.001029969568295649,0.0005824063964415442,4.752243898517834e-05,540.0449357693439,540.5591918952368,540.5342210347949,540.3915163385252
5.096,0.3264707028043729,-3.924594533958695,1.9867684793173093,-0.5795581149399629,3.176332292860024,-3.0146102218823115e-06,0.33742514183534567,-3.923540003605264,1.9915259392930844,-1.573542776592663e-24,0.5679462223517968,0.1152703181710126,0.04452716719744883,-0.0037864159259650408,-0.05625217895439048,-0.00019507302503799385,0.1745325008064383,0.002510790452546155,0.007032441359232398,-0.00010160071880085127,539.0130435479344,542.0554835987314,539.4710176810167,540.9134600618603
5.148,0.3566023730153839,-3.918487324440378,1.9873528411162797,-0.5662619591757501,2.973853561166049,0.001148510180244206,0.36586657369534425,-3.9176972770431244,1.9920842463810164,-1.4698710994923099e-24,0.584558478830956,0.11817400392074447,0.042687580336164155,0.010223441664981183,-0.06968260851229932,-0.0003936303292252561,0.17399944888493574,0.001999616798550867,0.013960131677515263,-0.00012057391113039143,538.0041105815168,543.0920449432882,538.2348953052037,542.0507431878857
5.199999999999999,0.38752342454518324,-3.9122380561058443,1.9879005742181786,-0.5139884374914941,2.793443025981609,0.0013262668952017571,0.3950869669869041,-3.911721267743455,1.9926062779823963,-1.3729353937055571e-24,0.5990512916460469,0.12080062689755917,0.04073293888498933,0.0213295331801978,-0.05102899791669739,-0.0005711548722310805,0.1734926849775864,-3.3572861363474846e-05,0.014270136859583973,-2.3603261877744713e-05,538.1015706699374,542.6416396273771,538.0106330510932,542.5727894294029
5.251999999999999,0.4191371721946184,-3.9058724331655754,1.9884134914614628,-0.4457501552525925,2.6878376333451253,0.0005833003734500153,0.4250412526130686,-3.905646969582621,1.9930943473949676,-1.2823061044911704e-24,0.6118679522681042,0.12285221953924333,0.03937495034271606,0.022797964775777176,-0.026717491228517846,-0.0004995802409344964,0.17315916669240347,-0.0008568890287181613,0.006057379718403467,4.6622850286092703e-05,539.4185092293795,541.0773358730333,539.3027376247181,541.5075749699124
5.3039999999999985,0.45137993141469135,-3.899423280198129,1.9888924473864522,-0.3843254547378023,2.608439687162891,-1.1770055027245116e-05,0.45567040179334145,-3.8995062171862065,1.993550624202074,-1.197580363340517e-24,0.6236556860086149,0.12426570086131124,0.03830725462332022,0.018872579768986632,-0.03130794317779624,-0.0003232389434487212,0.17309918930556492,-0.0005071531567069552,0.004738246571818049,2.1582909870498065e-05,539.6141178720707,540.963628703815,539.5252612031531,541.198060534355
5.355999999999998,0.4842008563011694,-3.8929203643514407,1.9893385039020373,-0.3326156800755776,2.4762674480950713,2.136360208859547e-05,0.4869160701125483,-3.8933267147078108,1.9939771428631214,-1.1183803928205054e-24,0.6344051459625795,0.12513961271739804,0.03666061823875644,0.017141069112491775,-0.05228011186710341,-0.0002391478003059287,0.1732331514693262,0.0010439519234535502,0.005777534860874846,-2.3565329534683916e-05,539.2804916261703,541.4558912553352,539.534149462969,541.0439292897332
5.407999999999998,0.5175295284152739,-3.886388939573458,1.9897535026288726,-0.27508119023654787,2.312258945807694,0.00023285224780935976,0.518731150040338,-3.8871373722566043,1.9943758108213354,-1.044352001049022e-24,0.6436391746523279,0.12553716280665703,0.03451246872699828,0.021450870953650714,-0.05274286882776412,-0.00020957887021806737,0.1734137289531041,0.0013698787603933986,0.010572009166525818,-2.497629865335545e-05,538.4690636338586,542.277344498092,538.8225637150921,541.757584486223
5.459999999999997,0.5512834286808503,-3.8798561591447234,1.9901396259983606,-0.20048352715374848,2.190943273982513,0.00023098959066202745,0.5510674854798967,-3.8809681691223554,1.9947484161530291,-9.751631613079138e-25,0.6513181349658621,0.1253711663286699,0.03267759041124404,0.027013401392733914,-0.031504176538204566,-0.0001433293313723302,0.17364171392466335,-0.00043865374232212283,0.013146008944374912,-5.6187878159002925e-06,538.3198927168903,542.3724845214048,538.1603695473826,542.4929063957474
5.5120000000000005,0.5853986536902013,-3.873355762816714,1.9904985742104597,-0.12035194896214342,2.124370491222009,0.0001054284160532603,0.5838780763670719,-3.8748432736706713,1.9950966347816597,-9.105026724694118e-25,0.6579612722334287,0.12451360353375049,0.03144171184639267,0.025567600667105606,-0.019096954876265802,-8.745919814562895e-05,0.1739827342346065,-0.002047054616558739,0.008779194768712256,2.9111031784857135e-06,539.2702205004863,541.4172243494239,538.6255594039952,542.0781981958825
5.564,0.6198356935597823,-3.866923164438858,1.9908316773475583,-0.0588736540111686,2.054240721920626,-3.5079528232004627e-05,0.6171150662100117,-3.868777995040968,1.9954220372790439,-8.500788960824434e-25,0.6639338531463478,0.12300047090544253,0.030253397316800146,0.016763801646748948,-0.02893948018476401,-8.192102020679524e-05,0.17445284322178684,-0.001410212606087855,0.005981877332883444,9.988963637277458e-06,539.6160547708635,541.074039524452,539.1993810216874,541.5567053190657
5.616,0.6545555420034691,-3.8605852243358716,1.9911404740242877,-0.023927695802902205,1.9512148416113793,-0.00015789467619621223,0.6507428479662541,-3.862782626659767,1.995726095275197,-7.936185661344412e-25,0.669065081095938,0.12105404089334248,0.02871958191746471,0.009155796411060022,-0.036016689283168805,-4.2961728419264316e-05,0.17496254174154846,0.0006003812356447843,0.01025246270995956,8.016037852237862e-06,538.6293631528468,542.0904319514334,538.8486037536211,541.926580929021
5.667999999999999,0.6895072173882814,-3.8543568973405087,1.9914268913647162,0.002915367241771038,1.8591496497403364,-9.52292851070296e-05,0.6847247477142703,-3.856868423358357,1.9960101874973404,-7.4086566767167215e-25,0.67317874087582,0.11887827492831564,0.027274119109178957,0.009996047875035106,-0.026094326957885654,5.499008745456737e-05,0.17545760437283617,0.0008515583884325746,0.013017049796804,-1.5622998052965144e-05,538.2003203959325,542.6227208347556,538.4198745948279,542.2995596803396
5.719999999999999,0.7246444593681488,-3.8482489372529987,1.9916927032937821,0.039169174381184196,1.8031543343217151,0.00014772004667666156,0.7190275583868545,-3.8510429519564298,1.9962756054577542,-6.915803806254888e-25,0.676500876094371,0.11647994882414156,0.026224627350554624,0.013078483305615906,-0.013182509267780316,9.590478272434653e-05,0.1759553261989193,-0.00024987216824113803,0.006902034514750966,-3.279861842604633e-05,539.3969910543606,541.5180418197831,539.2059819147547,541.4868457035036
5.7719999999999985,0.7599376686493787,-3.842275246824874,1.99193940920342,0.07473708645100867,1.7702223731712106,0.000310791419530854,0.7536028461609359,-3.8453119903867523,1.9965235588092773,-6.455380853533604e-25,0.6793722401720823,0.11379472185863004,0.025500844641046804,0.010215736421421408,-0.01349485312173351,3.4069950178222285e-05,0.1764697586631809,-0.0018671239570532822,0.009509085154458603,-1.9889265093278372e-05,539.2309281167916,541.6676147285541,538.5664088294276,542.194246288771
5.823999999999998,0.795366868769854,-3.836449094454709,1.99216843729961,0.09055063974427068,1.7175374008769224,0.00021144523469735307,0.7884453998401605,-3.839674366370187,1.9967551803864023,-6.025284265611593e-25,0.6818309604665403,0.11089355226108785,0.02459355150276592,0.0014770297119163754,-0.01574892739863051,-2.1870791969919697e-05,0.1769666080656295,-0.0009370078518491424,0.014863999096199246,-1.5999137450076325e-06,538.2081582625988,542.6490354759238,537.9026229998965,542.9411272430651
5.875999999999998,0.830907661746526,-3.8307749863537115,1.992381312366732,0.0832888942499148,1.7029997395843026,0.0001667123265581996,0.8235581372305033,-3.834129628396749,1.996971530949093,-5.623544324268423e-25,0.6838464038061324,0.10798781409182076,0.024140408505041573,-0.00391752912380676,0.002535234067387622,9.102668811750518e-06,0.17741969902060378,0.0013896384219980202,0.0054242068197473065,-1.6023125580631457e-05,539.3824368630474,541.5549954124076,539.7719674349011,541.0584955633866
5.928000000000001,0.866550428603376,-3.8252475373472254,1.9925794088312498,0.07510836896017521,1.7165655884480828,0.0002701287262866221,0.8589045384207206,-3.8286780259969175,1.9971736036456418,-5.248316858949789e-25,0.6858274134930445,0.10522202091290436,0.024107775000202867,-0.0013607355864914531,0.0032223558587551474,3.628416147094309e-05,0.1778421747489209,0.0009599987141881252,0.005506849217119393,-2.6566193082839355e-05,539.4671782281001,541.528986490848,539.6837788241232,541.133679006379
5.98,0.9022979243445345,-3.8198604236089153,1.9927639306329348,0.07571822101552135,1.7094531763666956,0.0003491861508810237,0.8944662361189403,-3.8233162215565915,1.9973623282101156,-4.897875452564072e-25,0.6878509498712821,0.10255173031852638,0.02386595539563014,0.0007256209870051458,-0.006827531513870967,2.0036982540641034e-05,0.1782313440292312,-0.000278766508345202,0.008422162444978249,-2.177271632022916e-05,539.2017650499165,541.7980938686717,539.0388391644574,541.813303298557
6.032,0.9381448508994238,-3.8146108677894683,1.9929360119892252,0.07398323183723257,1.6769468185294172,0.00031239729719401583,0.930226897853854,-3.8180409385126843,1.9975385749091648,-4.570604112673405e-25,0.6896755485056436,0.09992184193169742,0.02331144033668963,-0.002298618955340468,-0.010339092012713557,-7.953419067406366e-06,0.17857788859033136,-0.0007255425907783086,0.012414344281259454,-1.2897995847121954e-05,538.6292712669084,542.3560189198188,538.353304634922,542.543047358086
6.084,0.9740763593214776,-3.809495100919396,1.993096743455541,0.0569226786676695,1.6721000620544522,0.00026931710547469607,0.9661812744666087,-3.812847286462499,1.9977031582522629,-4.264990381976431e-25,0.6912195546369945,0.0973993115033885,0.023071654745168983,-0.007737141868783255,0.004412694746408605,-1.196419158950077e-05,0.17887473652646751,0.00020220692389179412,0.011666309142397276,-1.529100301820001e-05,538.6126417285386,542.3966039679962,538.625443382148,542.2808172078477
6.135999999999999,1.010088269110803,-3.8045031052479144,1.9932470012402468,0.030856899550194074,1.701457471906543,0.0002837612593868695,1.00231790172823,-3.807730852521815,1.9978568404787265,-3.979618863283296e-25,0.6928125996176961,0.09511341089685246,0.023299501600390363,-0.008736506380076392,0.012223473681339405,5.099278249311306e-06,0.17915883347538653,0.0010658659325312751,0.008854043229919908,-2.114252280654922e-05,538.9419049331424,542.1044967293169,539.2109388732057,541.6942321653095
6.187999999999999,1.0461914013545266,-3.7996210043147896,1.993387607489321,0.009627699092564307,1.7293963780569406,0.0003322023003627949,1.0386207570419923,-3.8026879080250087,1.998000334834198,-3.7131651354391847e-25,0.6946697263925049,0.09309513680580819,0.023575967587224134,-0.005730808988187146,0.0049546857379986166,1.55340616380087e-05,0.1793945258412414,0.0011318627953114681,0.004567022039030066,-2.429106987067355e-05,539.6280342407819,541.4448658626351,539.9071314324843,541.0024420343956
6.239999999999998,1.0823959901891664,-3.794836998972036,1.9935193543037106,-0.0035834583027281514,1.7255998600601132,0.0003653371232450462,1.0750795369006867,-3.7977140944985917,1.9981343086486136,-3.4643900378587884e-25,0.6966429762924365,0.09127399123099456,0.023476630550844008,-0.003995689956233472,-0.004839618206653322,5.165920500025001e-06,0.1796001012450912,6.745079434560366e-05,0.010111220924575273,-2.2864813019837194e-05,538.9154278194707,542.1604279598549,538.8594406563001,542.061891388186
6.291999999999998,1.1186992179710942,-3.790142837605683,1.993642914036048,-0.01788586127992045,1.7100054095490207,0.0003495096845872048,1.1116819888676004,-3.7928054336284927,1.9982593862270763,-3.232134302491555e-25,0.6984817227399935,0.08959945680324424,0.023204583663884993,-0.005729348177152996,-0.003495730670439409,-1.2849025799956633e-05,0.17977643183326322,-0.0002617652690297999,0.014632623232348957,-1.8167958979495766e-05,538.2415710098342,542.8231038172829,538.0960445198576,542.8450256055512
6.343999999999998,1.1550932698308927,-3.785530087286331,1.9937589024816234,-0.03998403248878031,1.7237301275981938,0.00030111430366944674,1.148433482874171,-3.7879565520720635,1.9983761515644256,-3.0153135131469007e-25,0.7002038742121782,0.0881049948239663,0.023270643296083523,-0.008326798179302947,0.010541805028541512,-9.935299378968152e-06,0.17992788891458406,0.0005840530684014029,0.012573339902588847,-1.5454253572215642e-05,538.4352967622508,542.629965927535,538.5697412117264,542.3923746733176
6.395999999999997,1.1915823863909565,-3.7809873065617845,1.9938678199194828,-0.06412721245889738,1.7678447489272222,0.0002748948064417989,1.1853261516451588,-3.783164488733042,1.9984851508937587,-2.8129133731703355e-25,0.7021317450779234,0.08684839273370557,0.023759273087834386,-0.007411117522823654,0.015428652815306493,1.6249736863469716e-05,0.18007161365856336,0.001079214484244267,0.00951131278931907,-1.9157977810751798e-05,538.8560834011633,542.2323454281831,539.1361553125171,541.8246272238895
6.448,1.2281836415895238,-3.7765023567606826,1.993970059489998,-0.08092996132734713,1.8026179192920193,0.00031405085285077515,1.2223617799406132,-3.778425527401497,1.9985868950785755,-2.6239852634766525e-25,0.7044127650607871,0.08580998765809274,0.024181806031578025,-0.004416733807015049,0.007906957592825416,3.1700159236223245e-05,0.18021526190224207,0.0011854888265244203,0.004403256602332881,-2.6282759477119757e-05,539.6712312842222,541.4528655656746,539.9606784019321,540.9866372730916
6.5,1.264910454161152,-3.772066334648187,1.9940660099377758,-0.09101220157963755,1.80902774470573,0.0003738705484699023,1.2595330265190274,-3.773736802805028,1.9986818618577324,-2.4476420739160477e-25,0.7068717113703797,0.08491461685248378,0.024261165001080512,-0.003103024004232054,-0.000665892673372146,1.3623950583487008e-05,0.18035147085791892,0.0005478923790983065,0.008121713985701946,-2.6968392180620366e-05,539.1839791041804,541.9477405237417,539.2676559711427,541.6825005422382
6.552,1.3017642429733711,-3.7676734155977667,1.994156107290898,-0.10157721975184665,1.8057922403618354,0.00037401273852541423,1.2968341435624375,-3.7690958116390503,1.998770497951863,-2.283054291873929e-25,0.7092899189910219,0.08412258641056827,0.024200859939123406,-0.003944698484920268,-0.0004385235946949063,-9.994907464571399e-06,0.18047026691977205,0.0005251237596437101,0.01078860115604598,-2.1225845170237077e-05,538.7547600213824,542.3614847890439,538.8507020624326,542.1230476510563
