Time_s,X,Y,Z,Roll_deg,Pitch_deg,Yaw_deg,Ref_X,Ref_Y,Ref_Z,Ref_Yaw,vx,vy,vz,p,q,r,T_pert,tau_x,tau_y,tau_z,RPM_0,RPM_1,RPM_2,RPM_3
0.0519999999999996,5.587323949780383e-22,4.0,0.010054998080865926,-1.3654226056201095e-17,-8.395442446481571e-19,2.2412083054144397e-19,1.4894270409911578e-22,4.0,0.016216050707931907,7.190026546353704e-22,4.5741131068821455e-21,-2.3286511551782025e-22,0.0009999902353350146,0.0,0.0,0.0,1.9189653344655528,1.2425301855497154e-18,2.1287217332775541e-19,-7.427360329111332e-20,585.6698475822822,585.6698475822823,585.6698475822822,585.6698475822823
0.1039999999999992,3.917005169424754e-20,4.0,0.011036615019309162,1.4260555111206916e-14,1.3133565145911341e-15,-9.34076062897419e-18,1.4770069996864642e-22,4.0,0.032758437754563774,7.130070318737395e-22,1.9202434658786046e-18,1.0295857722448028e-17,0.05001854969930684,0.0,0.0,0.0,3.438709600750869,-3.633989836518423e-15,-3.145961150631189e-16,1.5775101822499654e-18,622.4576440353435,622.4576440353426,622.4576440353425,622.4576440353435
0.1559999999999988,8.461622293676836e-19,4.0,0.01815883692808614,4.956417328857747e-14,3.594127831044434e-15,-5.4295391578452696e-17,1.4580284377876157e-22,4.0,0.05803618915790014,7.038453636544268e-22,1.5680156940963858e-17,1.6531020640506496e-16,0.20392810397584019,0.0,0.0,0.0,3.9989665298342674,-6.578495337217535e-15,-7.058295228020057e-16,1.0601638591394968e-17,635.4825106476575,635.4825106476557,635.4825106476558,635.4825106476574
0.2079999999999984,3.877056551656529e-18,4.0,0.0345785178483876,7.969974336322734e-14,3.38212337884357e-15,-2.760125256740489e-16,1.4335514179321913e-22,4.0,0.09063739605111035,6.920293822271651e-22,5.504319667583746e-17,5.384565334578844e-16,0.39373063014515186,0.0,0.0,0.0,4.025958433524048,-6.700337806077734e-15,-3.5938349886445e-17,4.516090652109672e-17,636.1032851579737,636.103285157972,636.103285157972,636.1032851579739
0.259999999999998,8.36217772732418e-18,4.0,0.06109279780336902,7.36250264487602e-14,-8.917886115531901e-15,-9.495966687999026e-16,1.4045131622135646e-22,4.0,0.12931376221384347,6.780115200740922e-22,1.4871959750227086e-16,7.71108077980111e-16,0.5877102742747101,0.0,0.0,0.0,3.7217724943347434,-3.4958687547568013e-15,1.6027102177433387e-15,1.1539597052148868e-16,629.0720040264416,629.0720040264413,629.072004026441,629.0720040264425
0.3119999999999976,8.063951401877402e-18,4.0,0.09731501060925465,5.4850036038594857e-14,-3.682130087569425e-15,-1.0325149665307416e-15,1.371740588132666e-22,4.0,0.17296390730279548,6.621909614868653e-22,1.8491323736055914e-17,7.531039185011058e-16,0.7676273726358429,0.0,0.0,0.0,3.2262969924567346,-2.42168403881833e-15,-9.843053368856449e-16,-9.368958882576828e-18,617.4476430842246,617.4476430842238,617.447643084224,617.4476430842244
0.36400000000000077,-1.5938675036164922e-08,4.000000015936857,0.14216901884182753,-0.00027484354699434076,-0.0002748975408917572,-1.9107120872801055e-05,1.3359616482530185e-22,4.0,0.22061826344278967,6.449191166461898e-22,3.07111547911458e-06,-3.0704858826128164e-06,0.9230852526732045,0.0,0.0,0.0,2.642350676258383,5.5353566942768214e-05,5.5366058830650405e-05,2.3302482850554835e-06,603.4409356166761,603.4725531691779,603.4638011580084,603.4638047252016
0.41600000000000037,-1.7439035640983227e-07,4.000000174361739,0.19421485263994528,-0.00018937564707544594,-0.00018932808268092184,-2.6515729865300585e-05,1.297815583115674e-22,4.0,0.27142541925873054,6.265045710908783e-22,-3.484485349621482e-07,3.4729853133287083e-07,1.0495513704416886,0.0,0.0,0.0,2.039188520327145,8.177856386885783e-06,8.154337719849746e-06,1.0281449727922028e-06,588.6597984714017,588.6645795752439,588.6653850095098,588.6653781246677
0.46799999999999997,-4.2501892658936775e-07,4.000000424994015,0.2518915163880028,0.00031976134721711937,0.000319965021309472,-2.003281771194989e-05,1.2578621872106544e-22,4.0,0.3246397784282443,6.072175587520325e-22,-9.900989156480815e-06,9.897657486017028e-06,1.1454055441021214,0.0,0.0,0.0,1.4705428440067712,-4.7749110195230124e-05,-4.7764689799232795e-05,4.7716408960491104e-08,574.3793136103933,574.350656793282,574.3651395726494,574.3651348983327
0.5199999999999996,-5.153433091445453e-07,4.000000515404229,0.31363870849506675,0.0004541907558954243,0.00045379206066444163,-1.0333972426099729e-05,1.216590178894236e-22,4.0,0.37961041169852133,5.872940024280581e-22,-9.626631214437477e-06,9.634845974328505e-06,1.2122367411128456,0.0,0.0,0.0,0.9643572643694243,-2.6406687137324634e-05,-2.630007224672746e-05,-3.078374050342628e-07,561.3391689343548,561.3229882453206,561.3300598581025,561.3300925883536
0.5719999999999992,-3.835088640898653e-07,4.000000383453181,0.37804994862181035,4.313584738909917e-05,4.2193892391915776e-05,-2.9980855540226777e-06,1.1744247570131373e-22,4.0,0.4357709921370154,5.669391616524029e-22,1.6404018179667248e-06,-1.6253757208150398e-06,1.2533267704494857,0.0,0.0,0.0,0.5335864955301359,2.8922670111875357e-05,2.9040161339762446e-05,-3.101372720699678e-07,549.9862423830908,550.004403409111,549.9942738356435,549.9943106482904
0.6239999999999988,-2.240793001819446e-07,4.000000223488484,0.44389619886309317,-0.00028438359806599357,-0.0002842937302651802,9.196341109422132e-07,1.1317344195805482e-22,4.0,0.49263071326325203,5.4633092432586325e-22,8.357862191814884e-06,-8.368895479713446e-06,1.2723823934122669,0.0,0.0,0.0,0.18252948429364024,3.409726370568849e-05,3.401021958057377e-05,-1.9620067424693497e-07,540.5704213050433,540.5921324945105,540.5806274621254,540.5805997143109
0.6759999999999984,-1.8847267190527689e-07,4.00000018740347,0.5101596890066843,-0.00012244818875375028,-0.00012079382631892312,2.3190972226684397e-06,1.088837113083367e-22,4.0,0.5497660987201589,5.25622775219308e-22,3.0987266004216983e-06,-3.1385110542113446e-06,1.2734106247196126,0.0,0.0,0.0,-0.09176824262079042,-8.189606175666858e-06,-8.396255844275914e-06,-8.822024344493258e-08,533.1125999343112,533.1072386224615,533.1096502016106,533.1095834029153
0.727999999999998,-2.0920399853260714e-07,4.000000208374446,0.5760205392996874,0.00019331191363613186,0.00019453128138887635,2.4154940448387346e-06,1.0460057748288337e-22,4.0,0.6068136203627762,5.049464714736063e-22,-3.952422315007448e-06,3.933462732228399e-06,1.2602622944518018,0.0,0.0,0.0,-0.2969291340345066,-3.055293308947105e-05,-3.05736136459857e-05,-2.2196830741706497e-08,527.4625542012467,527.442583365745,527.4524953332228,527.4524885766159
0.7799999999999976,-1.5200753156433545e-07,4.000000151937157,0.6408531127372036,0.0001901750154396486,0.0001892699885974391,2.0631708418157643e-06,1.0034733251105853e-22,4.0,0.6634630491384108,4.844144525066247e-22,-2.4641990239214397e-06,2.4944258470469646e-06,1.2364164596119516,0.0,0.0,0.0,-0.44260487448570085,-6.818250156049078e-06,-6.61862165741776e-06,6.402225474027433e-09,523.400652975515,523.3962289712807,523.3984304736272,523.3984962000327
0.8320000000000007,-1.634317386561808e-08,4.000000016667571,0.704197300336898,-7.346813703230099e-05,-7.512627910885201e-05,1.6940641650763716e-06,9.614371608420041e-23,4.0,0.7194514699678882,4.641220092596662e-22,3.832385595144891e-06,-3.7949915467421433e-06,1.2049417823274757,0.0,0.0,0.0,-0.5399577181151362,2.1066234414688254e-05,2.118155791265404e-05,1.2663905817710512e-08,520.6645647426586,520.6785474076046,520.6715814961917,520.6716196645694
0.8840000000000003,8.996865586103506e-08,3.999999910070751,0.7657359601355125,-0.00019743687783955338,-0.00019741821498527585,1.4465689197060257e-06,9.200631976255897e-23,4.0,0.7745578980697335,4.441492354569348e-22,5.442035395080175e-06,-5.446982386909377e-06,1.1683241019976818,0.0,0.0,0.0,-0.5993766599243628,1.470249416101418e-05,1.4560982238467916e-05,9.912346816306537e-09,518.9953246233717,519.0050410861493,519.0002412815314,519.0001942947956
0.9359999999999999,1.1464174775805465e-07,3.9999998851037586,0.8252655783557238,-5.548987018363803e-05,-5.392456172670433e-05,1.149882339305796e-06,8.794895029615996e-23,4.0,0.8285984398503754,4.245627814924891e-22,1.417399710151217e-06,-1.448814802122939e-06,1.1285532158440956,0.0,0.0,0.0,-0.6304686278390876,-9.385854552571823e-06,-9.572952775970845e-06,1.298856138593342e-07,518.1263984150377,518.1200927961229,518.1237349522446,518.1236727242241
0.9879999999999995,1.13701176670743e-07,3.9999998863703583,0.8826699534438242,0.00010136575427660603,0.00010211746158476612,-6.12658898009735e-07,8.398295594116274e-23,4.0,0.8814219466613624,4.0541742968247825e-22,-1.6330432580320728e-06,1.6268470640042124e-06,1.0871041238080712,0.0,0.0,0.0,-0.641116883521364,-1.540806701980367e-05,-1.538048684872853e-05,1.8831071112631036e-07,517.8276665882994,517.8174204993537,517.8232037064262,517.8232128847891
1.0399999999999991,1.510846151015197e-07,3.9999998496203424,0.9378960513973185,6.17133883506218e-05,6.060404615790205e-05,-1.0132168839585154e-06,8.011751929899223e-23,4.0,0.9329061144433599,3.867575079101709e-22,-2.34763242646095e-07,2.6337111776285146e-07,1.0450351140486531,0.0,0.0,0.0,-0.6376071005000675,4.534597167156242e-07,6.294990838062134e-07,7.22371591631897e-08,517.9216682643579,517.9220285919235,517.9220740862309,517.9221326589164
1.0919999999999987,2.1251963473880283e-07,3.9999997883811904,0.9909358521944553,-7.635710086937888e-05,-7.769250309228504e-05,-3.710780334337336e-07,7.635991988274368e-23,4.0,0.9829539865758715,3.686181571331022e-22,2.2773459953602853e-06,-2.2542409969727204e-06,1.0030889304563257,0.0,0.0,0.0,-0.6248714089989449,1.2093854209899357e-05,1.2152030139177597e-05,-3.846051659128938e-09,518.2773894951819,518.2854511124099,518.2813970835495,518.2814164267122
1.1439999999999984,2.4302901752743715e-07,3.999999757524496,1.0418117317316986,-0.00010603977658633036,-0.00010584410510223262,4.429567693469998e-07,7.271576932130744e-23,4.0,1.031490821168119,3.510264668021678e-22,2.0320308962896358e-06,-2.041259953436849e-06,0.9617496793919613,0.0,0.0,0.0,-0.6065264983309937,5.063808834485782e-06,4.934173196363154e-06,-2.8895393401688836e-08,518.7971121021268,518.8004330587002,518.7986923058457,518.7986492457154
1.195999999999998,2.299076987705277e-07,3.999999770359981,1.0905652166678141,-1.151623037356558e-05,-1.0365149729945004e-05,1.0170328378624809e-06,6.918922184384591e-23,4.0,1.0784612875935784,3.3400249094964693e-22,-1.2384653117128992e-07,1.0337470773289467e-07,0.921321362552637,0.0,0.0,0.0,-0.5851935049390427,-6.966126186080403e-06,-7.082263892936416e-06,-2.6564673006485048e-08,519.402020039939,519.3973590876585,519.3996153478561,519.3995768158674
1.2479999999999976,2.1071119266795212e-07,3.9999997897257016,1.1372492286027216,5.576845174540014e-05,5.6062975266449264e-05,1.2955197023129548e-06,6.578316244337576e-23,4.0,1.1238269603189215,3.175601565258399e-22,-1.065238030249764e-06,1.0649012113378344e-06,0.8819674210874549,0.0,0.0,0.0,-0.562577706748701,-7.0091090467800305e-06,-6.956518134814528e-06,-1.6140434026228743e-08,520.0382828204978,520.0336549963741,520.035903467612,520.0359208947933
1.3000000000000007,2.1314135173123337e-07,3.9999997875918702,1.1819222860521992,1.6130786318980858e-05,1.5215426103112834e-05,1.3680809926472468e-06,6.249937489617105e-23,4.0,1.1675640810354542,3.0170807449215027e-22,-1.2536045083017572e-07,1.4176614817635534e-07,0.8437595698184968,0.0,0.0,0.0,-0.5397005534595815,2.200972778722041e-06,2.3229231278300944e-06,-6.9339810879071265e-09,520.6780639489791,520.6795611926375,520.678768048481,520.6788084095767
1.3520000000000003,2.2206403765495165e-07,3.9999997786047286,1.2246444342410312,-5.0611596547732714e-05,-5.13761846422518e-05,1.338595781537162e-06,5.933869161159379e-23,4.0,1.2096615627930538,2.8645026320278092e-22,7.41851251744412e-07,-7.34825875573827e-07,0.8067124795430678,0.0,0.0,0.0,-0.5171131648761574,6.371299016104916e-06,6.386343400834735e-06,-1.5264127574642404e-09,521.3106340499328,521.3148512273198,521.3127348042655,521.3127397773505
1.404,2.1073004679651017e-07,3.99999978956099,1.265475954546498,-4.714287154234213e-05,-4.680394777736083e-05,1.2776986246192147e-06,5.630112710301876e-23,4.0,1.2501192122865152,2.7178679271927037e-22,2.5723234511693826e-07,-2.68223275823937e-07,0.7708163467957195,0.0,0.0,0.0,-0.49506950930804544,1.1433251236806283e-06,1.0497314799591223e-06,7.041913544514615e-10,521.9303133975397,521.931037477959,521.930693354951,521.9306624531839
1.4559999999999995,1.8019556699516897e-07,3.9999998198449416,1.3044760586231934,7.877408902776496e-06,8.638010971268064e-06,1.2193541730038091e-06,5.338599670317114e-23,4.0,1.2889461486731593,2.577143578942392e-22,-6.861328148109753e-07,6.739557316565431e-07,0.7360517918359825,0.0,0.0,0.0,-0.47367957519829235,-4.295845854527036e-06,-4.351282975322626e-06,1.0955074193429582e-09,522.5310133668539,522.528161620945,522.5296004694264,522.529582186759
1.5079999999999991,1.526399630460332e-07,3.999999847457805,1.3417023117314788,3.240653231641115e-05,3.247377042176215e-05,1.173461390148397e-06,5.059202199494758e-23,4.0,1.3261593993283474,2.442267873257607e-22,-8.24723734130756e-07,8.255167029560865e-07,0.7023741617768505,0.0,0.0,0.0,-0.4527335824309445,-2.8070574073235848e-06,-2.7544717989742294e-06,7.820237368019852e-10,523.1163220919494,523.114490003248,523.1154001195509,523.1154174423941
1.5599999999999987,1.38363619306961e-07,3.999999861828416,1.3772103636135038,4.087036991961078e-06,3.4917341517435876e-06,1.1386570954728687e-06,4.791742429034007e-23,4.0,1.3617826547896081,2.3131549461541254e-22,-2.8689943410807835e-07,2.93947676014111e-07,0.6697629096090756,0.0,0.0,0.0,-0.4321549923449954,1.9973117294607453e-06,2.0700232074536146e-06,3.6326147148624626e-10,523.6896418828414,523.6909802805451,523.6903003868232,523.6903243132705
1.6119999999999983,1.2623105654074843e-07,3.9999998738212397,1.4110553022616354,-2.515087116157068e-05,-2.5470340875330616e-05,1.1106825750539924e-06,4.5360007364190175e-23,4.0,1.3958451668168363,2.1896987775533746e-22,-2.0163848761810003e-08,1.9795596355104323e-08,0.6382011046444729,0.0,0.0,0.0,-0.41183533784484183,3.019800019661951e-06,3.012706842891448e-06,6.549057998069283e-11,524.2563719663275,524.2583548766346,524.2573648165378,524.2573624849807
1.663999999999998,1.0438053737769852e-07,3.999999895400538,1.44329116635323,-1.4846401485276707e-05,-1.4480516417294297e-05,1.0858668499433183e-06,4.2917230535063335e-23,4.0,1.4283807750202406,2.0717767191721078e-22,-3.210549678415121e-07,3.128630931271248e-07,0.6076764946245158,0.0,0.0,0.0,-0.3916842600731278,-2.0046292466878016e-07,-2.6096342293970936e-07,-8.023219220276489e-11,524.8191817747537,524.8190302643217,524.8191156728442,524.8190958073625
1.7159999999999975,7.684042251287081e-08,3.9999999228142067,1.4739717282376452,1.3668246274145923e-05,1.4136423681230817e-05,1.0621227836032204e-06,4.058627308153373e-23,4.0,1.4594270488928947,1.9592526041396182e-22,-6.371003577337021e-07,6.315566731137977e-07,0.5781826277655502,0.0,0.0,0.0,-0.37164551075433255,-2.430818713326914e-06,-2.451179376280179e-06,-1.2661896482083595e-10,525.3779221589529,525.3763208459396,525.3771244017105,525.3771177233394
1.7680000000000007,5.520100640938541e-08,3.999999944520764,1.5031504835874443,2.529315062046508e-05,2.5262016614109214e-05,1.4775393133835177e-06,3.836409088767927e-23,4.0,1.4890245333432743,1.8519794814896123e-22,-5.744180162727919e-07,5.762418740009677e-07,0.5497156247830133,0.0,0.0,0.0,-0.3516851237297538,-2.6222605930711266e-06,-2.5816538626067982e-06,-8.788116210881165e-08,525.9333712239086,525.9316661236938,525.9322065895788,525.9322198946755
1.8200000000000003,4.4443433219011326e-08,3.999999955341001,1.530880402632437,1.2803429983569733e-05,1.2519013254767274e-05,1.956119762909493e-06,1.4097925494341242e-10,4.0,1.5172160869662734,1.749802014530748e-22,-2.647886522560676e-07,2.677236601353504e-07,0.522262552384952,0.0,0.0,0.0,-0.33171293086321846,2.3365798011651406e-07,2.8550139811890124e-07,-5.552150162216745e-08,526.4873643665187,526.4875342935484,526.4872480831109,526.4872650520836
1.8719999999999999,3.922395653593074e-08,3.9999999605192307,1.557214292117765,-1.3780575770232377e-05,-1.3527235065038624e-05,1.832824576517935e-06,5.233937778763573e-10,4.0,1.544046303329238,1.6525585783375219e-22,-1.0727175770452326e-08,8.166227398935003e-09,0.49582532440941857,0.0,0.0,0.0,-0.3117738441644903,2.3976713649065055e-06,2.366853881652527e-06,-1.217997778707803e-08,527.0400792199475,527.0416370681323,527.0408209401112,527.0408108637738
1.9239999999999995,2.8949814350176147e-08,3.999999970860603,1.5822050022535068,-1.7698651954666244e-05,-1.6857357485361166e-05,1.4655778441635838e-06,1.0734143633103647e-09,4.0,1.5695610064918093,1.56008308818816e-22,-1.1735704115612752e-07,1.1425121258457331e-07,0.470406810443112,0.0,0.0,0.0,-0.291959105864155,9.305347267306231e-07,8.704056022828515e-07,8.337608205339725e-09,527.5899855522098,527.5905737891889,527.5903183771275,527.5902987372916
1.975999999999999,1.198787648446529e-08,3.9999999882377018,1.6059052086872443,2.4184607504341776e-06,3.1148715544658977e-06,1.1320748901924267e-06,1.7105250135668462e-09,4.0,1.593806812833563,1.4722065876765131e-22,-3.547425197011711e-07,3.598885090006596e-07,0.44599383944491444,0.0,0.0,0.0,-0.2722517652315838,-1.4671874271108111e-06,-1.4763850248527573e-06,1.2156049976899578e-08,528.13666529135,528.135704832881,528.1362286351222,528.1362256340376
2.0279999999999987,-3.66334325407026e-09,4.000000004595341,1.6283667652251683,1.6213798297525613e-05,1.6271675281481246e-05,9.216115224183417e-07,2.3332092335011517e-09,4.0,1.6168307520392287,1.3887586224132359e-22,-3.701736641670801e-07,3.8398370372782726e-07,0.4225781798339551,0.0,0.0,0.0,-0.2527164007437634,-1.437332526487561e-06,-1.3964770666676764e-06,8.905155205775988e-09,528.6772442839114,528.6763205854663,528.6768065656828,528.6768198827817
2.0799999999999983,-1.246366381799439e-08,4.000000014128296,1.6496419549377728,7.915174461271943e-06,7.607498977770994e-06,8.197501628746451e-07,2.850204425298899e-09,4.0,1.638679940794884,1.3095684226812973e-22,-1.84010356087131e-07,1.992982750343234e-07,0.40016716326950946,0.0,0.0,0.0,-0.23356464840932445,4.7017876451253245e-07,4.991823365871108e-07,4.576364749759063e-09,529.2060722732955,529.2063879266614,529.2062411846128,529.206250629055
2.131999999999998,-1.772561713555496e-08,4.000000019988024,1.6697821696330413,-5.691725983286768e-06,-5.867105717397074e-06,7.823793830295529e-07,3.2154731430806565e-09,4.0,1.659401303386441,1.2344659160988226e-22,-7.120645226319318e-08,8.297726751487723e-08,0.3787342484053932,0.0,0.0,0.0,-0.21477567835430433,1.2987965811214026e-06,1.2839851329626233e-06,1.5074145038915786e-09,529.7247123311718,529.7255525393596,529.7251400461302,529.7251352277982
2.1839999999999975,-2.49932594631843e-08,4.000000027763285,1.6888376123943643,-4.797351335036955e-06,-4.793326873080891e-06,7.720784162698092e-07,3.4132802302075272e-09,4.0,1.6790413339698909,1.163282589246827e-22,-1.2973035285856264e-07,1.3927891703723944e-07,0.3582580045406193,0.0,0.0,0.0,-0.19637784932536365,1.9674912855319258e-07,1.6959848802155143e-07,-3.4222153599233115e-11,530.2326783555591,530.232797418503,530.2327421810372,530.2327333570814
2.2360000000000007,-3.40333634906012e-08,4.0000000372926445,1.7068574420479041,6.437913398096457e-06,6.2803122269230625e-06,7.672884076941048e-07,3.429269486831716e-09,4.0,1.6976458958065508,1.095852215320976e-22,-1.9871445503813067e-07,2.086616662080417e-07,0.33871857026447116,0.0,0.0,0.0,-0.17842341526540392,-9.40221393658073e-07,-9.399019380677454e-07,-5.241307235807143e-10,530.7279452533197,530.727334783192,530.7276381613146,530.7276382650409
2.2880000000000003,-4.0397230911697555e-08,4.000000044063041,1.7238896423305188,1.0853261868862992e-05,1.0341786422949766e-05,7.593940547728809e-07,3.2434233644224728e-09,4.0,1.7152600532309215,1.032011463147297e-22,-1.4429645320969493e-07,1.534711167697418e-07,0.3200929214255629,0.0,0.0,0.0,-0.16095776074694962,-5.859147807117414e-07,-5.621564953532938e-07,-5.013189548956895e-10,531.2088122039285,531.2084397663303,531.2086204064982,531.2086281137538
2.34,-4.233610188637117e-08,4.000000046180395,1.7399810260824493,3.924515976243216e-06,3.2495590447854188e-06,7.470152973961821e-07,2.846176679541552e-09,4.0,1.7319279325481864,9.716004013452692e-23,-3.39469908742649e-08,3.8645056561194775e-08,0.3023584693153408,0.0,0.0,0.0,-0.14403813108499836,4.6812474646728155e-07,4.82996969712259e-07,-3.2737007309787037e-10,531.6740056582115,531.6743139346472,531.6741562607756,531.6741610811428
2.3919999999999995,-4.269037460125931e-08,4.0000000464159555,1.7551771731634198,-2.831116126367604e-06,-3.3912618443831402e-06,7.315585232056031e-07,2.2529806213565382e-09,4.0,1.7476926084469484,9.144629100135096e-23,3.522052631575766e-09,-5.126020513122106e-09,0.2854894542615674,0.0,0.0,0.0,-0.1277054716695185,6.607746274687358e-07,6.527146910856082e-07,-1.7167440921938685e-10,532.1229444699787,532.1233698373477,532.1231578690765,532.1231552589038
2.443999999999999,-4.426310395907812e-08,4.0000000476203414,1.769522158385247,-7.376977730837998e-07,-1.153619480178502e-06,7.147594305929272e-07,1.4917455231136762e-09,4.0,1.7625960128642881,8.604470110392492e-23,-3.3137449352223876e-08,2.647858505898611e-08,0.2694576714378244,0.0,0.0,0.0,-0.11198775853873885,-6.985814244326791e-08,-8.389923537092026e-08,-7.994356087163658e-11,532.5549167026168,532.5548669493767,532.5548938233352,532.5548892798793
2.4959999999999987,-4.626680600975975e-08,4.000000049070043,1.7830587940712814,5.006908161048849e-06,4.5635565544023665e-06,6.978058628457281e-07,5.836644283288183e-10,4.0,1.7766788635579835,8.094051269811879e-23,-4.824712491242266e-08,3.816067005555706e-08,0.25423437802304977,0.0,0.0,0.0,-0.0968979437837412,-5.346596502809187e-07,-5.341726257251252e-07,-4.181904195910886e-11,532.9692231922784,532.9688776053126,532.9690501766645,532.9690503341347
2.5479999999999983,-4.6378674259872365e-08,4.000000048437348,1.7958276720573494,5.597328446788004e-06,5.040339925104571e-06,6.812531169458191e-07,-4.552043862517502e-10,4.0,1.789980609927876,7.6119427743453e-23,-4.096924810153246e-09,-9.619312338051665e-09,0.2397784838190892,0.0,0.0,0.0,-0.08236025004621907,-1.8938952894230135e-07,-1.7711086304465297e-07,-3.358023768119771e-11,533.3678104265578,533.3676920140784,533.3677491216848,533.3677530887945
2.599999999999998,-4.435094792084562e-08,4.000000045432742,1.8078681376896693,1.0532984252546103e-06,4.955772284985411e-07,6.65260566964707e-07,-1.6031725291205857e-09,4.0,1.802539393887735,7.15676220847002e-23,4.41704628918589e-08,-6.26228015204138e-08,0.2260682887315537,0.0,0.0,0.0,-0.06843128869226398,3.232392382981942e-07,3.3001392304462727e-07,-3.7469756231432174e-11,533.7493725536691,533.749583462052,533.7494767859189,533.749478973184
2.6519999999999975,-4.2043351385330724e-08,4.000000041919317,1.8192176255546624,-1.9023306973251857e-06,-2.3147446321438704e-06,6.498022634759645e-07,-2.8291041539678433e-09,4.0,1.8143920238231028,6.727175489060312e-23,4.639564632845278e-08,-6.952061577865546e-08,0.21306212476146125,0.0,0.0,0.0,-0.055011118640161255,2.954362608742595e-07,2.897997047328719e-07,-4.328352034901319e-11,534.1169087831405,534.1170976015734,534.117003953517,534.1170021349587
2.7040000000000006,-4.067312628804015e-08,4.000000039178821,1.8299119667697472,-1.3715658804183515e-07,-3.991370061889873e-07,6.347997880012302e-07,-4.101932458029338e-09,4.0,1.825573959881864,6.321897398516143e-23,2.2811767287868387e-08,-4.912089006208554e-08,0.20073795213895126,0.0,0.0,0.0,-0.04214918465879362,-1.1878139210023489e-07,-1.2747759607225523e-07,-4.70967631572506e-11,534.4690430270972,534.4689636273075,534.4690045680647,534.4690017642006
2.7560000000000002,-3.951271008403614e-08,4.00000003655174,1.8399861571324145,2.526499740032191e-06,2.3110851925161605e-06,6.201846702944624e-07,-5.3984873387605035e-09,4.0,1.836119309034758,5.939691763789973e-23,2.0058010578143645e-08,-4.811955200826702e-08,0.1890764752882776,0.0,0.0,0.0,-0.029920488604190734,-2.7651754440559736e-07,-2.7706817066296497e-07,-4.844493216677948e-11,534.8035475985055,534.8033692208496,534.8034583328186,534.8034581553947
2.808,-3.744468724019317e-08,4.000000032945904,1.8494734238197568,1.9702632073660356e-06,1.7491174318703064e-06,6.059143857964639e-07,-6.701315773335227e-09,4.0,1.8460608285147504,5.579371331730089e-23,4.201852672379468e-08,-7.145450307639967e-08,0.17803872289490638,0.0,0.0,0.0,-0.01823795373963641,-2.6578582244499695e-08,-2.0434931161741946e-08,-4.8127920919313185e-11,535.1227882988975,535.1227731591355,535.1227795753998,535.1227815538399
2.8599999999999994,-3.466953860275049e-08,4.000000028563821,1.8584053732760886,-6.543623677502027e-07,-8.233436121763349e-07,5.919677952912936e-07,-7.990967528665623e-09,4.0,1.8554299363987707,5.239797385556161e-23,5.560091187170222e-08,-8.646163433227627e-08,0.16759920641229317,0.0,0.0,0.0,-0.007111360234735853,2.0591072261216378e-07,2.0841564709488891e-07,-4.705952402765632e-11,535.426663594016,535.4267969437982,535.4267297051538,535.4267305113567
2.911999999999999,-3.224727003511125e-08,4.000000024490007,1.8668122371891516,-1.661142510763525e-06,-1.7064015831395472e-06,5.783352410565105e-07,-9.247283613180408e-09,4.0,1.8642567282345006,4.919879142237967e-23,4.5052016540852e-08,-7.676882177564655e-08,0.15772901249355362,0.0,0.0,0.0,0.003482123298088974,1.1623050285053024e-07,1.1142915486718811e-07,-4.576254904408262e-11,535.715919761174,535.7159929932392,535.715956993297,535.715955448831
2.9639999999999986,-3.057456809565213e-08,4.000000021174965,1.87472275700265,-3.13572380569529e-07,-2.489069022283002e-07,5.650114104101509e-07,-1.0453416552385419e-08,4.0,1.8725699987400377,4.618572966012686e-23,2.942856833271713e-08,-6.0825774412833e-08,0.14840074416575466,0.0,0.0,0.0,0.013565736227997123,-1.0309607584267525e-07,-1.089517458235113e-07,-4.451624550328552e-11,535.9911509676175,535.9910827924824,535.9911176695608,535.9911157869143
3.0159999999999982,-2.906980339425218e-08,4.000000018085373,1.8821643381405924,8.675357504440729e-07,9.708550484055535e-07,5.519918999495264e-07,-1.1599671068057859e-08,4.0,1.8803972677167593,4.334881429199087e-23,2.878318750839383e-08,-5.893763276753489e-08,0.1395887363668593,0.0,0.0,0.0,0.02315513729312975,-1.311897161357731e-07,-1.3178127149156439e-07,-4.338921404959358e-11,536.252702658591,536.2526181524712,536.2526603526836,536.2526601625864
3.067999999999998,-2.7215220774482494e-08,4.000000014721608,1.88916283445036,2.0062555691430347e-07,3.067662838139093e-07,5.392713524353769e-07,-1.2679864611150232e-08,4.0,1.8877648094167154,4.0678522478058496e-23,3.720261808687509e-08,-6.587270929787544e-08,0.13126201966944315,0.0,0.0,0.0,0.032315614592787215,2.560340228151108e-08,2.860433541161236e-08,-4.2353074643274134e-11,536.502377585255,536.5023949968842,536.5023856648181,536.5023866287236
3.1199999999999974,-2.526481492835289e-08,4.000000011339063,1.8957430104146282,-1.1459339254497855e-06,-9.611527376505763e-07,7.838398313565265e-07,-1.3688077986818963e-08,4.0,1.8946976846965067,3.81657711614625e-23,3.730473812791916e-08,-6.455121669083473e-08,0.12340487195858611,0.0,0.0,0.0,0.04100028099238605,1.4062721311432527e-07,9.181925922130231e-08,-8.377219419910397e-08,536.739138952641,536.7392135819549,536.7388988128937,536.7388831425933
3.1720000000000006,-2.3521357979876798e-08,4.000000008716995,1.901928383772862,-5.849185189683129e-06,3.493215463142227e-06,1.6214638057516282e-06,-1.461789429436663e-08,4.0,1.901219775370882,3.580190461726449e-23,3.1767311332555557e-08,-4.7176996301770296e-08,0.11598988917049588,0.0,0.0,0.0,0.0492550105979432,8.630228437523846e-07,-7.961216315693659e-07,-9.229647260157578e-08,536.9640154132215,536.9640368835447,536.9639781918671,536.9634457293355
3.224,-2.045256223521046e-08,4.0000000085172385,1.907741468265402,-3.2467601506234197e-06,2.736114376595446e-06,1.6974574961184326e-06,-1.5464394198234183e-08,4.0,1.9073538202520388,3.3578681390371204e-23,6.760907972851934e-08,8.733373923500856e-09,0.10900014342099444,0.0,0.0,0.0,0.057052868453690106,-2.7238923500698204e-09,-1.425233321714327e-07,-3.1439575930672715e-08,537.1762509471757,537.1762043520121,537.1761430917556,537.176098244227
3.276,-1.6329691388968063e-08,4.0000000096583515,1.9132035219083192,7.2481747924321185e-06,-1.7671254084483375e-06,1.4782042662339303e-06,-1.621947902333099e-08,4.0,1.9131214524257405,3.148826078517804e-23,7.921213190772362e-08,2.5015313667254552e-08,0.10240848313291653,0.0,0.0,0.0,0.06445684714070771,-1.395828748230297e-06,-5.5290796339890965e-08,-2.8135913419600634e-08,537.3779583721202,537.3774930289812,537.3774150554281,537.3778449374815
3.3279999999999994,-1.2962560879433167e-08,4.000000007807699,1.9183345384003938,1.0435294760659344e-05,-2.6889326521033093e-06,1.1962208935776398e-06,-1.687043420122075e-08,4.0,1.91854323737355,2.952318904854644e-23,6.03619651121625e-08,-5.732642405070269e-08,0.0961932477479987,0.0,0.0,0.0,0.07148741270245186,-7.181062824302753e-07,4.940592561714075e-09,-3.657428149674899e-09,537.569069489571,537.5688408738744,537.5688268538034,537.569058637064
3.379999999999999,-1.0882371336770872e-08,4.000000001682999,1.9231536096976918,-1.5582182848995083e-06,-3.5888720803961404e-06,8.35302719000008e-07,-1.7407655156162308e-08,4.0,1.9236387116024527,2.767638536888423e-23,3.3623466851987096e-08,-1.328126537692949e-07,0.090337512994318,0.0,0.0,0.0,0.07814408207827406,8.812499361559629e-07,1.3730286349617464e-07,9.80444799424376e-09,537.7498054230941,537.7501318251893,537.7501211522359,537.7498827494077
3.4319999999999986,-1.0390658590752722e-08,3.999999996211798,1.927678782562716,-1.3076420404045026e-05,-7.229232427368906e-07,7.271981203280419e-07,-1.7832321469358522e-08,4.0,1.928426421489449,2.5941127797310974e-23,1.152036506943093e-09,-9.013384328946237e-08,0.08482151926730204,0.0,0.0,0.0,0.08444687171603703,1.5868930940060632e-06,-5.396158527658383e-07,-1.7367371419406046e-08,537.9212030185698,537.9215385186684,537.9216523717722,537.9209711347404
3.483999999999998,-1.0299569637761493e-08,3.9999999962269643,1.9319271978329446,-8.559180782408194e-06,1.9987109446200564e-06,6.910477880835484e-07,-1.815352656008625e-08,4.0,1.932923962089968,2.431103918193632e-23,4.950061286579774e-09,3.251557591078201e-08,0.07962826177719383,0.0,0.0,0.0,0.09040241088317671,2.9676285446865845e-08,-3.687256423747056e-07,-7.882113776838598e-09,538.0832739611322,538.0831653777761,538.0832566894118,538.0831290978983
3.535999999999998,-9.5041787075321e-09,3.999999999918178,1.935915098884552,6.41387844719242e-06,-1.7965733878041074e-06,5.665335294668736e-07,-1.8383581311906347e-08,4.0,1.937148015695633,2.2780073192984124e-23,1.7891497978552353e-08,7.58130855165149e-08,0.07474001339521767,0.0,0.0,0.0,0.09602930612679589,-1.3006859836472064e-06,3.1812773820511687e-07,1.2801654163207569e-09,538.2362495156834,538.2359349326671,538.2358374260605,538.236355717268
3.5879999999999974,-9.485097879851877e-09,4.000000001077581,1.9396578165098628,1.0155305233983634e-05,-5.177470320482427e-06,4.3373491978334047e-07,-1.8530975257210734e-08,4.0,1.9411143899594738,2.1342500504689727e-23,-8.937526272140739e-09,-3.3012094919273433e-09,0.07013991843974061,0.0,0.0,0.0,0.10134464707275682,-6.108080053909907e-07,4.256515711889918e-07,4.304001735139917e-09,538.380499735331,538.3804404701937,538.3803188397685,538.3806505912296
3.6400000000000006,-1.1563887253824418e-08,3.99999999805857,1.9431697641755021,-2.48552850622156e-06,-3.320426520201647e-07,5.0805343790076e-07,-1.8606179745334425e-08,4.0,1.9448380554355629,1.9992895189434814e-23,-5.046790217513353e-08,-7.291541478397453e-08,0.06581030411452131,0.0,0.0,0.0,0.1063780416131161,1.256630342618196e-06,-5.761654546473677e-07,-1.847524574450665e-08,538.5170885780624,538.5173063269416,538.5174279895118,538.5168414944786
3.692,-1.3847301248262945e-08,3.999999995924691,1.9464646023087424,-1.0117927489706981e-05,4.198274804851788e-06,5.389716556881155e-07,-1.8627889944643943e-08,4.0,1.9483331824055796,1.8726121370326723e-23,-3.639057528544344e-08,-1.9441979855361974e-08,0.06173776312902783,0.0,0.0,0.0,0.11113195402355451,9.59297530149258e-07,-5.211435845135678e-07,-8.43473557123796e-09,538.6461774399548,538.6463176156999,538.6464557186234,538.6459820906915
3.7439999999999998,-1.4437680951222027e-08,3.999999997932187,1.9495553077806993,-1.2790013471992311e-06,5.620044218957468e-07,4.6406887156821604e-07,-1.8616358200954233e-08,4.0,1.9516131768873832,1.753732017025284e-23,-2.3141590088004427e-09,5.8358917339055e-08,0.05790944261086193,0.0,0.0,0.0,0.11560881447996796,-5.971770159649466e-07,2.5262910309197283e-07,-9.74306702444563e-11,538.7678054665469,538.7676952624307,538.7676141281011,538.7678859397386
3.7959999999999994,-1.4746949427804616e-08,4.000000000561626,1.952454087991958,8.638721785026864e-06,-4.26622371087997e-06,3.6621687094545016e-07,-1.8582423108297738e-08,4.0,1.9546907157405122,1.642189698824113e-23,-1.1932955741202861e-08,3.7755410860604706e-08,0.054310203875536686,0.0,0.0,0.0,0.11983249107052621,-1.0187577287001427e-06,5.160102371583818e-07,2.9491204527970666e-09,538.8824451865586,538.8822844162945,538.8821294081813,538.882620201375
3.847999999999999,-1.6780842769747205e-08,3.9999999996441593,1.9551724731182536,5.689148623326044e-06,-2.8963846361194754e-06,2.923853490790974e-07,-1.8531554885071467e-08,4.0,1.9575777808010437,1.5375509127623634e-23,-5.115686166842424e-08,-4.21076616058494e-08,0.0509270920249296,0.0,0.0,0.0,0.12381732283452182,2.0370991951283762e-08,2.00351859390038e-08,2.8716392004185525e-09,538.9904741046748,538.9904870233049,538.9904903563032,538.9904902489396
3.8999999999999986,-2.0021610218490362e-08,3.9999999962803496,1.9577212873628391,-3.8025933456187624e-06,2.053304529240586e-06,2.507217465056664e-07,-1.8475976896289764e-08,4.0,1.9602856919935125,1.4394053794951667e-23,-6.304865738390212e-08,-6.655269424567149e-08,0.04774755257021555,0.0,0.0,0.0,0.12757676062096274,8.092383632358205e-07,-4.041410417665194e-07,1.790685632448495e-09,539.0923980607545,539.0925275536365,539.0926628124313,539.0922749451563
3.951999999999998,-2.24097508020469e-08,3.9999999944192304,1.960110789050046,-6.298283263903044e-06,3.829617763679189e-06,2.605839182802942e-07,-1.8433268113856117e-08,4.0,1.9628251393810066,1.3473656483759286e-23,-3.5766468522746166e-08,-1.7656764073054926e-08,0.04476055556909711,0.0,0.0,0.0,0.1311195467911157,4.927892490933297e-07,-3.481873943659086e-07,-1.129882484455953e-08,539.1885476429177,539.1885938579192,539.1886668354097,539.1883980578096
4.003999999999998,-2.304784770955296e-08,3.999999995316931,1.9623505859941894,-1.970222537248506e-06,2.739852311689498e-06,3.7478871980244936e-07,-1.841644958432756e-08,4.0,1.9652062141262028,1.2610659753045584e-23,-1.2689220836266265e-09,3.1066533162683354e-08,0.04195319218158883,0.0,0.0,0.0,0.13447251229783913,-1.6718467542203005e-07,-9.109393358119987e-08,-1.2647670748185131e-08,539.2795360607405,539.2794535283707,539.2794397679963,539.27946408263
4.055999999999997,-2.2493024063093545e-08,3.999999997097401,1.9644497569681385,3.900291744497613e-06,-1.1508661406954656e-06,3.868372722981425e-07,-1.842764714529691e-08,4.0,1.967438438346232,1.1801612406677498e-23,1.3017179666155572e-08,2.9802369082198294e-08,0.039317756974009126,0.0,0.0,0.0,0.13762467073662338,-5.457235286458073e-07,3.1588029675851367e-07,-4.4800480288568035e-09,539.3649802032954,539.3649067690244,539.3647906634269,539.3650659434522
4.1080000000000005,-2.237356502639991e-08,3.9999999972809066,1.9664169351087728,3.84091452835635e-06,-2.814855799407292e-06,3.3149607723287994e-07,-1.8460899000377816e-08,4.0,1.9695307938530089,1.1043259076744359e-23,-5.403102917690389e-09,-1.078419199235802e-08,0.03684392050804626,0.0,0.0,0.0,0.1405893034583324,-1.2586382944188058e-07,2.2492590454385556e-07,5.181319484571435e-10,539.445285104358,539.4453167496998,539.4452466528704,539.4453587125158
4.16,-2.3419380538792e-08,3.9999999958248975,1.9682602028281544,-9.329355465385139e-07,-4.0858751930687944e-07,3.009188335257298e-07,-1.851170737805708e-08,4.0,1.9714917497781903,1.0332530211168232e-23,-2.571460649065051e-08,-3.2289210297962606e-08,0.03452117637690046,0.0,0.0,0.0,0.14338518098083547,3.7628162938322085e-07,-1.519161215660328e-07,-1.5138494553768884e-08,539.5210719065559,539.5211435699607,539.5211408037857,539.5209720949092
4.212,-2.465611802431109e-08,3.999999994704759,1.969987158416493,-3.2669634577292354e-06,2.164215639092523e-06,4.5024545248302177e-07,-1.858156713954722e-08,4.0,1.9733292890883607,9.666532463540156e-24,-1.981727340801099e-08,-1.2729991796005956e-08,0.03234149298114583,0.0,0.0,0.0,0.14601441082329591,2.6947457241128977e-07,-2.480819208642357e-07,-1.9104081115754616e-08,539.5923647467606,539.5923715787725,539.592386091167,539.5922208029863
4.263999999999999,-2.4990692490733488e-08,3.999999994948723,1.9716049584880546,-7.485960217895897e-07,1.5668795973107135e-06,4.572243351257126e-07,-1.8674173021043545e-08,4.0,1.97505093400151,9.042539481171553e-24,5.596791977440267e-10,1.1876647776887675e-08,0.03029604575481873,0.0,0.0,0.0,0.148489642163806,-1.7255830034686706e-07,4.5995689406505584e-09,-6.501793079349041e-09,539.6594452941039,539.6593916610399,539.6593681699972,539.6594247405586
4.315999999999999,-2.463572398794246e-08,3.9999999955538024,1.9731203746646262,2.0388887443698297e-06,-6.225680026527799e-07,3.656280101612874e-07,-1.8788732697850432e-08,4.0,1.9766637703204903,8.45798308567642e-24,7.856945178304066e-09,8.178903918156187e-09,0.028377874796525444,0.0,0.0,0.0,0.1508106835334249,-2.8269239237034265e-07,1.921549348817866e-07,1.170681432243633e-09,539.7223059213676,539.7222770140547,539.7222196264985,539.722371238445
4.3679999999999986,-2.4502393799765494e-08,3.9999999953401137,1.974539765595906,1.2122117974888137e-06,-1.091331068731795e-06,2.6591641086704494e-07,-1.892030763171083e-08,4.0,1.9781744707029847,7.910444839004045e-24,-1.2507433763949226e-09,-1.0541735550996315e-08,0.02657848710627716,0.0,0.0,0.0,0.15299370929796188,1.1735091290478307e-08,7.943160872078607e-08,3.3932927297880874e-09,539.78141307365,539.7814421786821,539.7814283109467,539.7814499231063
4.419999999999998,-2.4815628854934358e-08,3.999999994610696,1.9758690833971488,-1.3614350618478897e-06,3.917238070700166e-07,1.972189150027763e-07,-1.906454512164329e-08,4.0,1.9795893168907066,7.397647986687769e-24,-7.23047197190957e-09,-1.3140418658161694e-08,0.02489108668328714,0.0,0.0,0.0,0.15504356260873686,2.2492846984889745e-07,-1.1393330409964912e-07,2.873786326175235e-09,539.8369370651504,539.836972496789,539.8370185969618,539.8369104262356
4.471999999999998,-2.4973925586751427e-08,3.9999999944348703,1.9771139229835328,-1.8680471996368427e-06,1.3841696572876066e-06,1.6190923597570652e-07,-1.9219981778670748e-08,4.0,1.9809142209231423,6.91744976913566e-24,6.180213998030616e-10,3.105271425019618e-09,0.02330788561055743,0.0,0.0,0.0,0.15697809682240735,9.102268578178862e-08,-1.1315723242384717e-07,1.642312114572572e-09,539.8893576803082,539.8893506152516,539.8893922938772,539.8893271223285
4.523999999999997,-2.4552375506638077e-08,3.9999999950521756,1.9782794964478214,-7.136316858463755e-08,6.274843328448348e-07,1.4872400724663164e-07,-1.9385144187069467e-08,4.0,1.9821547453632267,6.4678340910376805e-24,1.1734495986011025e-08,1.5021756673947874e-08,0.021822963964246652,0.0,0.0,0.0,0.15880061053699734,-1.3678341451166773e-07,3.9107604854801604e-08,6.420567790980542e-10,539.9387299584553,539.9386987844694,539.9386884765685,539.9387446135402
4.5760000000000005,-2.3854548029484872e-08,3.9999999957278565,1.979370786835605,1.4880744523190098e-06,-1.9060579455916846e-07,1.7941148918418892e-07,-1.955583709006159e-08,4.0,1.983316122563944,6.046904538378082e-24,1.2913343722557645e-08,1.0242775430809937e-08,0.020431826607225357,0.0,0.0,0.0,0.16050692937368807,-2.816806352680636e-07,-4.467997815216312e-08,-1.1562948528269345e-08,539.9849946785513,539.9848905269682,539.9848656443257,539.9849412784384
4.699999999999999,-2.1244092506081693e-08,3.9999999944741065,1.9816980228776246,-4.56526966437471e-06,-4.6404202119748604e-07,2.409134673089695e-07,-1.9956172542617074e-08,4.0,1.9856728321987,5.192738698292876e-24,3.177127258004821e-08,-1.4245698896212916e-08,0.017383611588183266,0.0,0.0,0.0,0.1509764739447732,5.41957187254882e-07,-7.791709436544331e-09,-4.013829173402254e-09,539.7267065946987,539.72687714466,539.7268660388349,539.7266905133486
4.751999999999999,-2.0058106301622352e-08,3.999999995711526,1.9825630500035702,-1.595636798590877e-05,-6.358445279529015e-06,4.073800713976281e-08,-2.0113168680248127e-08,4.0,1.9865948423780904,4.85856532884961e-24,1.1807023400365187e-08,5.756958276828792e-08,0.016127545273750866,0.0,0.0,0.0,0.1627138815156047,2.892643312236754e-06,1.1945808888524765e-06,2.4059858725976153e-08,540.0439892022541,540.0452934154342,540.0449936660912,540.0444518227888
4.8039999999999985,-2.1640585216608975e-08,4.000000003780963,1.9833641646021376,-1.3368965561482392e-05,-7.447652237659489e-06,-1.0519362705256518e-07,-2.0247944574160998e-08,4.0,1.9874588298854612,4.545421696654511e-24,-5.94909739570708e-08,2.1664797582552563e-07,0.01493757302661731,0.0,0.0,0.0,0.16570950672119156,9.129271451042271e-07,5.789358979547915e-07,1.4751991421039107e-08,540.1255228781525,540.1259988528309,540.1258640685031,540.1257575095516
4.855999999999998,-2.6252928563591438e-08,4.00000001714426,1.9841080368844886,1.4260744849387508e-05,3.6082815698520412e-06,-8.664804885691385e-08,-2.0370046841919156e-08,4.0,1.9882683306647408,4.2520262341903885e-24,-9.448432748249107e-08,2.5066352595171693e-07,0.013895536035868416,0.0,0.0,0.0,0.16814754970842338,-2.2806307591171643e-06,-8.49781479073212e-07,3.3483268987850847e-09,540.1922782616913,540.1912796345927,540.1915620519969,540.1920185046066
4.907999999999998,-2.9351740713176758e-08,4.000000024416577,1.9848016688072807,2.736385941875737e-05,1.0820345215330751e-05,-1.4064605696127353e-09,-2.0502655534950207e-08,4.0,1.9890266755645394,3.977171708686801e-24,-2.8179915517397815e-08,5.247146572120689e-08,0.012976966907312208,0.0,0.0,0.0,0.17008377499040908,-1.8069037349375814e-06,-8.704194815329849e-07,-2.1740141210858187e-09,540.2446239320752,540.2437699269482,540.244040215428,540.2443389325795
4.959999999999997,-2.7860644542965162e-08,4.000000019968463,1.9854507416482499,9.612572206063474e-06,4.836162882778125e-06,7.657928673446078e-08,-2.0661923350889548e-08,4.0,1.989737001269208,3.7197212602673235e-24,5.80926227085653e-08,-1.5251165908659815e-07,0.012158895410767307,0.0,0.0,0.0,0.1715889096431689,9.985480587242e-07,2.827473836385071e-07,-3.194990601962245e-09,540.2847309317891,540.2851396050355,540.285038612631,540.2848103057303
5.0120000000000005,-1.341754336654306e-07,4.000000011087746,1.9860595223361803,-1.1685076420224745e-05,0.011364052806211384,1.2151341094879262e-07,0.00016670725295396478,4.0,1.9904022607415037,3.4786046171102765e-24,-1.1673529359205347e-05,-1.5501536430694924e-07,0.011393583354048064,-4.373914070084703e-06,0.019741196617514976,1.1420479156004453e-08,0.17313301769432882,2.0934825800039945e-06,0.22341216978921602,-1.0150733103864176e-09,503.4411271297333,574.8503803747925,503.4418400332239,574.8497495736668
5.064,3.8258282929927335e-05,4.000000008916416,1.986614510280784,-0.0001958369559930617,1.682047081429403,-2.279640870897448e-06,0.0033642022709893995,4.0,1.9910252331886733,3.2528144833411406e-24,0.0022858721099876813,1.057114077124743e-07,0.010250718524281239,-0.000152401719748314,1.1361697019554202,3.0359766671039684e-07,0.17880409906104644,6.212587214504395e-05,0.30549788677592016,9.816166750402564e-07,489.347735167298,587.1735922070571,489.37327903782995,587.1584149076709
5.116,0.0009533033815099877,4.000000124247591,1.9871008811434545,-0.0015258639269799166,7.887034758188684,-7.590567214844617e-05,0.012614570407498533,4.0,1.991608533564754,3.0414030950185684e-24,0.03336022592772194,4.699659223730403e-06,0.01267560144967747,-0.0006618191235483665,2.575377994201665,1.0728227269042357e-05,0.19241724510594413,0.00034466133634462404,-0.10402474722252444,1.7075041765053403e-05,557.09284991715,524.04100852864,557.2554655052573,523.98722613064
5.167999999999999,0.005414661565951474,4.000000920406584,1.9872827361685248,-0.0017126882560955944,15.179723148727787,-5.4374411298209695e-05,0.028997337094435367,4.000000000169604,1.9921546216226547,2.843478939298359e-24,0.12545107522865953,2.2542448194763592e-05,0.03159119001054538,0.0006109887865643188,2.055190303708736,0.00015295417973339303,0.2801335514510167,0.00012987083557856115,-0.4144430676614061,-2.262845359609795e-05,605.4091861147338,472.9976183832336,605.3778310215389,472.86283675165333
5.219999999999999,0.01651943969579735,4.000002499286801,1.9867140565919126,-0.0017670747681390363,17.98838192887863,0.00027338571270053456,0.05246104620592921,4.000000004258484,1.9926658105301567,2.6582036316493544e-24,0.26663470838281883,3.1305806984528984e-05,0.06790403919817152,-0.000778808888299962,0.15838598784145866,9.050808891082908e-05,0.44112675280508246,0.0005768300880191292,-0.2027640923426742,-3.3637219038307054e-05,578.5273227604794,514.7910090266973,578.5928605993776,514.4783841720293
5.2719999999999985,0.03554613969136114,4.000005043471782,1.9854285384925134,-0.006350138059974292,16.26042150776958,0.0005020783146703996,0.08239738065915621,4.000000019835026,1.9931442750643995,2.4847889458452144e-24,0.4162246779136895,5.113347497043728e-05,0.09402706665984872,-0.001791263085991918,-0.847246158924562,-1.1604029574391922e-05,0.5692548905028276,0.0014390958074499227,0.1435192471647524,-4.092782585038322e-05,527.8562076809484,573.2296582995366,528.184190646329,572.6662485734853
5.323999999999998,0.06182967457784417,4.000010541252064,1.983995061544073,-0.0099561916719963,14.42895869540381,0.0005758703259599036,0.11801786445116748,4.000000055327636,1.9935920593996712,2.3224939913572735e-24,0.5454324851834416,0.00011362565305324455,0.11423352526021605,-0.0005868787937323239,-0.31319841728068043,-9.091496160971455e-05,0.6052007444959666,0.0019156252564852482,0.17925175609309707,-1.167664971854854e-05,522.8672748066248,579.5081883256188,523.4574695333613,578.9013997571909
5.375999999999998,0.09451418419731628,4.000020581227022,1.9828638433532924,-0.008409894243469569,14.94870370102394,0.0002550255270504954,0.15856724659618118,4.000000133426493,1.9940110845034842,2.170622532719819e-24,0.6596209552260449,0.00020121734954299148,0.15525363052311064,0.0012204849014840658,0.4169122821807014,-4.6662141608481236e-05,0.5938166419659954,0.0018929751544416598,-0.05896375383820425,1.6435819434079647e-05,560.4109290189487,542.5780106771326,561.0462646845644,542.0318875767161
5.428000000000001,0.13365571890799313,4.0000344244197565,1.9820550597650692,-0.0036727103309792397,15.947464352077274,0.00018447084889443104,0.20335773186946393,4.000000293614752,1.9944031551559656,2.0285204454238116e-24,0.777808550905297,0.00026852189632915155,0.20766014393155513,0.001604699826038275,0.1309191063666058,4.9933505835970364e-05,0.5883409893338976,0.0018445256250144678,-0.18094187295575492,-2.1653029533848102e-05,578.7902893073588,522.754326054108,579.2708851616446,522.0701187680926
5.48,0.17952378156165058,4.000049880143948,1.981487723195672,-0.0004458953229176039,14.796545437098644,0.00039783314148369954,0.251772929770923,4.000000587613388,1.9947699666075187,1.8955733029128363e-24,0.9034778612923654,0.00029182177000000765,0.2328861357683299,0.0005986519303513358,-0.7263069630889853,5.940260222297727e-05,0.574329049395802,0.0021583633779607304,-0.03119289630039864,-3.547034121140423e-05,555.6563847482494,546.5777452810663,556.2087997486996,545.7780479615408
5.532,0.23149051168228368,4.000065414144252,1.9812876766662537,-0.0003280114671507641,11.984356038221573,0.0005775779809801501,0.30329209561435844,4.000001070896376,1.995113110889614,1.771204089300801e-24,1.0169013260990454,0.0002860168146028706,0.22040500929275791,-0.0002368082846033154,-0.9598273196358779,5.5817806629027405e-05,0.5172817784223014,0.0026826714094841117,0.14096012493890703,-4.195949421534144e-05,526.6315885322973,571.7057726660743,527.3632728638781,570.7622186575514
5.584,0.28818751528870556,4.000080870276334,1.9816274598646666,-0.0005464858288533525,9.997690050807226,0.0007796882104919405,0.3574636049219033,4.000001783307472,1.9954340827933534,1.6548710325008514e-24,1.1017564499705015,0.0002808103442127832,0.2073106497563005,0.00021793788676207466,-0.4121766562958974,6.234506601088204e-05,0.42690813529686944,0.0029657719881484176,0.10513947779973039,-5.213059539972876e-05,529.943871888877,564.0027572264565,530.7278837572402,562.9266166417407
5.635999999999999,0.34857213917613294,4.000096279538089,1.9824794638569792,0.0016050797123944433,9.688985692304302,0.0009736649264775497,0.4139276087727854,4.000002761816439,1.9957342855302165,1.5460655525443036e-24,1.1675331774117725,0.00027818482344451115,0.2189858157751384,0.0009761605637771209,0.029855840197383493,6.279273089360193e-05,0.3398959807208147,0.0029567773407988425,-0.03737539598179043,-6.005790495801462e-05,550.3370514689763,539.451992677308,551.0629446882909,538.302737819608
5.687999999999999,0.41233537329906655,4.000110709673268,1.9836520337974777,0.004785983806037913,9.530726473571752,0.0011313518640065287,0.472370582037858,4.000004031547446,1.9960150360891005,1.444310319974742e-24,1.2305544067791983,0.00025703614017559665,0.23220149704104903,0.00100126552139327,-0.18827381660097375,5.162535665193305e-05,0.2745420828518511,0.00293760770817012,-0.07615431184674291,-5.9682909099563114e-05,554.6574057883278,531.4231964331908,555.3729383465399,530.2640630705013
5.739999999999998,0.4792759399607499,4.000122775557602,1.984974115155258,0.006774199181638194,8.173307232248545,0.001150684233075896,0.532532110615537,4.000005608958207,1.9962775703034408,1.3491574193220739e-24,1.2919086631790528,0.00020713874999435706,0.21560384622780546,0.0003946265362760621,-0.6068192973510703,6.330679527213517e-05,0.22315510433805452,0.003067374668201069,0.025766293981474044,-5.0748808829490115e-05,537.1590298340918,546.3308352060665,537.9697682573646,545.1923340203032
5.791999999999998,0.5487176934507106,4.000131607408615,1.9863654683560867,0.0068697440488932875,6.2823943597497465,0.001187071092518918,0.5941862466818254,4.000007493469614,1.9965230476418236,1.2601866127919462e-24,1.3389217186064686,0.00013739894100632974,0.1781199856890531,-0.0001635566618216277,-0.581824371047938,0.00010703811800360171,0.17760389570496474,0.003290155840802442,0.10165040740756706,-6.597182057211907e-05,523.5650441977566,557.0352280921437,524.4169463900831,555.7995243342476
5.843999999999998,0.6197674823034252,4.000137177352679,1.987770174721772,0.0062309618303989815,5.213733030103792,0.0014128652936322267,0.6571665321710832,4.000009670046802,1.9967525557351375,1.177003699445094e-24,1.3673061204183332,6.680118934369568e-05,0.15276584701742654,-0.00018582050333655007,-0.19175843963984268,0.0001146110589328077,0.1411612255095993,0.003435661274043755,0.06493094096380808,-9.024320302905239e-05,528.5845232695659,550.4218645229959,529.39190999129,549.0448211096572
5.896000000000001,0.6918885225838405,4.000139812781762,1.9891126900572136,0.00624114161261946,5.103559947911578,0.0016687587556301273,0.7213257085220695,4.000012107009094,1.9969671146528956,1.0992389652869084e-24,1.386696414184649,4.757718153771354e-06,0.1488159304336581,0.00012732901307260818,0.014977392970993672,6.823693596778795e-05,0.1186318973998158,0.0034288918353834364,-0.020718322149806505,-9.485741323650775e-05,541.7673831884431,536.2397549446146,542.5374567836433,534.8126083198492
5.948,0.7649668338985299,4.000139588672889,1.9903218480777436,0.006926339334943878,4.904964223581909,0.0017599300220091877,0.786515869350643,4.000014762578022,1.997167680940953,1.0265457198380203e-24,1.405407304849518,-5.358894239977901e-05,0.14374635025673738,0.00023877897618312512,-0.157258923568896,2.2012423803368435e-05,0.10885050575708,0.0033611777885260673,-0.022434989958314666,-8.281381137257879e-05,541.7668545642637,535.6654857966281,542.5559972686865,534.2998505552341
6.0,0.8388773780035882,4.0001362880667735,1.9913619179445576,0.007169321653372909,4.045209411460966,0.0016966142644397767,0.8526299815402819,4.000017585679562,1.9973551514324075,9.585989149102846e-25,1.4212326359875167,-0.00011539685997820204,0.12144836994621629,-6.692756900066736e-05,-0.3484125423297306,1.5385966441337246e-05,0.10690071432463327,0.0033676092570476654,0.04339015890782183,-7.465450258269193e-05,531.1260898355572,546.0861137830856,531.9611395219065,544.7719461017218
6.052,0.9132339317149477,4.000129864692931,1.9922277668938508,0.006218706760538998,3.138605548683915,0.0016580591825474215,0.9196089947697484,4.000020517167036,1.9975303668430608,8.950938414683215e-25,1.4281301233120787,-0.00017719700875878613,0.09510915408745009,-0.0004672948795463834,-0.23399692884597983,2.799903865524322e-05,0.10981035565644308,0.0034659491564446553,0.060775731513705564,-8.291436356753899e-05,528.3769366117792,548.9291017316702,529.2198168923042,547.5632376129192
6.103999999999999,0.9876316455525636,4.000120775877559,1.9929263452547354,0.004607915637905882,2.862314163566311,0.0017065773635548827,0.9873464670052755,4.0000234939172135,1.9976941151623717,8.357449006128852e-25,1.4275908831594872,-0.00022753492021186503,0.08358238382445352,-0.00047878602202597293,-0.006087021262691545,1.8619974406441096e-05,0.11623405646414772,0.0035475806018525065,0.030590201768510072,-9.047689296545347e-05,533.4524734754378,544.3685963744664,534.2878029613522,542.9398934638228
6.155999999999999,1.0619304869006014,4.0001097684392155,1.9934709811643654,0.003464901190382054,2.996152565332795,0.001741160913531414,1.055790030987063,4.000026446586358,1.9978471348504032,7.802844448785047e-25,1.4257895003445806,-0.00026166497339925394,0.08369206590428788,-0.00026379275688930687,0.049912623060880526,3.169892693977854e-07,0.1247976380608347,0.003520879351816789,-0.006850339208649511,-8.886739749954928e-05,539.6995488023275,538.6354060783683,540.5221542594651,537.2054974065055
6.207999999999998,1.136174873824507,4.00009739954814,1.9938813813626504,0.0030746658270287223,2.959044811240223,0.0017129821018999425,1.1248731319765768,4.000029309593157,1.9979901178508497,7.284616861927271e-25,1.4252129853641795,-0.0002854907268784807,0.08108994453014019,-7.941356129984797e-05,-0.06562720443324907,-1.3467570055820572e-05,0.13399782515164413,0.003437045529690948,-0.004710544455540063,-8.411997555517156e-05,539.612533717444,539.2056876803146,540.4245968503095,537.8202936950275
6.259999999999998,1.2103474359552828,4.000083899729697,1.9941810297058198,0.0026548872552731844,2.598441905345529,0.00164545959647096,1.1945339203423806,4.000032022497894,1.9981237124297917,6.800416669974327e-25,1.4234930365938692,-0.00030541120201578795,0.07050363837677467,-0.00021858377913472468,-0.1380011248665411,-1.7608054615307778e-05,0.142863640688949,0.003413466160414445,0.04020966128998177,-8.12633983175009e-05,532.6339311982391,546.5653367888378,533.4587887909594,545.2156744963877
6.311999999999998,1.2842986520855546,4.000069492277525,1.994392687333875,0.0015584720586231872,2.297406798984083,0.0015810258787272535,1.2647040207741764,4.000034529754984,1.9982485258494214,6.348042911833632e-25,1.4183530946362097,-0.0003197017793840499,0.06074462277001956,-0.00045271031984563115,-0.059587278012899425,-1.744375143137507e-05,0.15098629049320894,0.003464640926099206,0.04445215463067284,-8.14501301045595e-05,532.1624572557644,547.4590956803528,533.0039496870561,546.0948687617131
6.364000000000001,1.3579019842417865,4.000054671493543,1.9945373814438205,0.0002793691510721533,2.3378626015744786,0.0015234195600348946,1.335326987475909,4.0000367805268535,1.9983651268855744,5.9254341163678e-25,1.4113776470969879,-0.00032260360163200656,0.059630889438392676,-0.000367402029090084,0.05255367039964588,-1.9660448638772032e-05,0.1579238479954277,0.0034739292715188852,0.016389236132984642,-8.041848058969395e-05,536.8726477607175,543.2109198779937,537.7132526712434,541.8365232761834
6.416,1.431173568832909,4.000040012330194,1.994634837052846,-0.0005757804912484323,2.5205373087400655,0.001471455956105313,1.406338185453819,4.000038732673753,1.9984740481974943,5.530659713416017e-25,1.4054912420908712,-0.00031533859066485467,0.0631618989170853,-0.00023291100091530183,0.04947366689492226,-1.542393986820688e-05,0.16330382956588257,0.0034543518580609943,0.0018859547962653649,-8.056119733866643e-05,539.3445063964834,541.0480936244426,540.1745362806146,539.6739568802831
6.468,1.5041946671134747,4.000025909683302,1.994701785141007,-0.0010753472186568387,2.5527322642818584,0.0014305968591341684,1.4777104491859077,4.000040348448493,1.998575788557879,5.161911951210721e-25,1.4010832957697426,-0.0003018972898357496,0.06368670967212033,-0.00013211814179571132,-0.015222894362781047,-1.2881409544050913e-05,0.16725390237402588,0.003419710075685545,0.01124061071776636,-8.099355680871685e-05,537.9616420342282,542.6374713224718,538.7812556379127,541.2769384770066
6.52,1.5769875189453642,4.0000125905115125,1.9947503761671759,-0.0014349815824744882,2.4509516698012987,0.0013920538901207487,1.5493865349780491,4.000041607097533,1.9986708149508776,4.817498292399254e-25,1.3966208934387265,-0.00028486827348730303,0.060852296153074345,-0.0001248923448818548,-0.038166465777862854,-1.457334695056757e-05,0.17008834449785612,0.0033990555464760374,0.024143365800748922,-8.036272683559616e-05,535.9706631655698,544.7541464014298,536.7888341457489,543.4075851920248
6.571999999999999,1.6495162259144382,4.000000210247163,1.9947889256763827,-0.0018793677813213213,2.406068698460585,0.0013454161054117183,1.6213191454798634,4.0000424938927805,1.9987595645453402,4.49583426220593e-25,1.3913221251168912,-0.00026470184867413146,0.05910924795783375,-0.0001307224789431726,0.0051741684079522395,-1.3396630153121294e-05,0.17203434092097344,0.003403756093876432,0.02139102238859481,-7.885276428935322e-05,536.4626649223217,544.3691217588162,537.2867313397172,543.0251968163117
6.623999999999999,1.7217667990431664,3.999988950861376,1.994823387866427,-0.0023490720877580046,2.5148228653633495,0.001293072146504494,1.6934916280237953,4.000042999601787,1.998842446550259,4.195436723554537e-25,1.3860803028928483,-0.00024076337014977003,0.061170976002591915,-0.00014017525092359736,0.05611174969989111,-1.5220795845645302e-05,0.17319497190536354,0.0034111024423824285,0.019308877073448395,-7.781593181729684e-05,536.8256503038559,544.0700752326117,537.6550399593225,542.7265691970572
6.675999999999998,1.7937917949815145,3.9999790003151903,1.9948579683434329,-0.002582220108771377,2.7061316955090695,0.0012492697728668813,1.7658754157182117,4.000043128745368,1.9989198439590223,3.9149175552110747e-25,1.3822107052506327,-0.00021373992215438587,0.06566921509696201,-9.107324068823886e-06,0.05631147097782156,-7.894450005431164e-06,0.1737349268960352,0.0033830255032668145,0.007832241084791653,-7.911648677560766e-05,538.6859041797426,542.2617986906367,539.4990595432143,540.9183512189423
6.727999999999998,1.8656769183911162,3.9999704380882033,1.9948949560450784,-0.0024690983765505987,2.78779814036188,0.001224144321344112,1.8384383239408701,4.000042892218702,1.99899211518874,3.6529777102019733e-25,1.3799386266613485,-0.0001866266631850471,0.06789901268102058,3.6569280215881215e-05,0.007061323859657083,-8.389354647127275e-06,0.1738282236698847,0.0033518378081125316,0.013313624480979865,-7.946765016816983e-05,537.8165723228577,543.1302208931825,538.6198703181267,541.7976617856775
6.779999999999998,1.9374638912699735,3.999963205711398,1.9949353530470986,-0.002511075702176238,2.755266951151517,0.0011910218090417856,1.9111379518582423,4.000042308058798,1.99905959562061,3.4084016329136623e-25,1.3781130035486844,-0.00016064805201572042,0.06724555780949387,-4.86847761021643e-05,-0.018716578064674933,-1.3522383036624225e-05,0.17366168924223088,0.0033668554005139364,0.027115317729493764,-7.817559835645719e-05,535.5916920561823,545.3110835040949,536.4075494570485,543.9834509226627
