Time_s,X,Y,Z,Roll_deg,Pitch_deg,Yaw_deg,Ref_X,Ref_Y,Ref_Z,Ref_Yaw,vx,vy,vz,p,q,r,T_pert,tau_x,tau_y,tau_z,RPM_0,RPM_1,RPM_2,RPM_3
0.0519999999999996,6.284780900677616e-22,-6.0,0.010054998081220266,-2.715507551969862e-18,9.43920378412447e-19,2.1753057259677936e-19,2.3039331761647e-22,-6.0,0.016216050707931907,1.786090570947644e-22,-1.843816364347923e-21,-4.867985101264867e-23,0.0009999902827054555,0.0,0.0,0.0,1.918965333981113,1.616273961099626e-19,-1.324125968897626e-20,-1.5546004632784792e-19,585.6698475701874,585.6698475701874,585.6698475701874,585.6698475701874
0.1039999999999992,-1.9651877492969495e-10,-5.999999999803487,0.011049077421576521,1.9862990079393915e-05,1.986354898180798e-05,3.4755061831353034e-06,2.2847211272199083e-22,-6.0,0.032758437754563774,1.7711967103861146e-22,-2.5100898870760492e-08,2.5100209923930374e-08,0.05041933512031825,0.0,0.0,0.0,3.4351131951063336,-1.8280622167156984e-05,-1.8281190893012145e-05,-2.636260847269865e-06,622.3820871551228,622.371963812034,622.3692829852691,622.3692828277966
0.1559999999999988,5.559670845699556e-08,-6.000000055587031,0.018191793403970043,0.0006244888992186753,0.0006247306097279837,4.352981744287375e-05,2.2553639736358323e-22,-6.0,0.05803618915790014,1.7484380055118419e-22,8.325348151617403e-07,-8.326519938318868e-07,0.20432839253645135,0.0,0.0,0.0,3.994715198977123,-0.00011176952840701964,-0.00011183062848359521,-4.4631567907214096e-06,635.4214215332,635.36077852153,635.3782693457374,635.378252774338
0.2079999999999984,4.477522085164762e-07,-6.000000447588083,0.034629746359344515,0.0002671433422452476,0.00026748312432505736,5.3582453401756884e-05,2.217501482525811e-22,-6.0,0.09063739605111035,1.7190856618484832e-22,7.941253589275496e-06,-7.938866373104374e-06,0.3940216749608866,0.0,0.0,0.0,4.022077683519761,6.960930395690471e-06,6.930159532537093e-06,-1.7236113040876101e-06,636.0146657842532,636.0184295075943,636.0115982078022,636.0115898705214
0.259999999999998,9.777650738544392e-07,-6.000000977266497,0.06115283921499063,-0.0007492358980204807,-0.0007494575516811925,3.847704692407476e-05,2.1725834040386783e-22,-6.0,0.12931376221384347,1.6842635770410984e-22,1.526776397533615e-05,-1.525948166910296e-05,0.587763841539392,0.0,0.0,0.0,3.7195574983345976,0.00010966498390275136,0.00010970169236928162,1.2991535054913782e-07,628.9902777971816,629.0503752077713,629.020699716122,629.0207097727199
0.3119999999999976,1.0751198690836408e-06,-6.00000107439157,0.09737331022111284,-0.000762269639567938,-0.0007622462091875677,1.9314124592023627e-05,2.1218888627048163e-22,-6.0,0.17296390730279548,1.644963373714171e-22,8.219547215257564e-06,-8.215699647349882e-06,0.7675210184320542,0.0,0.0,0.0,3.2253606488889712,3.0321052426226724e-05,3.0232549650987974e-05,6.943911934938743e-07,617.4159900196848,617.4328907686265,617.426508545708,617.426483844317
0.36400000000000077,7.347829650101794e-07,-6.000000733794765,0.14222337632752752,0.00021729350527122888,0.00021807722653098338,6.089963931712236e-06,2.0665438982801964e-22,-6.0,0.2206182634427897,1.6020579977549597e-22,-9.65205830913945e-06,9.647426985459252e-06,0.9231286381944267,0.0,0.0,0.0,2.640176130094153,-8.780977817071213e-05,-8.794657667810361e-05,5.959695746492815e-07,603.4317742733923,603.381580400144,603.4085027471023,603.4084636792325
0.41600000000000037,4.945135539129712e-07,-6.000000492887981,0.19426650488360575,0.0006259105997724723,0.0006255490549930723,-2.124514596068574e-07,2.0075373255570484e-22,-6.0,0.27142541925873054,1.5563140134002607e-22,-1.3535555408491527e-05,1.3552788039096568e-05,1.049364178104105,0.0,0.0,0.0,2.039198994610343,-5.8624516510240184e-05,-5.8485335318389544e-05,3.327569312710478e-07,588.6806699926001,588.6463872082596,588.6645417360226,588.6645824799083
0.46799999999999997,5.751093776753884e-07,-6.000000573080916,0.2519372051615436,-6.109650252983418e-05,-6.338739848349026e-05,-1.996522593825299e-06,1.9457350675123966e-22,-6.0,0.3246397784282443,1.5084027148006286e-22,2.5537979271140917e-06,-2.5094123597940994e-06,1.145429867967258,0.0,0.0,0.0,1.4687541915656022,5.387032869262629e-05,5.4167959954308486e-05,1.242831663559247e-07,574.3031170445921,574.3355341363655,574.31967672274,574.3197660274985
0.5199999999999996,6.343290789985671e-07,-6.000000633029117,0.31368781070749646,-0.000662698223720978,-0.0006637546849936226,-2.321942228137185e-06,1.8818931023874294e-22,-6.0,0.37961041169852133,1.4589101630547092e-22,1.266122616443576e-05,-1.26559543180766e-05,1.2122910648936722,0.0,0.0,0.0,0.9623535311703031,7.246863800963784e-05,7.240912767319141e-05,6.985039093155734e-07,561.2550006989943,561.2994816528308,561.2795255335744,561.279507262546
0.5719999999999992,3.676546244514348e-07,-6.000000367574061,0.37810045753303567,-0.0005384895740615757,-0.0005361453427164013,-1.8830505832731588e-05,1.8166691527173624e-22,-6.0,0.4357709921370155,1.4083462479590475e-22,4.8431258166006166e-06,-4.908338155939848e-06,1.2533322507510047,0.0,0.0,0.0,0.5319878460926506,3.1827877888912205e-05,3.1441486548735626e-05,1.94420427413881e-06,549.9391600705525,549.9589854168622,549.9555953561097,549.9554742824719
0.6239999999999988,-1.4476402414932804e-07,-5.9999998553094125,0.4439443977090089,0.00027430936123137183,0.0002768286648577668,-2.3282519696232522e-05,1.7506332328597799e-22,-6.0,0.4926307132632521,1.3571528648255038e-22,-1.4618988110269208e-05,1.4567866504825447e-05,1.2723240852962605,0.0,0.0,0.0,0.18148623185568202,-6.280525155021957e-05,-6.291983546225065e-05,7.82678582006667e-07,540.5714419931139,540.5313613453619,540.5540669431152,540.5540304144077
0.6759999999999984,-5.332350287131785e-07,-5.999999465878879,0.5102029100009522,0.0007450365630718754,0.0007435883207199154,-1.669167061353937e-05,1.6842771611040318e-22,-6.0,0.549766098720159,1.3057112886052412e-22,-2.1393890531893056e-05,2.1437372729334164e-05,1.2732863186649794,0.0,0.0,0.0,-0.09210343143101896,-5.69905712610701e-05,-5.6577580372009366e-05,-1.8602096193331777e-08,533.1189614100527,533.082250329641,533.1004756533165,533.1006091532751
0.727999999999998,-5.924948358296672e-07,-5.999999406273656,0.5760531238629323,0.00030665654036800375,0.00030268522492038556,-8.099108819980098e-06,1.6180231328983378e-22,-6.0,0.6068136203627762,1.2543488201579229e-22,-7.036721472470534e-06,7.117482784696781e-06,1.2599940416434523,0.0,0.0,0.0,-0.2957827185957922,2.3937450865344687e-05,2.4349448717119376e-05,-2.8653018889600395e-07,527.4769198799736,527.4926948720589,527.4837472261833,527.483881823251
0.7799999999999976,-5.085994572584276e-07,-5.999999491492115,0.6408701099877552,-0.0002883929410833269,-0.0002894272018880307,-1.8755859572007753e-06,1.552231443025285e-22,-6.0,0.6634630491384107,1.2033447727555648e-22,6.8194125875908185e-06,-6.823482789932765e-06,1.2361267089555532,0.0,0.0,0.0,-0.44088348848367354,5.46283355461396e-05,5.4480831043100364e-05,-2.702055552416149e-07,523.4290521251935,523.4649722881214,523.4460932315892,523.4460446710925
0.8319999999999972,-5.342944184851877e-07,-5.999999467557704,0.7042013251347279,-0.00024575086473382267,-0.00024221024635122276,1.3335786875622348e-06,1.4872074366176686e-22,-6.0,0.7194514699678843,1.1529358607561215e-22,4.001420786279729e-06,-4.096830713457837e-06,1.2047275188128637,0.0,0.0,0.0,-0.5384498946082875,5.810386457729743e-06,5.338022372984818e-06,-1.6578955223274112e-07,520.7123679356532,520.7160573993345,520.713708854369,520.7135525296317
0.8840000000000003,-6.588271042870003e-07,-5.9999993433373975,0.7657317501258031,0.00020729273080426848,0.0002107380255102919,2.412019429853756e-06,1.4232077616686437e-22,-6.0,0.7745578980697334,1.103321046770737e-22,-5.862485639782973e-06,5.7961574999501e-06,1.1682012416932033,0.0,0.0,0.0,-0.5983261115985596,-3.9309638381786506e-05,-3.942388520890242e-05,-7.258423070359358e-08,519.042995629735,519.0168549380843,519.0296887917636,519.0296508601126
0.9359999999999999,-7.006358407307611e-07,-5.999999300411742,0.8252571501191266,0.0003561379478383306,0.00035522022993729615,2.416299398827853e-06,1.3604459890921664e-22,-6.0,0.8285984398503752,1.0546658985335756e-22,-6.713727851408479e-06,6.748967097198122e-06,1.1284937798580128,0.0,0.0,0.0,-0.6297753037319325,-2.1873128995328974e-05,-2.1498900720058102e-05,-1.6469649904321486e-08,518.1502825248213,518.135857723599,518.1429498423753,518.1430743043644
0.9879999999999995,-5.975585346641899e-07,-5.999999402684291,0.8826596247345971,5.690529434277322e-05,5.117663041871301e-05,1.9509245991743446e-06,1.299097660375914e-22,-6.0,0.8814219466613622,1.0071065020210867e-22,1.0746306084558868e-06,-9.76644968348916e-07,1.0870823597069,0.0,0.0,0.0,-0.640659279306117,2.0211919412053364e-05,2.160544765236246e-05,4.417543870618008e-08,517.8287616109151,517.8426776123677,517.8356437219154,517.8361074607049
1.0399999999999991,-4.6961485565163205e-07,-5.9999995325056625,0.9378854287881939,-0.00020437598746033363,-0.00021629590116985998,1.316003074035046e-06,1.2393048173889029e-22,-6.0,0.9329061144433597,9.607529731192486e-23,5.718739854708869e-06,-5.572574161801299e-06,1.0450388012970042,0.0,0.0,0.0,-0.637337092410366,2.5457565007700738e-05,2.6772839763144833e-05,4.297113901907514e-08,517.9208339345756,517.9382120432501,517.9294559071009,517.9298935254009
1.0919999999999987,-4.2674764329301665e-07,-5.999999581842539,0.9909258372280028,-0.0001082797727664501,-0.0001066433211121449,1.087569000968514e-06,1.1811800639127535e-22,-6.0,0.9829539865758713,9.156926062664107e-23,2.3924600273994234e-06,-2.535830097523919e-06,1.0031036131525943,0.0,0.0,0.0,-0.6247020618140491,-4.106833001002677e-06,-5.053964512893008e-06,1.8100626830333446e-08,518.2876823413836,518.2846364567,518.2863806947873,518.2860657819202
1.1439999999999984,-4.2940574164570247e-07,-5.999999584950602,1.0418027725362005,0.00012275046403668088,0.00013861711492220384,1.1224906965664185e-06,1.1248102039171602e-22,-6.0,1.0314908211681189,8.719926949732504e-23,-1.9456284024286664e-06,1.6192626833948717e-06,0.9617759943680559,0.0,0.0,0.0,-0.606486872316043,-2.120628377081897e-05,-2.2725570797913052e-05,1.8324945887714434e-09,518.8071315020935,518.7925390091372,518.8000940879944,518.7995894385734
1.195999999999998,-3.796869979761486e-07,-5.999999634015375,1.0905578644878127,0.00014155851061773512,0.0001521296378173351,1.2262323778024153e-06,1.0702594974573345e-22,-6.0,1.0784612875935782,8.297030559097506e-23,-1.0303651924727173e-06,9.063841038203488e-07,0.9213555689700035,0.0,0.0,0.0,-0.5852654490457376,-6.241656765733024e-06,-6.1774809569314005e-06,-4.1896840594343944e-09,519.3996850042085,519.3955645862765,519.3975994086976,519.3976207009296
1.2479999999999976,-2.692194379836888e-07,-5.999999739377717,1.1372437417938968,-3.262586578334506e-05,-3.67854082723283e-05,1.3035362842175282e-06,1.0175725712987446e-22,-6.0,1.1238269603189213,7.888582853245531e-23,2.5781367292506532e-06,-2.427633467333851e-06,0.8820028172137964,0.0,0.0,0.0,-0.5627122432095852,1.33897640705976e-05,1.4594002087555456e-05,-4.684839838159978e-09,520.0275293070041,520.0368024240285,520.0319498920592,520.0323489462946
1.3000000000000007,-1.7265420903132518e-07,-5.999999832324933,1.181918444131281,-0.00013003551065466325,-0.00013784869930575603,1.3333568824271448e-06,9.667770179398723e-23,-6.0,1.167564081035454,7.49479773899418e-23,3.4506902919638327e-06,-3.2905018707205467e-06,0.843788262263172,0.0,0.0,0.0,-0.5398321540233594,1.0831036755157735e-05,1.1313781091731833e-05,-3.135573251796826e-09,520.6714455295886,520.6787747043835,520.6750192362005,520.6751790080135
1.3520000000000003,-1.3255992291840916e-07,-5.999999871960737,1.2246418566979487,-4.4768558694634036e-05,-4.383525258894005e-05,1.3257097691365051e-06,9.178857135773515e-23,-6.0,1.2096615627930534,7.115775037178684e-23,1.216197130945452e-06,-1.219608622572861e-06,0.8067327300151771,0.0,0.0,0.0,-0.5172140652542925,-5.305185041124244e-06,-6.022284566394243e-06,-1.5149442099145978e-09,521.3117846742892,521.3080402357434,521.310025669632,521.3097886232993
1.404,-1.1302634598178324e-07,-5.999999890806513,1.2654742962999852,6.522203838027347e-05,7.199025733026358e-05,1.2985377202493633e-06,8.70898882712583e-23,-6.0,1.250119212286515,6.751516488213394e-23,-3.969197501554521e-07,3.3936010112491146e-07,0.7708328637790915,0.0,0.0,0.0,-0.49517543503769823,-1.0554805237306778e-05,-1.1235223939904326e-05,-5.097926007237828e-10,521.9313071695808,521.924112725497,521.927820501929,521.9275958471437
1.4559999999999995,-6.683111040822569e-08,-5.999999933673881,1.304474922139535,4.773564141040634e-05,4.969038433801924e-05,1.2644683102801286e-06,8.258059345102611e-23,-6.0,1.2889461486731593,6.401939988193236e-23,4.156091418026749e-07,-3.6898940429555233e-07,0.7360552081024034,0.0,0.0,0.0,-0.473690454364671,-5.725324947055568e-07,-3.074048180724257e-07,-1.9343299066328026e-11,522.529430104179,522.5291399085392,522.5292412203156,522.5293286571076
1.5079999999999991,-1.2300172632523257e-09,-5.999999995148453,1.3417010921288728,-4.50774324505833e-05,-5.017667556297233e-05,1.2304011322585799e-06,7.82587093664202e-23,-6.0,1.3261593993283471,6.066892231943058e-23,1.74019192655207e-06,-1.613136578976534e-06,0.7023730143831668,0.0,0.0,0.0,-0.45271430152342285,7.919735187439754e-06,8.571671742478905e-06,9.07855184163178e-11,523.1132298843752,523.118662506949,523.1158391389981,523.1160539008592
1.5599999999999987,4.394737670877957e-08,-6.000000038260758,1.3772090470920197,-7.280094810671177e-05,-7.745560529277777e-05,1.1987134894299334e-06,7.412148463842109e-23,-6.0,1.3617826547896077,5.746159922819764e-23,1.5154619464995093e-06,-1.4378312983031256e-06,0.6697607184999016,0.0,0.0,0.0,-0.4321256670537913,4.035163425657865e-06,4.1165960936142884e-06,7.146894300967494e-11,523.6897891929318,523.692471607663,523.6911172533686,523.6911440495697
1.6119999999999983,5.665661780726436e-08,-6.000000050878948,1.4110540825539488,-1.3726309265912818e-05,-1.2858693811862684e-05,1.1694187786607133e-06,7.016552201703552e-23,-6.0,1.395845166816836,5.439479693975619e-23,3.0571376586928323e-07,-3.136704775695803e-07,0.6382062612616216,0.0,0.0,0.0,-0.41186872630619403,-4.180308146559275e-06,-4.643818640778582e-06,2.789897654807013e-12,524.2578825417503,524.2549820091137,524.2565084662168,524.2563561081028
1.663999999999998,6.238490820607765e-08,-6.000000056281874,1.4432903847468144,3.4932984845519816e-05,3.7852663311194866e-05,1.1420305620388735e-06,6.638689142708294e-23,-6.0,1.4283807750202402,5.146546872067845e-23,-1.8917897334065755e-07,1.734880656227141e-07,0.60768632372064,0.0,0.0,0.0,-0.3917643891591902,-4.934455332203239e-06,-5.202114750199592e-06,-5.4167178782050044e-11,524.818537630914,524.8152092500048,524.8169171979254,524.8168293109488
1.7159999999999975,8.230355088638339e-08,-6.000000074746151,1.4739711087647707,1.2408678482799297e-05,1.194888882461397e-05,1.1157771343943013e-06,6.278122961108589e-23,-6.0,1.4594270488928942,4.867023201928295e-23,3.2065827209881475e-07,-2.875481347107017e-07,0.5781806776376162,0.0,0.0,0.0,-0.3716333943752767,1.0734047549504182e-06,1.3228657497060628e-06,-7.959652390071889e-11,525.3770656519806,525.3778516368602,525.377417455607,525.3774992796622
1.7680000000000007,1.0688353351958283e-07,-6.000000098053656,1.5031495170575588,-3.364174316641205e-05,-3.7110212359275796e-05,1.0902902009363195e-06,5.936868801872217e-23,-6.0,1.489024533343274,4.6005436393758406e-23,7.281972087518443e-07,-6.808568482247123e-07,0.5497069243301618,0.0,0.0,0.0,-0.351611235331846,4.277464550298999e-06,4.595109117336039e-06,-9.172264152122148e-11,525.9329668284782,525.9358739809098,525.934368048836,525.9344721269998
1.8200000000000003,1.167475321325491e-07,-6.0000001072305365,1.5308790307242066,-4.549948778769178e-05,-2.706003913347179e-05,1.7819591168807588e-06,2.130464906692456e-10,-6.0,1.517216086966273,4.3467223090622646e-23,3.270543382861026e-07,-4.3771756272065354e-07,0.5222553223921222,0.0,0.0,0.0,-0.3316356050453289,3.022502377221007e-06,-8.701933858010249e-07,-8.393365115141098e-08,526.4892940057773,526.4899984791292,526.4899918986183,526.488717777681
1.8719999999999999,1.1499044925273821e-07,-6.000000097663315,1.5572124387775452,7.112093389644296e-07,1.7700917214184077e-05,2.551357267013145e-06,1.0357330020555403e-09,-6.0,1.5440463033292375,4.105157714896264e-23,-1.6022122538736962e-07,2.2689440450512556e-07,0.49581849000561196,0.0,0.0,0.0,-0.3116913248797542,-4.3755981229918525e-06,-5.285095516940095e-06,-1.2558968418270495e-07,527.0449235919122,527.0417648673217,527.0430573507276,527.04275997517
1.9239999999999995,1.1954097905857117e-07,-6.000000087817297,1.582202896480548,3.951607241595901e-05,2.2759176247448978e-05,2.7019593967462845e-06,2.38778583921128e-09,-6.0,1.5695610064918089,3.875437282106904e-23,-1.7043289329719432e-08,3.985985742728286e-07,0.4704032885743804,0.0,0.0,0.0,-0.29189374660416467,-4.4764376068825764e-06,-1.5899732502777048e-06,-5.05946366290199e-08,527.5931839299207,527.591202479344,527.591546518034,527.5924893141121
1.975999999999999,1.328681589289344e-07,-6.000000093592624,1.6059029715597564,1.090800294664042e-05,-2.0111251896034722e-05,2.1644220589895388e-06,4.202825789708852e-09,-6.0,1.5938068128335625,3.657141302307881e-23,3.7840108443876335e-07,-9.42780902792143e-08,0.44599265008499794,0.0,0.0,0.0,-0.2722033476743548,1.630382929652461e-06,3.66240410181064e-06,3.5033159011062397e-09,528.1366770628139,528.1384040422464,528.1372211648134,528.1378841914322
2.0279999999999987,1.380305712269783e-07,-6.000000104072087,1.6283650912834777,-3.284834536205296e-05,-4.1583969406709424e-05,1.5189204647263236e-06,6.4689100777951034e-09,-6.0,1.6168307520392282,3.449846345939338e-23,2.7123236254848424e-07,-3.6123294407225996e-07,0.42259595576137804,0.0,0.0,0.0,-0.2528344569171984,4.158413181018777e-06,2.8630791222648867e-06,2.111212800160406e-08,528.6723517280085,528.6746404427674,528.6737801941796,528.6733579691539
2.0799999999999983,1.2605016769655833e-07,-6.0000001014012385,1.649641133035696,-2.915553442160886e-05,-1.3795561314653325e-05,1.055769877497274e-06,9.142815014717734e-09,-6.0,1.6386799407948835,3.2531282001288674e-23,-2.1064601506305847e-07,-3.8812102518986784e-08,0.4001818494179994,0.0,0.0,0.0,-0.23367997334094257,6.012133512093515e-07,-1.6002583185399474e-06,1.925918063722172e-08,529.2031808908554,529.2028555695484,529.2034431870958,529.2027263169102
2.131999999999998,1.079534186854788e-07,-6.0000000865476055,1.6697819124474504,7.251189577700263e-06,1.889459552369256e-05,8.107820711732063e-07,1.2099563578900339e-08,-6.0,1.6594013033864405,3.066564384269917e-23,-4.298603826620967e-07,3.40194219226916e-07,0.3787423676626181,0.0,0.0,0.0,-0.21485793239442075,-2.952553661507409e-06,-2.982423046701236e-06,1.159636489537495e-08,529.7238098785724,529.7218791549909,529.7228893910601,529.7228796741691
2.1839999999999975,9.771715570426089e-08,-6.000000074611681,1.6888377454515064,3.119442720612333e-05,2.4374783782786395e-05,1.3722752796208834e-06,1.5184913112661432e-08,-6.0,1.6790413339698904,2.889736290410499e-23,-2.625129248378832e-07,3.309314265161377e-07,0.3582650451023171,0.0,0.0,0.0,-0.19646465097631616,-3.6023906148465345e-06,-1.9538648755448787e-06,-7.367707998807222e-08,530.2313739693362,530.2295681790602,530.2299491980469,530.2304849713175
2.2360000000000007,9.760690609336693e-08,-6.000000075313198,1.7068580469158705,8.828316194027274e-06,-2.230447544950728e-06,1.5987562966400263e-06,1.8298929480326515e-08,-6.0,1.6976458958065503,2.7222309908292144e-23,3.346187276560145e-08,-2.2668853386520194e-08,0.338729719760401,0.0,0.0,0.0,-0.17856022919388162,1.1137262070100987e-06,1.8570976045181523e-06,-3.430356647510219e-08,530.72344644236,530.7244110662461,530.7236899222453,530.7239312943398
2.2880000000000003,9.689591527843359e-08,-6.000000079866768,1.7238907858924806,-2.6783247557793534e-05,-2.4718304149776236e-05,1.3846741566151188e-06,2.1408934197103206e-08,-6.0,1.715260053230921,2.5636427509047888e-23,5.4571084292100324e-08,-1.7432844948281514e-07,0.32010135305338594,0.0,0.0,0.0,-0.16108639588950285,3.4342981286307103e-06,2.466251889608548e-06,-2.4618047255481033e-09,531.2041313869288,531.2060455549403,531.2052370201886,531.2049229811299
2.34,8.623222116542755e-08,-6.000000073679968,1.7399825196191756,-2.505050538821789e-05,-1.3303991741667445e-05,1.0565510404188093e-06,2.4494032668293432e-08,-6.0,1.731927932548186,2.413574281518877e-23,-1.988522791689769e-07,8.581581279731546e-08,0.3023643955030891,0.0,0.0,0.0,-0.14416241971312688,6.898200664049026e-07,-3.4353868475088e-07,9.687337938006103e-09,531.670668216978,531.6707804540115,531.670925107154,531.6705901740054
2.3919999999999995,7.000309637403597e-08,-6.000000057070785,1.7551789921357883,5.254098284521102e-06,1.1314516429680658e-05,8.000315951991176e-07,2.748972244718628e-08,-6.0,1.747692608446948,2.271637761733685e-23,-3.5054291647804147e-07,3.5796670204469647e-07,0.2854952321688039,0.0,0.0,0.0,-0.12783725231224374,-2.3580607515365466e-06,-2.0885003065934534e-06,1.0088491292340857e-08,532.1202382975694,532.1187982897327,532.1195093009186,532.1195965973984
2.443999999999999,5.8365948963548653e-08,-6.0000000423846975,1.7695241724302861,1.9440704560744464e-05,1.5383940396574225e-05,6.539060961304419e-07,3.030385187264291e-08,-6.0,1.7625960128642875,2.1374556593211238e-23,-2.3772897690134345e-07,3.1046179048222424e-07,0.26945678543760315,0.0,0.0,0.0,-0.11206545406567832,-1.6138084543382004e-06,-6.983571367878244e-07,6.486896656282417e-09,532.5531213628096,532.5523731828193,532.5526214252335,532.5529176506993
2.4959999999999987,5.3321441809307565e-08,-6.000000035813074,1.7830604553730494,4.046297930053057e-06,-4.0531869944331886e-07,5.907448456242276e-07,3.2878216550152413e-08,-6.0,1.7766788635579829,2.010661373859494e-23,-7.66418814287625e-08,1.0716455872057627e-07,0.2542254938056597,0.0,0.0,0.0,-0.09690519242258444,1.06554799181914e-06,1.269460293861845e-06,2.951616907587543e-09,532.9684689040827,532.9692238857162,532.9688235523571,532.9688894836179
2.5479999999999983,4.8536313746490185e-08,-6.000000031332606,1.7958286840113815,-1.2681887822140535e-05,-9.692165672064395e-06,5.716965402978465e-07,3.51986164644499e-08,-6.0,1.7899806099278754,1.8908997245282693e-23,-7.928557132481035e-08,6.263627565769253e-08,0.23976312369932312,0.0,0.0,0.0,-0.08229281489781608,1.7240805424844021e-06,1.0938174456241425e-06,7.220384000567658e-10,533.3691434458785,533.3700538763688,533.3697029511576,533.3694993203875
2.599999999999998,4.003489124849546e-08,-6.000000021975074,1.807868173512027,-7.355122048379146e-06,-1.0434142157581515e-06,5.683464181635061e-07,3.7261609519872286e-08,-6.0,1.8025393938877343,1.7778273023964285e-23,-1.7543227706795958e-07,1.8775320329473377e-07,0.226048629397406,0.0,0.0,0.0,-0.06830314687469398,-8.062643594391762e-08,-5.206002963797543e-07,-2.5248672318539085e-10,533.7530859232677,533.7528918133404,533.7530590278432,533.7529169794451
2.6519999999999975,3.119054432894413e-08,-6.000000009687029,1.8192168464086984,8.691867190773208e-06,1.031206904458877e-05,5.660968135005896e-07,3.904863762897299e-08,-6.0,1.8143920238231022,1.6711127048917617e-23,-1.8156631264044102e-07,2.539411014854007e-07,0.21305065956621255,0.0,0.0,0.0,-0.054926513777600605,-1.3907358861612929e-06,-1.097891413804402e-06,-4.753689431018238e-10,534.1197215798073,534.1189186615044,534.1192712530361,534.1193657349168
2.7040000000000006,2.6704706825757536e-08,-6.000000001046342,1.8299110222571033,1.2063878849461944e-05,8.647951558592383e-06,5.60149847631607e-07,4.054079897326966e-08,-6.0,1.8255739598818634,1.5704366682365576e-23,-7.918215854745302e-08,1.6300276463254312e-07,0.20073811201380193,0.0,0.0,0.0,-0.04214801677436955,-5.683686019966849e-07,-9.484915835910681e-08,-3.82421047182795e-10,534.469142770884,534.4689289336233,534.4689582073828,534.4691108813719
2.7560000000000002,2.601496475710254e-08,-5.999999997628198,1.8399852264062355,3.3818368059185144e-07,-1.2522501881577335e-07,1.4026536057255262e-06,4.174130789009884e-08,-6.0,1.8361193090347574,1.4754921119200492e-23,-3.964589813166728e-09,4.793773421325729e-08,0.18907662752125481,0.0,0.0,0.0,-0.02992010202506727,1.3536279434901484e-06,2.736124803924417e-07,-1.5235798827186534e-07,534.8034670995175,534.8039914323851,534.8033825295104,534.8030345242938
2.808,2.5836743710169184e-08,-5.999999994359252,1.8494726055012471,-1.3208172573946156e-05,2.8169074392306044e-06,2.2556660991078356e-06,4.2678702057391735e-08,-6.0,1.84606082851475,1.3859841077321774e-23,-7.460082260099818e-09,5.700359992416023e-08,0.17804240219846995,0.0,0.0,0.0,-0.01826891121373797,1.841956808471132e-06,-6.186929940914432e-07,-9.965510617270306e-08,535.1219079668239,535.1223018949792,535.1221607280563,535.1213683234721
2.8599999999999994,2.6790698574769854e-08,-5.999999985985235,1.8584047299200455,-2.6748663862322126e-06,3.120437062719911e-06,2.0545486323645628e-06,4.3385045699020927e-08,-6.0,1.8554299363987703,1.3016297844914221e-23,2.218224079110948e-08,1.8153140065567987e-07,0.1676015990856141,0.0,0.0,0.0,-0.007136005635502735,-5.3190961574611e-07,-1.9273827963902418e-07,-2.1941951953068733e-08,535.4262111979136,535.4259779717404,535.4259650966583,535.4260742581481
2.911999999999999,2.8987973266593002e-08,-5.999999976625818,1.8668116458673045,1.5166635366913897e-05,-2.1230220791765356e-06,1.4145866822160052e-06,4.389422842382034e-08,-6.0,1.8642567282345002,1.2221581783463048e-23,4.7335001095535096e-08,1.8576784646852558e-07,0.15772900806934273,0.0,0.0,0.0,0.003476277583951033,-1.7256029721984973e-06,4.4833121072708936e-07,1.5342278194692583e-08,535.7159759989123,535.7155651343695,535.7154732665749,535.7161725636347
2.9639999999999986,3.030729309542211e-08,-5.999999973633969,1.8747220548581522,1.3922679705491242e-05,-4.237221777477061e-06,8.951696386423014e-07,4.424303898902268e-08,-6.0,1.8725699987400373,1.1473100374034617e-23,2.103803818204131e-08,3.404641119031172e-08,0.14839745539358448,0.0,0.0,0.0,0.013588772486441567,-4.973982715172359e-08,4.32315102271606e-08,-8.692638365456255e-09,535.9917611217105,535.9917590292353,535.9917154855608,535.9917453765834
3.0159999999999982,3.0130702641724494e-08,-5.9999999763838145,1.8821634797880398,-6.617818347924666e-06,4.536467399800997e-06,8.881126812999132e-07,4.446071497581812e-08,-6.0,1.880397267716759,1.0768375884223968e-23,-9.936461951114176e-09,-7.120392245720537e-08,0.1395863121533997,0.0,0.0,0.0,0.023173277075082634,2.0713593311590386e-06,-1.095738265627568e-06,-2.0973663977194186e-08,536.2530339464561,536.2533474634341,536.253628088697,536.25261033802
3.067999999999998,3.166116059182315e-08,-5.99999997678545,1.8891619383141203,-1.2266544986137274e-05,6.981865516334948e-06,9.618464399176019e-07,4.4566153789792204e-08,-6.0,1.8877648094167152,1.0105042724075622e-23,3.678219708476555e-08,6.99776785863401e-09,0.13126133251285427,0.0,0.0,0.0,0.03232357977153024,1.400052601296777e-06,-9.625762431131426e-07,-4.5307372276124386e-08,536.5026102318554,536.5027507500228,536.5029055671022,536.5021466863894
3.1199999999999974,3.612008565109981e-08,-5.999999972121112,1.8957419615162259,5.735202087694489e-07,1.2926399915344403e-06,1.034769910560204e-06,4.458218008084415e-08,-6.0,1.8946976846965065,9.480844551123898e-24,9.801166111486617e-08,1.1031317809613067e-07,0.12340101981512268,0.0,0.0,0.0,0.04103738260591208,-7.458129446141942e-07,1.7250270444954866e-07,-2.354099849192483e-08,536.7401764942296,536.7399924274334,536.7398568740773,536.7401517082402
3.1720000000000006,4.101508607190221e-08,-5.999999967736119,1.9019271173003858,1.5862097944500676e-05,-8.837424890917657e-06,8.398397210640792e-07,4.454306208009972e-08,-6.0,1.9012197753708817,8.893631177383047e-24,9.17859194952559e-08,7.516850460212023e-08,0.11598567056895781,0.0,0.0,0.0,0.04930185683333624,-1.5944471365091365e-06,9.94999104960426e-07,-6.573412570927769e-10,536.9652420523234,536.9650496744028,536.9647281164005,536.9655591347029
3.224,4.21731459261426e-08,-5.999999969978097,1.9077399530671955,1.2294029506425865e-05,-9.112340006126418e-06,9.601177463430821e-07,4.448493185852161e-08,-6.0,1.9073538202520386,8.34135532456583e-24,2.6693792687547077e-09,-7.51789945726306e-08,0.10899624042097689,0.0,0.0,0.0,0.05710377643343371,-1.398874933722593e-07,3.24078723946134e-07,-6.173945145090914e-08,537.1776354060084,537.1776944942121,537.1773804458012,537.1775292853577
3.276,3.941118219892721e-08,-5.99999997750797,1.913201888293165,-2.8920624516071647e-06,-6.216526863558268e-08,1.1317079832964157e-06,4.44208962886277e-08,-6.0,1.9131214524257403,7.822069267945686e-24,-6.597610666262556e-08,-1.5872184661282882e-07,0.10240748843186238,0.0,0.0,0.0,0.06448601199829884,1.1905205722529547e-06,-6.438829029521801e-07,-3.354931793541233e-08,537.3784408495046,537.3786161443037,537.3787085059304,537.37812025255
3.3279999999999994,3.648038377167544e-08,-5.999999983995951,1.9183330247713943,-8.539323104794573e-06,5.441219391282665e-06,9.263464875308632e-07,4.4340336918671004e-08,-6.0,1.9185432373735498,7.333921404039211e-24,-4.971046021031226e-08,-1.0934043023311989e-07,0.09619745760858475,0.0,0.0,0.0,0.07147251579780747,6.639352012578974e-07,-5.575267270750395e-07,-3.3068796528844912e-09,537.5685323223024,537.5685664331215,537.568733912242,537.5683423544449
3.379999999999999,3.578826973647877e-08,-5.999999986881704,1.9231523924981728,-5.962904030658183e-07,1.831800011895458e-06,6.095700456195764e-07,4.4229394055863754e-08,-6.0,1.9236387116024525,6.875152772606427e-24,-2.179642444213127e-09,-4.0354592412486234e-08,0.09034339579498846,0.0,0.0,0.0,0.07810875376709536,-6.062635883736786e-07,2.349424415755912e-07,9.265388215346095e-09,537.7490684005177,537.7489494079465,537.7489056133072,537.7491751839025
3.4319999999999986,3.6085267267154335e-08,-5.999999989462605,1.9276778413430173,9.789414942223628e-06,-7.822389563475724e-08,5.906631203055281e-07,4.408724509793049e-08,-6.0,1.9284264214894493,6.444093559295974e-24,5.832320271509633e-09,-5.805616302111023e-08,0.08482560219528143,0.0,0.0,0.0,0.08441938978297789,-1.418715311636712e-06,-1.1269205345796808e-07,-1.712114649363655e-08,537.9208686056502,537.9203780115503,537.9203559343365,537.9207743255425
3.483999999999998,3.637796172503983e-08,-5.999999995910579,1.9319263305343146,5.168026982690146e-06,-5.937087033937001e-09,5.305344516092768e-07,4.3920156222348044e-08,-6.0,1.9329239620899683,6.0391596015477566e-24,5.869198878368855e-09,-1.4729701889156317e-07,0.07962817449562147,0.0,0.0,0.0,0.09040507575488532,4.823314315398675e-08,-5.961684105943177e-08,-5.242034824503491e-09,538.0832894254905,538.0832857797678,538.08328706519,538.0832525253453
3.535999999999998,3.66284749698301e-08,-6.00000000441482,1.935914221048084,-8.242189375036326e-06,-1.0001396263733394e-06,3.950507531855357e-07,4.373439802952475e-08,-6.0,1.9371480156956333,5.658848917062762e-24,4.072343857591175e-09,-1.6106259942408827e-07,0.07474008802741637,0.0,0.0,0.0,0.09602964789502241,1.185453311108755e-06,1.0451433059129672e-07,2.6423230836889762e-09,538.2358926932957,538.236305698742,538.2362812101886,538.2359351288886
3.5879999999999974,3.6445251489899144e-08,-6.000000009433269,1.9396569707780504,-1.0907070132716543e-05,-1.4249582037640727e-06,2.6839831621155693e-07,4.3535048723351626e-08,-6.0,1.9411143899594738,5.301738271217288e-24,-6.8272556446693265e-09,-6.775026127777775e-08,0.07014107105841534,0.0,0.0,0.0,0.10133449817550391,5.032247560165126e-07,9.161257380449317e-08,4.556121535441312e-09,538.3800988343223,538.3802892308071,538.3802753760659,538.3801436265836
3.6400000000000006,3.5660493766198076e-08,-6.000000009726772,1.9431690251682183,-1.3902374778478513e-06,-3.499699880804876e-07,1.8676707864666406e-07,4.332456571048949e-08,-6.0,1.9448380554355629,4.9664797971995424e-24,-1.773478485201882e-08,1.2998353329307841e-08,0.06581284459281704,0.0,0.0,0.0,0.1063537826847587,-6.91770369436787e-07,-4.92528336857081e-08,3.5504484043227352e-09,538.5166199345135,538.516382806657,538.5164106188826,538.5166162248638
3.692,4.5958735413042875e-09,-6.000000009198739,1.9464639220005426,5.308110018308686e-06,0.0029792956331468642,1.4761405466861318e-07,0.00010048250790534681,-6.0,1.9483331824055796,4.651797680347036e-24,-3.7574138271403975e-06,2.22962923812324e-09,0.06173258362857294,2.5114787779926415e-07,0.005099808564204555,-4.335453164478233e-09,0.1112441289459737,-6.727544353923934e-07,0.21765896092232767,1.7547714109055097e-09,502.6280414262906,572.4081897559922,502.627817154461,572.4083978947133
3.7439999999999998,2.7180928576155733e-05,-6.000000009562154,1.9495329896358877,-0.00015989271648859927,1.6360207139617684,-1.5827819026853842e-06,0.0034804279480430667,-6.0,1.9516131768873832,4.3564849161319984e-24,0.0006844301878963299,-5.359495561443895e-08,0.05716494709161414,-0.0001482111597994317,1.2056190333182177,2.1299556657675791e-07,0.12276797587120046,5.709528666557064e-05,0.4024409059619176,8.339347421781291e-07,470.2316706407356,599.866017134796,470.2558353786199,599.8521561438557
3.7959999999999994,0.0009314695256976219,-5.999999906827871,1.9523623915570307,-0.0015599776980888362,8.625238070777922,-8.511190609219038e-05,0.013688585508010347,-6.0,1.9546907157405122,4.0794001494536525e-24,0.028059415050451016,3.3444023612395885e-06,0.0564969802669012,-0.0007066845414110711,2.9388926130072335,1.1465706091864464e-05,0.1425134395486799,0.0003581342100451146,-0.1545522101609351,2.007396580589167e-05,563.5533666876507,514.2462693998756,563.7279612876393,514.1976079894371
3.847999999999999,0.005695180490882363,-5.999999081155679,1.9546734376146042,-0.004167748221013693,16.817746561379266,-0.0003422736819033212,0.03141927295572925,-5.999999999830396,1.9575777808010437,3.819464601322642e-24,0.1236126929333156,2.216765360492889e-05,0.07512194903174269,-0.0008127362595885899,2.225156022294559,8.532662733437679e-05,0.2555246638615015,0.0007400547010665969,-0.5245430010488535,3.005373632982517e-05,620.138850647928,451.71106490980003,620.4330136580725,451.5503239413233
3.8999999999999986,0.017761940232329625,-5.999996465696064,1.9559317165609424,-0.005741603993267855,19.239301803403933,-0.0001843877138793934,0.056315004472831456,-5.999999995315333,1.9602856919935125,3.5756590876447165e-24,0.2765406925437385,5.828749340336427e-05,0.11307949824728054,-0.0005192315657454081,-0.15333846710148347,0.0001091033770370792,0.45137791699123786,0.001039799620982948,-0.2033737655529316,-2.8618925679271194e-05,578.800278630044,515.048658613746,579.0194352841431,514.5989975547283
3.951999999999998,0.0382763558266553,-5.999991286911061,1.9562739798994726,-0.005909125513884467,16.331964327640847,0.0003287290369638343,0.08768701862798839,-5.999999974740923,1.9628251393810066,3.3470211336054555e-24,0.4363301354797636,0.00010531395844859244,0.13341924395360322,0.0002033700342768426,-1.2260630668972987,1.4244683393205006e-05,0.5888832464002863,0.0012066298854850168,0.23876329198398413,-4.8859166258877394e-05,512.6868153738254,587.8381489825057,512.9181407275724,587.3322781701911
4.003999999999998,0.06609512883945015,-5.999983399008225,1.9564658532431025,-0.004865632761087993,14.028569920290643,0.00040487271450129637,0.12469411204476374,-5.999999917097722,1.965206214126203,3.1326421861079563e-24,0.5657620770561106,0.00015357741510876985,0.14805053981530106,0.00029130405538969363,-0.2940612584560597,-7.659254608163198e-05,0.606167817220906,0.0014626707892089197,0.22030982152269696,-7.80683203873076e-07,516.1407291434176,585.52148150154,516.6260828744585,585.0884036399367
4.055999999999997,0.100144986393356,-5.9999732401608155,1.9570158899955357,-0.004956606926232009,15.120227791930189,0.00013942896708396806,0.16653295938263332,-5.999999789972989,1.9674384383462322,2.931664925804087e-24,0.6757405845962972,0.00019328148660512223,0.19438332032813127,-0.00018774328469672099,0.6626744563917624,-2.5086958141161955e-05,0.5777739677404303,0.0019611156196627302,-0.116006144946363,1.4842036302146035e-05,568.6934870841403,533.0164419310587,569.335087789577,532.4329870018078
4.1080000000000005,0.14069510777151706,-5.999960876280334,1.9578426570671095,-0.00498857133707838,16.527763288347046,0.0001194491252133944,0.21247724774531074,-5.99999955723965,1.969530793853009,2.743280679472306e-24,0.7944924055619005,0.00023177551917475764,0.25302388708956963,0.0004001640613143445,0.14921182542120587,7.33511664195911e-05,0.5720092953592504,0.002235203716734068,-0.23677423481235238,-2.4007236389994875e-05,586.5823975206628,513.0738283123418,587.1639547047496,512.2368814212354
4.16,0.1881836328823746,-5.9999464410445045,1.9588063714062203,-0.002079376279877503,14.904505907011224,0.0004812926664003968,0.2619108739338821,-5.99999917817422,1.9714917497781905,2.5667269328175595e-24,0.9264424086386949,0.0002699753173370378,0.2718275609137878,0.0011134014320383697,-0.9684730065020725,7.961084967127249e-05,0.5582526996341953,0.0022401805753852954,-0.012054452986121025,-5.137849139208979e-05,552.2687811183594,549.1978750403074,552.7974849990524,548.3232595625044
4.212,0.24178791729644725,-5.999931189290678,1.9600813417706093,0.0005214586712879549,11.440229036556985,0.0006923051286055047,0.31432261435544684,-5.999998606299603,1.973329289088361,2.4012849431890054e-24,1.0424853218450836,0.0002815868707999671,0.24510430226607385,0.0005699653249627216,-1.1137041181185754,4.6066322392478195e-05,0.4913625924624551,0.0024967029307922314,0.19779851336356277,-3.921269337285528e-05,516.5415282897252,579.5231960542511,517.2352360340932,578.6564528700728
4.263999999999999,0.2998547576547684,-5.9999163300660925,1.9618743992402088,0.0011738867419752626,9.457624425466948,0.0008117052720754803,0.36928873792512085,-5.9999978023402365,1.9750509340015103,2.2462774512192764e-24,1.122601388390389,0.00026882215793222675,0.22765383853873158,0.00010229979231745191,-0.31377445583209734,5.514095734443558e-05,0.38943288875109294,0.002862111273708946,0.11491614897459809,-4.833045297473566e-05,527.3240980547876,564.5025436133064,528.0913266678233,563.4713892958728
4.315999999999999,0.3613321799372989,-5.999902235022511,1.9641277048411159,0.001494787621199816,9.584924719521043,0.0009983331606541273,0.4264431545304311,-5.9999967400414445,1.9766637703204906,2.1010664899731762e-24,1.1831494762848735,0.0002501793336293276,0.24535130549626089,0.00017895630102114638,0.16886436786532172,6.198313053261696e-05,0.2981483860664441,0.0031312800962959696,-0.07990755726552337,-6.0905653065100255e-05,555.8334604988496,531.4976958054642,556.6034297477477,530.2715757334588
4.3679999999999986,0.4260948144700165,-5.999889067552799,1.9666041452671337,0.0030841195875122253,9.57254105611541,0.0011771811543934932,0.48548870600300803,-5.9999953981904515,1.978174470702985,1.965051289847012e-24,1.2451737504604208,0.00023113747456003633,0.2603478887543214,0.0007817752758401376,-0.212376259345743,5.9508975391301595e-05,0.23472999714970771,0.0031380967360211853,-0.09566090255588541,-6.405320250704299e-05,556.6107007576366,527.1881800860483,557.3713816057815,525.9388410444737
4.419999999999998,0.49401130193964404,-5.99987751790259,1.9691240976163404,0.0057304498292269634,7.929188145730743,0.0012176069396580837,0.546183035847392,-5.999993763875469,1.979589316890707,1.8376662771730036e-24,1.3075585164733157,0.0001985015993263062,0.23539703209997648,0.0008221643636215472,-0.7236700558297666,6.218891376782219e-05,0.18562070103137265,0.003106142103247507,0.0523383098309598,-5.243584427265218e-05,531.8453802777616,549.5166100942181,532.6709590114843,548.366917024277
4.471999999999998,0.56429437569826,-5.999868714804234,1.971621038888553,0.007395706959943079,5.827791021625123,0.001235652998722691,0.6083292827329027,-5.9999918374133285,1.9809142209231427,1.718379164249804e-24,1.3525823329910402,0.00013855803006201434,0.18957149454066308,0.0003228361172420895,-0.6015206097124242,0.00010607332945732333,0.14172561306588993,0.0031846424299284757,0.12418016802551807,-6.53215385242418e-05,518.85031395155,559.5552533622621,519.6772444543657,558.3598213387712
4.523999999999997,0.6359666100068947,-5.999863360610493,1.9740459317864678,0.007256294601644024,4.9151432931043555,0.0014560124498016356,0.6717575321479089,-5.999989634080226,1.9821547453632269,1.6066891283335547e-24,1.3768870726139817,6.209120821886291e-05,0.16488028612378222,-0.0002664068328473891,-0.10581755537638035,0.00010896592183414894,0.10783653083507896,0.003385041212178167,0.05784039955273377,-9.177944600250185e-05,528.8293137452702,548.4176000032173,529.6145549181663,547.0463241311179
4.5760000000000005,0.708557721300612,-5.999861356147175,1.9763228054493303,0.006645521043687964,5.056344961118091,0.0017154221176199451,0.7363363493097624,-5.999987184700792,1.9833161225639442,1.502125076978307e-24,1.3937527870763136,-7.679331860774694e-06,0.16527333558426843,5.44042540581496e-05,0.0791072766826538,6.110581146732663e-05,0.08921783354344487,0.0033905036405265632,-0.04202090016603202,-9.60747550857504e-05,544.363402628278,531.993892870977,545.1135916354116,530.5635998624483
4.628,0.7820635393926639,-5.999862400264757,1.9783843469250475,0.007120530503903736,4.895722377554705,0.0017904192707748536,0.8019371630418313,-5.999984531685776,1.9844032730060808,1.4042439970050997e-24,1.412174803309661,-6.88375540524885e-05,0.16010738322123536,9.630483329614444e-05,-0.17776174269087075,1.5774157892737223e-05,0.08344050571143821,0.003340874889379316,-0.03397903044554923,-8.087460041111668e-05,542.9157453222937,533.1022695482712,543.7033050132608,531.7432972398238
4.68,0.8563821586243328,-5.999866572793353,1.980205155773094,0.006663196508064826,3.909109831952663,0.0017065378705838875,0.8684372553184959,-5.999981726668442,1.9854208227382177,1.3126293843005027e-24,1.4279532734162903,-0.00013133216901133066,0.1333725074920067,-0.0003209280758099106,-0.39590423007595,1.6151447786220042e-05,0.08482220369851813,0.0034270587660506406,0.0523423322287275,-7.405970773963306e-05,529.051249981079,546.9151780546539,529.910954352251,545.586222947375
4.731999999999999,0.9310774569079757,-5.999873630727142,1.9817900073168357,0.005290365441130977,2.9141746988368475,0.001684665011665818,0.9357541502235953,-5.999978829336855,1.9863731199506143,1.226889751594617e-24,1.4335140072959747,-0.00018780882766535767,0.10322702683388296,-0.0005011600475540506,-0.2438619655619783,3.423958023755497e-05,0.09056846486227575,0.003525890788890033,0.08393194278904414,-8.574932618149002e-05,524.045713601757,552.0564791918415,524.9053556301764,550.6702041528844
4.783999999999999,1.0057098424147823,-5.999882950628457,1.9831531008994419,0.004313504024519789,2.7201251616921684,0.0017611432670009515,1.0038152840958328,-5.999975903897143,1.9872642507149523,1.146657211340748e-24,1.4309981912702177,-0.00023087540097515026,0.09228348755800794,-0.00022499673979829715,0.04079458307793654,2.3820117287622782e-05,0.09944505182716731,0.0034845139093113513,0.019245966386418387,-9.371385737122679e-05,534.8385179239928,542.1128363181098,535.6403509589857,540.6873300733541
4.8359999999999985,1.080173864616699,-5.999894035131588,1.9843143713711149,0.003656930281331368,2.9827005348257734,0.0017925408606574106,1.0725432193364361,-5.999973015970609,1.9880980539219766,1.0715861308118744e-24,1.4281658395590417,-0.00026398449035796104,0.0948314097361821,-0.00028705553245310974,0.07949418508367322,-8.787924066073681e-06,0.10997925765825187,0.0034925351295260836,-0.022818281958936055,-8.83551380402485e-05,541.8467295582749,535.6652282185717,542.6588048073909,534.2382652515057
4.887999999999998,1.154569128686446,-5.999906516104778,1.9852996266245124,0.0024860377662006576,2.9520665475298515,0.0017331068410789483,1.1418949899766402,-5.999970231322279,1.9888781354489644,1.001351856539153e-24,1.4275518266099492,-0.0002877155164204743,0.09191325856562067,-0.00036338976098370415,-0.08088676734850582,-2.214909672852836e-05,0.12067644783694804,0.003534615760483477,-0.0023068807079009955,-8.232925679839905e-05,538.8485947135514,539.2410855726991,539.6990277153948,537.8306069919788
4.939999999999998,1.2288838391063621,-5.999919882418663,1.986136756574636,0.0018615913675143973,2.5120651297520764,0.001662637009191074,1.2117975282395754,-5.99996760742035,1.989607881588678,9.356495052426453e-25,1.425664897111874,-0.0003010016980214407,0.07869232130524682,-0.00011300882623788077,-0.16511017937268818,-1.52915135965371e-05,0.13076842910475248,0.003458862748271225,0.0475709158108168,-8.243983872643363e-05,531.1035488545164,547.4106807759467,531.9414436476889,546.044843377021
4.991999999999997,1.3029372670646877,-5.999933824837572,1.9868518905287043,0.00156840888039804,2.192293767423886,0.0016100716389953569,1.2822045416084888,-5.9999651986780425,1.9902904717710292,8.741928184419189e-25,1.4196474113203164,-0.00031010636219545184,0.06754284911350829,-0.00013767988538771256,-0.047989835499513286,-1.5212685841522122e-05,0.13989725016338136,0.0034062595265254678,0.049718329050946475,-8.273996339635303e-05,531.015543792804,547.9844526384836,531.8355015070946,546.6356286045852
5.0440000000000005,1.3765952751261554,-5.999948176838014,1.987469027545582,0.0007326026932795738,2.3113393009381538,0.0015562293548998197,1.3530548168941803,-5.999963050710447,1.9909288906081726,8.167130779821189e-25,1.411866855718653,-0.00031536098861712305,0.06764991451180183,-0.00037540109953613376,0.0856515103839864,-2.0911193263433293e-05,0.14757403184456144,0.0034437113043525227,0.008224447159545102,-8.11071000229287e-05,537.9061550118053,541.6313102840758,538.733145156313,540.2602039607411
5.096,1.4499076004124465,-5.9999625580472165,1.9880105901413727,-0.0005251619094758793,2.578868708644459,0.0014945224544002298,1.424305187672555,-5.999961202543517,1.9915259392930844,7.629580797677671e-25,1.4059362592739366,-0.0003115481281647242,0.07282139770118926,-0.0004056935781489755,0.07143571607538557,-1.9547354209568338e-05,0.1535296622317858,0.0034887164565180697,-0.0050389509640054765,-8.000343421376661e-05,540.178722102964,539.6839460717372,541.0203025150453,538.2972199659943
5.148,1.5229923174498239,-5.999976417930658,1.9884951431044429,-0.0013418907948847868,2.614203604857435,0.0014478612853586,1.4959098273944988,-5.999959686714663,1.9920842463810164,7.126911630601922e-25,1.4021249056169565,-0.0002975246404133151,0.07316749028273671,-0.00016696904704975482,-0.02797781463132002,-1.3080086693330236e-05,0.1579682874526344,0.0034538420004785247,0.01067511433750021,-8.140109740177565e-05,537.7950228712051,542.3034650609349,538.6244271144831,540.9298416400896
5.199999999999999,1.595874075996056,-5.999989393422657,1.9889362333235336,-0.0014969754682975166,2.4560245758895083,0.0014142340697451549,1.567819497822349,-5.999958523136685,1.9926062779823963,6.656902927640939e-25,1.3980862136490029,-0.0002784806687847848,0.06850051619821063,-7.013158780432148e-06,-0.053957336625416644,-1.3488504414607992e-05,0.1612512347281249,0.0033877558335356104,0.03181817146791649,-8.12448729057825e-05,534.4970608669424,545.7296700353354,535.3108343570167,544.3861367758487
5.251999999999999,1.6684942881299718,-6.000001408185287,1.9893433976742887,-0.001635647664526846,2.40988391305163,0.0013664284435294337,1.6400007178025053,-5.999957725085781,1.9930943473949676,6.217471922025346e-25,1.3927494718354134,-0.00025877332905142127,0.06608349956210993,-9.739712682675858e-05,0.01904798537813343,-1.8293756658440388e-05,0.16362104565300672,0.0033756879216640433,0.022404554702841088,-7.878060856862639e-05,536.0748031947527,544.2989857392982,536.8907016278456,542.9640384441338
5.3039999999999985,1.740838282377369,-6.000012407707082,1.989723791021881,-0.0021701429860724623,2.574725551550173,0.0013048166472738258,1.7124029216710244,-5.999957293853448,1.993550624202074,5.8066652395709965e-25,1.3876552483925142,-0.00023714759179069975,0.06911144709533672,-0.0002149386317816821,0.06857047107667952,-1.7992407340283733e-05,0.16518403226491354,0.0034136294212473617,0.009196361591963794,-7.71815788037054e-05,538.227230976391,542.2495740453129,539.0574230177754,540.902884837124
5.355999999999998,1.8129791346968451,-6.000022180738857,1.9900828299286628,-0.002711057758185072,2.747540249209611,0.0012545316381032989,1.7850014525500795,-5.999957228698849,1.9939771428631214,5.422651164297756e-25,1.3842779710693756,-0.00021105147064628,0.07293762618154111,-0.00012911922372597638,0.04338264840242947,-1.1690434139375398e-05,0.16608668709142582,0.003424266318717274,0.006890925003700903,-7.810347793320767e-05,538.6205415797343,541.9107221295727,539.4504024686591,540.5566804313756
5.407999999999998,1.8849964384995896,-6.00003051485381,1.9904239547981963,-0.002767767257402368,2.7866694437278112,0.0012256593626706082,1.8577707563245267,-5.9999575204143945,1.9943758108213354,5.063712338646194e-25,1.3822291530189876,-0.00018197821524512705,0.07374743778182997,4.0918695796541637e-05,-0.0033113834808173475,-6.575016366970766e-06,0.16656899803890945,0.003386421147163723,0.019832190693815123,-7.93887892639734e-05,536.5677521139687,543.9735974948712,537.3842752923352,542.6323924620455
5.459999999999997,1.9569139403354834,-6.000037364124798,1.9907489455367304,-0.0032906103111809922,2.7643700911227485,0.0011898045921073,1.930696549465175,-5.999958151782539,1.9947484161530291,4.72823887649766e-25,1.380311928096666,-0.00015244858328278038,0.07278428519532584,-7.3557678256532e-05,-0.0011629484362993099,-5.06980173534554e-06,0.16681186151777308,0.0034972583512003805,0.02220124881288678,-7.798307746039082e-05,536.1736063470825,544.3704227602825,537.0310810396891,542.9997555636648
5.5120000000000005,2.0287277637455294,-6.000042584524243,1.9910587095881516,-0.002902715392585858,2.8168667998875088,0.001161806588014084,2.0037378258481615,-5.999959096208395,1.9950966347816597,4.414721868031617e-25,1.3783466621998162,-0.00011963866018935671,0.07348259515910183,0.000325408161449392,0.02902245691028959,-6.280258094984461e-06,0.16691027736618627,0.003376689409749449,0.018808306555442654,-7.902406120687661e-05,536.7423823236621,543.8184165743799,537.5567607362362,542.4811482445172
5.564,2.1004623439964685,-6.000046365099666,1.9913537139157025,-0.0017047535196518747,2.922937837065525,0.0011355994118581198,2.0768691477600845,-5.999960325347002,1.9954220372790439,4.1217472562810244e-25,1.3770494250439236,-9.3853556655879e-05,0.07565902547601952,0.00036390925503512896,0.03553020569319873,-9.453286211032248e-06,0.16694139454818943,0.003271558910926348,0.01462971726393183,-7.814505971652994e-05,537.4289560827268,543.1386369453475,538.2116209680146,541.8360930381716
5.616,2.172164992350802,-6.000049230225863,1.991634115239851,-0.0013323922941961199,2.9893316046816825,0.0010934212224614657,2.1500574940284194,-5.999961805849042,1.995726095275197,3.8479900660668473e-25,1.376695613292166,-7.787825817425429e-05,0.07711982509313225,-5.464653167809733e-05,0.010377935233881568,-1.5689521971376998e-05,0.16696968428407177,0.00332194214830089,0.01906990069978992,-7.610809162690958e-05,536.7058293355442,543.8478854328089,537.5126274666394,542.5379040352639
5.667999999999999,2.2438665656450807,-6.000051373197524,1.9918999589174398,-0.0019854013759871953,2.9886626175104847,0.001048673973443503,2.2232945261339285,-5.999963503931146,1.9960101874973404,3.592208966804381e-25,1.3767640105853363,-6.262819485763846e-05,0.07692246896282669,-0.0002642614959961625,-0.005585659683774175,-1.3206583737519002e-05,0.16702079835393432,0.0034238433716070773,0.01817937149605699,-7.614223231838497e-05,536.8338711790384,543.7243593232091,537.6730216921019,542.3815894353042
5.719999999999999,2.3155689081676325,-6.000052553309719,1.992151368695046,-0.0024157794310241646,2.982936471335525,0.0010235898788828377,2.29655594055476,-5.999965386281643,1.9962756054577542,3.353241151471241e-25,1.3767567938174308,-4.181205688103786e-05,0.07644616019914569,-1.936399298563827e-05,0.0036705540996574094,-5.388708470577591e-06,0.16710383328759917,0.0034298113406123327,0.020748527279753386,-7.795591834973059e-05,536.4257535310696,544.1375581498299,537.2612851359901,542.7878080199752
5.7719999999999985,2.387270133881458,-6.000052607870522,1.9923885503684413,-0.0019014152411185366,3.0004222721065767,0.0010136126768252385,2.369798349393238,-5.999967419080534,1.9965235588092773,3.129997514809578e-25,1.3767696698798368,-1.9959121067286184e-05,0.07658071433143902,0.0002726825441643226,0.006452737549813089,-2.7123786123153376e-06,0.16723060868234654,0.0033513583167213722,0.015906801851080433,-7.903590979204142e-05,537.220758466005,543.363130065055,538.0262592573886,542.0327519485337
5.823999999999998,2.4589776058114055,-6.000051766865184,1.9926117923932998,-0.001091662322546412,3.027659202276483,0.0009975290685949128,2.4430430135538965,-5.999969567973726,1.9967551803864023,2.9214581145994298e-25,1.3769420280910283,-4.358175264460211e-06,0.07693245285789171,0.000221810473937154,0.013631934777267813,-7.3473368075998655e-06,0.1673944285488113,0.0033117556163969834,0.02018320802099293,-7.801345231490301e-05,536.5435262546636,544.0372438571645,537.340819818912,542.7245367257011
5.875999999999998,2.5307049699516804,-6.000050393126638,1.9928215307122572,-0.0008971666460107869,3.1001968209607718,0.0009658365272568579,2.5163126431571667,-5.999971797719023,1.996971530949093,2.7266679005850907e-25,1.3774293139809646,4.996415720052122e-06,0.0783639932557024,-6.541185059784345e-05,0.02844541820674195,-1.1890833821521584e-05,0.16758843862370806,0.0033793591870536666,0.013616333616906454,-7.629668166129641e-05,537.5885805743487,543.0092703496798,538.4117929760287,541.6783586391824
5.928000000000001,2.6024828379043585,-6.000048559149899,1.9930182052622234,-0.0018628273366739715,3.1590279927710885,0.0009268605711504643,2.589575483556267,-5.999974076360362,1.9971736036456418,2.5447326963604267e-25,1.37859414790333,1.5566646159599856e-05,0.07971810744784671,-0.00026929152013411824,0.010155942239489813,-9.047759614961965e-06,0.16782600464413755,0.003534340024137647,0.01683566892140255,-7.672063628989237e-05,537.0546744973565,543.5515349893519,537.9269139011318,542.1712676915823
5.98,2.674335678879134,-6.000045934542941,1.993202335154102,-0.0014799140800460496,3.1403415815905293,0.0009235532288574965,2.662819368862312,-5.99997637599656,1.9973623282101156,2.3748154202212117e-25,1.3801015757562953,3.257742437924966e-05,0.07926217841971553,0.0004004620355295203,-0.014486945400325107,2.4550013393720585e-06,0.16808033502307634,0.0033973729723724136,0.014692407967402805,-8.041943750722453e-05,537.4335901572432,543.2030268023391,538.2488061261623,541.8529547116567
6.032,2.7462559509574995,-6.000042687100556,1.9933746668790802,0.00015761005758184557,3.1013013542806855,0.0009256755027089668,2.736047497043304,-5.999978667987439,1.9975385749091648,2.216132531671658e-25,1.381303188280295,4.1710230494773996e-05,0.07811710525548869,0.0005279562729764072,-0.0080972109334975,-2.9856626027616293e-06,0.1683177283461876,0.003249431043692794,0.017488141991998305,-7.959473376231153e-05,537.0139816585379,543.6278558784876,537.7852327197239,542.328632086063
6.084,2.8182264500061964,-6.00003950709556,1.9935359996555149,0.0008174646005256001,3.1081498307298254,0.0008954865654272355,2.8092423713206167,-5.9999809263523325,1.9977031582522629,2.067950690928738e-25,1.3822188977293388,3.753971961589699e-05,0.07803096267348628,-2.457120078297656e-05,0.007463309671509698,-1.416994641859802e-05,0.16854064548430858,0.003305368251862257,0.016280711240691255,-7.641565050486175e-05,537.1993637663143,543.445969718422,537.9990681180482,542.1392484189479
6.135999999999999,2.8902484066977694,-6.000036694124489,1.9936869851680674,-2.660223007117924e-05,3.149748853813862,0.0008502753416402322,2.8824184554266736,-5.999983128061535,1.9978568404787265,1.929583619399873e-25,1.383261967794153,3.1789582379293326e-05,0.07884823055431955,-0.0003571108044634301,0.016086607552294734,-1.4963421379322733e-05,0.16877910361862455,0.00344417557377794,0.011661882729952524,-7.531427735490925e-05,537.9220567867239,542.7397720117378,538.768824748333,541.390883796175
6.187999999999999,2.962338358861249,-6.000033919269724,1.9938280963333896,-0.0006786858335831589,3.1766606862948112,0.0008246090893503801,2.955570983768579,-5.999985256635967,1.998000334834198,1.8003891497184607e-25,1.3846755618127173,3.4085736486476585e-05,0.07949102180296018,-4.1824375686899306e-05,0.0010815156745832481,-1.7129496061741643e-06,0.1690194395242703,0.0034574131288605966,0.0164675295497373,-7.80070943728264e-05,537.1607513218204,543.5152508740163,538.0038086449265,542.1550056962476
6.239999999999998,3.034506462000705,-6.000030898832949,1.99396010834865,-0.0002893254792194418,3.1507143727029243,0.000826841571348663,3.0286926076185323,-5.999987297752652,1.9981343086486136,1.6797664545064627e-25,1.3861847242524075,3.929879276111301e-05,0.07886927447098235,0.00024456695179189924,-0.014044755666973472,1.9343522543300124e-06,0.16922656641234413,0.0033770585290700357,0.01110261757779856,-8.01349555340929e-05,538.0427291525605,542.6604978908252,538.8514920320906,541.3165003692731
6.291999999999998,3.10674042001207,-6.000027787606822,1.9940837334126857,0.0004747602821399129,3.0947342960674984,0.0008254764567976901,3.1017615742848315,-5.999989239892,1.9982593862270763,1.567153443594522e-25,1.3873528234072028,3.93853546553082e-05,0.07744339133188444,0.00020910099899919816,-0.018863817833290976,-2.8646231223664954e-06,0.16940728040215872,0.0033293972080886405,0.02073112856883611,-7.944021798183236e-05,536.5099885306365,544.1832931968165,537.3081361155046,542.8605350629014
6.343999999999998,3.1790153442901468,-6.000024908483072,1.9941996180072037,0.0006170239980018197,3.0728764364487566,0.0008059593517764555,3.1747954392444484,-5.99999107307051,1.9983761515644256,1.462024319967938e-25,1.3880144049237364,3.397633887094993e-05,0.07666636678944067,-4.363341290723873e-05,0.002064952696273157,-5.029556032263014e-06,0.16956147582267625,0.0033755350115679678,0.020771302086915206,-7.80940986096737e-05,536.4980363219039,544.1988414892031,537.3155784778296,542.8660080257152
6.395999999999997,3.2513207612006134,-6.000022331397627,1.9943083051134063,0.00018099062037484263,3.112521107989516,0.0007818909015829202,3.2478059268102757,-5.999992790790406,1.9984851508937587,1.3638872852216487e-25,1.3886193772549889,2.9227917650465167e-05,0.07743473346129962,-0.00015960253784969895,0.0179740477048897,-7.147187140531494e-06,0.16970736570791825,0.0034364033089926893,0.014915837781672017,-7.822533527822993e-05,537.4320483165486,543.2847579847415,538.2672133941171,541.9298789951378
6.448,3.323672331105945,-6.0000198780201055,1.9944101965110623,-3.55306156896901e-05,3.1576056304620543,0.0007684515315869849,3.320794123873117,-5.999994388547588,1.9985868950785755,1.2722823857996101e-25,1.3896287871747828,2.8275298348503732e-05,0.07852766119600989,7.26072240322094e-06,0.00824068927960912,-2.8834279936467313e-06,0.16985985533470863,0.0034306474186254683,0.01163383847091699,-7.944418964414467e-05,537.9651088639799,542.7692431584302,538.7934717344822,541.4107911079592
6.5,3.396087245403186,-6.000017452331758,1.994505636074771,0.00029087498904269247,3.1254736812039257,0.0007626411979641283,3.393741245651099,-5.999995865793826,1.9986818618577324,1.18677949176414e-25,1.3908920701217065,2.7829845499351983e-05,0.07786680293970961,0.0001549768625612071,-0.020107352433154212,-1.9801614636828985e-06,0.1700146144260911,0.0033811021411683014,0.021513006063655638,-8.00339152462253e-05,536.393667628201,544.3325735682059,537.2065540915568,542.9917715701522
6.552,3.468552314382368,-6.000015184917403,1.994595111658803,0.0006676198201164489,3.070254119735721,0.0007506624855029683,3.4666702408854944,-5.99999722027761,1.998770497951863,1.1069764002892414e-25,1.391721276459417,2.4013532521142876e-05,0.07641031427932986,7.925013313584747e-05,-0.013897680462177823,-5.3623762522227836e-06,0.17014035113917872,0.003366524017638783,0.02678497725607451,-7.931560221294909e-05,535.5506954672901,545.1663032140533,536.3626237203703,543.8345905348332
