Time_s,X,Y,Z,Roll_deg,Pitch_deg,Yaw_deg,Ref_X,Ref_Y,Ref_Z,Ref_Yaw,vx,vy,vz,p,q,r,T_pert,tau_x,tau_y,tau_z,RPM_0,RPM_1,RPM_2,RPM_3
0.0519999999999996,-1.4050232147708936e-21,9.270229634543695e-23,0.010054998082298783,5.527776162852688e-19,-1.0906667803842457e-17,2.9883417689465368e-19,6.122640853033874e-23,-7.961445117648765e-24,0.016216050707931907,4.912004924521841e-22,8.12104510532429e-22,-2.22203649609093e-21,0.0009999903212055614,0.0,0.0,0.0,1.91896533356585,-9.637615697684627e-19,1.2976917560872544e-18,8.965272563202829e-20,585.6698475598195,585.6698475598196,585.6698475598195,585.6698475598196
0.1039999999999992,5.608142460119974e-20,-1.0139760741354332e-20,0.011055929344592917,4.752701897632391e-16,2.4308641663388333e-15,-1.232583066065571e-18,6.071585346321788e-23,-7.895056181175283e-24,0.032758437754563774,4.871044674457614e-22,3.097441092187377e-18,-4.675692884146884e-19,0.05072783043618932,0.0,0.0,0.0,3.4321882932092604,-1.3268987232843475e-16,-4.767452897713116e-16,-1.5177552368404518e-18,622.3044314778444,622.3044314778444,622.3044314778444,622.3044314778443
0.1559999999999988,7.766131184885443e-19,-3.5061909961066285e-19,0.018218471692682613,2.1045612622448684e-15,-4.731529055966966e-15,1.0675216322532528e-17,5.993569495114737e-23,-7.793609937209529e-24,0.05803618915790014,4.808454975907861e-22,2.2062668972484412e-17,-6.126547363625572e-18,0.2046760792054337,0.0,0.0,0.0,3.991152720633492,-4.0785034757516326e-16,8.314744371381378e-16,9.634182246528818e-18,635.3026911906835,635.3026911906836,635.3026911906834,635.3026911906837
0.2079999999999984,-6.068118312705532e-20,-1.8167327935882593e-18,0.03466975495855893,2.687907139321016e-16,1.0795449295540892e-14,-5.166208706103115e-17,5.892950936700749e-23,-7.662772746223066e-24,0.09063739605111035,4.727731826160658e-22,-6.916313086206875e-17,-3.209477200825212e-17,0.3942078467071602,0.0,0.0,0.0,4.019394160569119,1.0553095578556725e-16,-2.9531306676708474e-15,8.035709864955279e-19,635.9523721949475,635.9523721949469,635.9523721949475,635.9523721949467
0.259999999999998,4.9270523016978095e-18,-3.459323796833099e-18,0.06119710349405874,-2.294326159424512e-15,4.9761162715909305e-15,-1.0592146410091474e-16,5.773582343362068e-23,-7.507554348239469e-24,0.12931376221384347,4.631966104736331e-22,8.997627607407913e-17,-4.603725143000015e-17,0.5877813711598185,0.0,0.0,0.0,3.7181073105880627,2.6543645435470594e-16,1.56583244105329e-15,9.84566980189692e-18,628.9868037825905,628.9868037825912,628.9868037825906,628.9868037825911
0.3119999999999976,2.839496983982877e-10,2.839754317647024e-10,0.09741204423354706,4.1490908769932323e-05,-4.148797686041131e-05,-4.274630392724086e-06,5.638862954359125e-23,-7.332374871347785e-24,0.17296390730279548,4.523884915900451e-22,3.2524891544470803e-07,3.2526786093323006e-07,0.7673480342879844,0.0,0.0,0.0,3.2255865550640754,-2.321906940564063e-05,2.321698402341946e-05,1.7732193146852225e-06,617.42819387576,617.4281932937253,617.426962967414,617.4399232639248
0.36400000000000077,-4.252454584229309e-08,-4.2531060647434065e-08,0.1422499728480696,0.00030671824879435137,-0.00030665209570264224,-2.205848701001963e-05,5.491785190254884e-23,-7.14112544564251e-24,0.2206182634427897,4.405888985890983e-22,2.8987221470196027e-06,2.899426483954196e-06,0.9228478880675995,0.0,0.0,0.0,2.6416350398635413,-4.7011262948030294e-05,4.700212333517029e-05,1.8790464729397404e-06,603.4400884985728,603.4400858885554,603.4323551864617,603.4592025242333
0.41600000000000037,-2.425080542947377e-07,-2.4254826413063457e-07,0.19428058963970257,4.643797788958275e-05,-4.65468133571549e-05,-2.405122464042181e-05,5.334976799937911e-23,-6.9372230082038e-24,0.27142541925873054,4.280086476168132e-22,-3.210195807921481e-06,-3.2123968276364034e-06,1.049168811284452,0.0,0.0,0.0,2.0403381052950285,1.2953636189035256e-05,-1.2923481965556083e-05,6.224751347690199e-07,588.69136930356,588.6913781305019,588.6970939337684,588.689519039146
0.46799999999999997,-4.633673700890615e-07,-4.633865497956981e-07,0.251932685940861,-0.0003974760243563631,0.00039737596368426097,-1.6188675962680288e-05,5.1707389505816085e-23,-6.723659832561554e-24,0.3246397784282443,4.1483235418076603e-22,-1.0580709361591507e-05,-1.0582095239019963e-05,1.144998738259408,0.0,0.0,0.0,1.472337710670348,4.6850906278319264e-05,-4.6864761171031245e-05,-1.0726646680684232e-07,574.4109263488026,574.410922192279,574.4246403033369,574.3965252083829
0.5199999999999996,-4.846179064492877e-07,-4.845864531095773e-07,0.3136627446652999,-0.00034200128204486346,0.0003425946248159871,-7.4338022693307075e-06,5.001080634161695e-23,-6.503048268474707e-24,0.37961041169852133,4.0122119347830932e-22,-6.392677918534602e-06,-6.381667572151445e-06,1.211943522393687,0.0,0.0,0.0,0.9659309840895882,8.318489093049264e-06,-8.441638869428645e-06,-3.1268715057469593e-07,561.3720983296027,561.3720605260511,561.3736337298512,561.3684888280051
0.5719999999999992,-3.355156427937315e-07,-3.357201771130419e-07,0.3780596451500783,9.293887340292157e-05,-9.219782362249624e-05,-1.5301722445809006e-06,4.827749730740723e-23,-6.2776611344090606e-24,0.4357709921370155,3.873153925075771e-22,4.4487855449501894e-06,4.4580840893637125e-06,1.2530716479383726,0.0,0.0,0.0,0.535278074512304,-3.5732440300521645e-05,3.566565044339176e-05,-2.630921988662175e-07,550.040226162007,550.0402052369884,550.028156882103,550.0505256791819
0.6239999999999988,-2.310424715174169e-07,-2.3180701165935336e-07,0.4438941085504698,0.000523048415062572,-0.0005236045829468945,-1.7644248640414026e-05,4.652261038242811e-23,-6.049468165455515e-24,0.4926307132632521,3.732364788094054e-22,1.1558670610518048e-05,1.153839079577543e-05,1.2721798774213318,0.0,0.0,0.0,0.18424077678319972,-8.390037638054959e-05,8.403193905666067e-05,2.9275280034340662e-06,540.6222624569027,540.6223043930512,540.6054168021832,540.6589449439824
0.6759999999999984,-3.622928568626411e-07,-3.6335491896293335e-07,0.5101457972930511,0.00036462435869945666,-0.0003663959236404994,-3.2580861804222023e-05,4.4759215506301954e-23,-5.8201688832664425e-24,0.549766098720159,3.590893084570628e-22,4.706386793279376e-06,4.667723162020788e-06,1.2731886572750326,0.0,0.0,0.0,-0.0895576144328829,-1.4311284398591583e-05,1.4512723177249271e-05,1.8092621331086565e-06,533.1672644990101,533.1673296062615,533.1688417217104,533.1781578528272
0.727999999999998,-6.488626054209623e-07,-6.494457840446635e-07,0.5759956980684291,-0.00043409626100963814,0.0004331354197775676,-2.780980570350639e-05,4.299853241025178e-23,-5.591222221601164e-24,0.6068136203627762,3.4496389387548493e-22,-1.3215769883361169e-05,-1.3225535306689864e-05,1.260051637232516,0.0,0.0,0.0,-0.29446849730190383,6.936494483628017e-05,-6.937656216632033e-05,3.517886704834853e-07,527.5201334630007,527.5201296679545,527.5440114140476,527.4986886747328
0.7799999999999976,-7.538284752201576e-07,-7.535341072227083e-07,0.6408182244353303,-0.0007093282132389074,0.0007108801572625132,-1.5484346821709175e-05,4.1250135831851667e-23,-5.363873210987224e-24,0.6634630491384107,3.3093705021559117e-22,-1.5092935943469922e-05,-1.5048978445773753e-05,1.2362597957538777,0.0,0.0,0.0,-0.4403163115651826,4.2387160916896086e-05,-4.2677830563216495e-05,-3.1875538450924803e-07,523.462988776884,523.4628930875514,523.4758295350907,523.4478258213044
0.8319999999999972,-5.584536018790653e-07,-5.579352778072038e-07,0.7041573161823655,-0.00015602703308899868,0.00015853885084839275,-4.735445144430898e-06,3.952214023641539e-23,-5.139176998571176e-24,0.7194514699678843,3.1707387731671185e-22,6.651484326581247e-07,7.144873417024973e-07,1.2048799833270618,0.0,0.0,0.0,-0.5382612565676714,-3.534874192797619e-05,3.513785469000527e-05,-4.283347824392778e-07,520.7200055402216,520.7199357497956,520.7068035750953,520.7301302773636
0.8840000000000003,-2.882060879194301e-07,-2.884945257274742e-07,0.7656959851016886,0.0003640085797930007,-0.00036396369916754675,1.635327979728436e-06,3.782136597578304e-23,-4.9180204542211256e-24,0.7745578980697334,3.034290927470168e-22,1.139024611703329e-05,1.137701040800641e-05,1.1683609901518115,0.0,0.0,0.0,-0.5984559339320203,-4.895804948813595e-05,4.914212880480536e-05,-3.072817929239617e-07,519.0266507460959,519.0267118635276,519.0093133870114,519.0418843653017
0.9359999999999999,-1.6225738557194017e-07,-1.6337438155037273e-07,0.8252294344196471,0.00022355295395786107,-0.00022635333450678164,4.28391313145426e-06,3.61534886399254e-23,-4.701141591143258e-24,0.8285984398503752,2.900482300051306e-22,6.2824902814771804e-06,6.22085107086112e-06,1.1286447605941599,0.0,0.0,0.0,-0.6300812281422231,4.5729178026181425e-06,-4.228640339911664e-06,-1.5719677157528547e-07,518.1346277088993,518.1347422115954,518.1355940455794,518.1326667461649
0.9879999999999995,-1.3341707182532469e-07,-1.342328472707149e-07,0.8826391382401426,-0.0001954937787024126,0.00019344269609408048,4.769151716078757e-06,3.452317319697166e-23,-4.489147008493521e-24,0.8814219466613622,2.769687146839851e-22,-2.4575485206558928e-06,-2.4849733961854257e-06,1.087211498645123,0.0,0.0,0.0,-0.6410163344910087,3.8297332732450116e-05,-3.825786791367805e-05,-5.264899879455046e-08,517.825801590724,517.8258147240949,517.8383604384218,517.812883868947
1.0399999999999991,-3.3857062734757344e-08,-3.35313081515653e-08,0.9378710047377679,-0.00024695875971276696,0.00024820032960230434,4.371473048846454e-06,3.293419437163639e-23,-4.282527544528976e-24,0.9329061144433597,2.642208302296156e-22,-1.9048368228799606e-06,-1.8648180873252733e-06,1.0451474609869131,0.0,0.0,0.0,-0.6377253797038365,1.3116950921768373e-05,-1.3400143372328865e-05,-7.864812279426962e-10,517.918685054648,517.9185908288301,517.9230466259075,517.914223668555
1.0919999999999987,1.6323684405276482e-07,1.6422410612604776e-07,0.9909165173991349,6.830044158243088e-05,-6.58094293561736e-05,3.8146569902872256e-06,3.138954457932769e-23,-4.081672311588773e-24,0.9829539865758713,2.51828583863046e-22,4.665993060990358e-06,4.714651588177844e-06,1.003194670945692,0.0,0.0,0.0,-0.6251113841838746,-2.391489330208366e-05,2.3743394278457698e-05,1.600197776763326e-08,518.2746433487422,518.2745863255536,518.2667480568861,518.282594370011
1.1439999999999984,3.3423425063934455e-07,3.348787487290331e-07,1.0417976700853477,0.0002639649908184275,-0.00026371531638659404,3.3840675858727052e-06,2.989153061234559e-23,-3.8868812684772116e-24,1.0314908211681189,2.3981048226368067e-22,6.871962075017164e-06,6.869023973140154e-06,0.9618504080756779,0.0,0.0,0.0,-0.6068981428061032,-2.117335657820121e-05,2.1350939521365997e-05,1.521874094328865e-08,518.7881904914567,518.7882494790841,518.7812109233988,518.7953361936984
1.195999999999998,3.9702350313983343e-07,3.971978240700777e-07,1.0905560008239539,0.0001176088744896758,-0.00011959165366519517,3.1272104835503846e-06,2.8441860164486587e-23,-3.698376471505695e-24,1.0784612875935782,2.2818022572938035e-22,2.7355437854371328e-06,2.7007377888698542e-06,0.9214088686254664,0.0,0.0,0.0,-0.5856092541490778,8.474951755652792e-06,-8.217329175072772e-06,9.205848530097052e-09,519.3878794466123,519.3879649221545,519.3907237068544,519.3851854435885
1.2479999999999976,4.0619227859453207e-07,4.066741269173292e-07,1.1372441175174337,-9.251462750947582e-05,9.139652413006809e-05,2.9926597685971327e-06,2.704171918011847e-23,-3.5163121324142724e-24,1.1238269603189213,2.1694732872410663e-22,-9.81053955531098e-07,-9.888785042690345e-07,0.8820393106031655,0.0,0.0,0.0,-0.5629951014280398,1.959460690611725e-05,-1.9605733351497346e-05,3.944740684014453e-09,520.0241990694016,520.0241953823206,520.03070615436,520.0177159477827
1.3000000000000007,4.474681854114119e-07,4.4871399055275233e-07,1.1819204375363415,-7.511560756691883e-05,7.641061226761334e-05,2.9209018005845476e-06,2.5691840922515475e-23,-3.340783599524935e-24,1.167564081035454,2.0611767399176135e-22,-1.0228913098247368e-07,-7.241421896714322e-08,0.8438170596946393,0.0,0.0,0.0,-0.5401110025753577,2.2370790131954953e-06,-2.4535603975253687e-06,7.084213810343077e-10,520.6673081410646,520.6672364920767,520.6680510350429,520.6664985709981
1.3520000000000003,5.181451219406229e-07,5.196453004844165e-07,1.2246450848758055,9.009531297004055e-05,-8.830281550394063e-05,2.870617024639907e-06,2.4392567573162558e-23,-3.1718353676754173e-24,1.2096615627930534,1.9569400674830525e-22,2.338975417082144e-06,2.3633691821047965e-06,0.8067518812200787,0.0,0.0,0.0,-0.517454489747541,-1.40524871820658e-05,1.396013461725944e-05,-6.093102240609936e-10,521.3031823833339,521.303151854629,521.2985349385565,521.3077949853401
1.404,5.53165910558124e-07,5.541893636378646e-07,1.265478303523115,0.00014733037281839707,-0.00014733074520997843,2.821457164998767e-06,2.3143905098124437e-23,-3.0094682126501887e-24,1.250119212286515,1.856763748576258e-22,2.1799112252155767e-06,2.1702575887976802e-06,0.7708450467311484,0.0,0.0,0.0,-0.49538392192553327,-8.08078321785841e-06,8.220089572557361e-06,-9.134097925858945e-10,521.9218466737003,521.9218926691871,521.9191753945513,521.924557536534
1.4559999999999995,5.273529802514589e-07,5.278776500508843e-07,1.3044793079167738,4.1765092496221976e-05,-4.3091830935633707e-05,2.767437722831337e-06,2.1945572048782818e-23,-2.853645536879969e-24,1.2889461486731593,1.7606252034472135e-22,-1.2446025582787472e-07,-1.471042788675313e-07,0.7360605333748562,0.0,0.0,0.0,-0.4738594856141788,7.051474289349582e-06,-6.903495523351708e-06,-7.405503349584704e-10,522.524531722533,522.5245805250792,522.5268546625736,522.5222523937454
1.5079999999999991,4.817130837390049e-07,4.822655348031649e-07,1.3417057121814029,-5.510405576130583e-05,5.4589134345494746e-05,2.708418120184353e-06,2.0797042901659953e-23,-2.704299005043015e-24,1.3261593993283471,1.6684822709766792e-22,-1.3995052312478047e-06,-1.4032036245997463e-06,0.7023775352101154,0.0,0.0,0.0,-0.4528889910657651,9.296417712469513e-06,-9.338779477693628e-06,-4.715495168686358e-10,523.1110711595002,523.1110572044975,523.1141319704276,523.107993080126
1.5599999999999987,4.568147549340475e-07,4.5761488223079356e-07,1.3772139390113851,-2.4143160725516662e-05,2.5089875184237144e-05,2.6471841154847734e-06,1.9697586485133297e-23,-2.561333540800792e-24,1.3617826547896077,1.5802762915323672e-22,-6.679347177194302e-07,-6.546627167716619e-07,0.6697632037767232,0.0,0.0,0.0,-0.4322852316611317,-1.2412768711150795e-06,1.0971058822434576e-06,-2.9790607403733863e-10,523.6866994439212,523.6866520026697,523.6862899464165,523.6870594202583
1.6119999999999983,4.4256340138349874e-07,4.432406204849481e-07,1.411058882557383,5.687512928197347e-05,-5.5912405748243214e-05,2.5857583504390186e-06,1.86462999890948e-23,-2.424631749171313e-24,1.395845166816836,1.4959348354584641e-22,2.0212522870684023e-07,2.0717688315346705e-07,0.638202563192012,0.0,0.0,0.0,-0.4119787580469179,-7.560107137797029e-06,7.521877375872879e-06,-1.9378606760491185e-10,524.2533699412604,524.2533573748817,524.2508842018497,524.2558417512452
1.663999999999998,4.0661376872050546e-07,4.067761211441633e-07,1.443294813722561,6.31199122455876e-05,-6.339103746741544e-05,2.5254535684532748e-06,1.7642139006566666e-23,-2.2940578229263896e-24,1.4283807750202402,1.415374113221314e-22,-2.3117158511292072e-07,-2.436721144315115e-07,0.607676717703397,0.0,0.0,0.0,-0.39181662312150645,-2.4008419346231124e-06,2.4969091401839792e-06,-1.7101539368458798e-10,524.8154025434043,524.8154340875201,524.8146136194916,524.816221818938
1.7159999999999975,3.451562019376221e-07,3.449049758931039e-07,1.4739750815499626,-1.7606233572320265e-06,8.444076126001328e-07,2.4667349952253455e-06,1.668394401353317e-23,-2.1694609858399562e-24,1.4594270488928942,1.3385010998042283e-22,-1.2202933820793487e-06,-1.2346060297219452e-06,0.578173561564535,0.0,0.0,0.0,-0.3716943797299299,4.811961921923861e-06,-4.738473644317069e-06,-1.614444856093991e-10,525.3757493868663,525.3757734913494,525.3773271678192,525.3741945823325
1.7680000000000007,2.8387323009010835e-07,2.835820933857691e-07,1.5031532913502637,-4.036717950661473e-05,4.0118219651467795e-05,2.409565242581692e-06,1.577707020417401e-23,-2.0515375891033044e-24,1.489024533343274,1.2652154028282013e-22,-1.4372883395205315e-06,-1.4390650280596052e-06,0.5497046651849203,0.0,0.0,0.0,-0.35170533396410014,3.997043902463431e-06,-4.044547013405491e-06,-1.6576154654218376e-10,525.931812130468,525.931796565709,525.9331212148387,525.9304863258232
1.8200000000000003,2.394485886103923e-07,2.3923236977535524e-07,1.530882719126731,-1.2698350695298958e-05,1.327011981422462e-05,2.353946866188924e-06,5.104454602602211e-10,5.099529685658954e-10,1.517216086966273,1.1954109010448753e-22,-8.993219405247244e-07,-8.941317568230757e-07,0.5222525820519227,0.0,0.0,0.0,-0.33171949993282174,-1.9453482333359703e-06,1.8581948416330678e-06,-1.7278343574172375e-10,526.4871850669182,526.4871565405631,526.4865477307565,526.4877926762317
1.8719999999999999,2.0180595350209216e-07,2.0144316097545223e-07,1.5572159691127836,2.413715072068774e-05,-2.372808230441421e-05,2.2996937934843004e-06,2.3080160052989004e-09,2.305792338467292e-09,1.5440463033292375,1.1289771772777785e-22,-5.705084614591155e-07,-5.714148317521508e-07,0.49581434860102525,0.0,0.0,0.0,-0.3117583338560627,-3.8050633299863577e-06,3.7965446524231562e-06,-1.7237068035439398e-10,527.0412690353413,527.0412662500071,527.0400243023641,527.0425097844206
1.9239999999999995,1.5588337845491041e-07,1.5520801163563924e-07,1.5822059888081963,1.4831940746661817e-05,-1.5179003384944577e-05,2.2467385187043818e-06,5.0062435750222294e-09,5.000629980349173e-09,1.5695610064918089,1.0658007675548412e-22,-8.170565769738744e-07,-8.252585375946258e-07,0.47039321500203074,0.0,0.0,0.0,-0.29190064853458686,-1.1038162472111353e-07,1.7219393054543757e-07,-1.7298141686952057e-10,527.5919044775139,527.5919246670621,527.5918678246201,527.591960121335
1.975999999999999,1.0462336790770207e-07,1.0377385105940952e-07,1.605905706420646,-2.0411344147419924e-05,1.9835779124410678e-05,2.1949990929135003e-06,8.222542295595751e-09,8.210644865097732e-09,1.5938068128335625,1.0057662460575798e-22,-1.0921769210366413e-06,-1.0980481166163397e-06,0.44598897884344446,0.0,0.0,0.0,-0.2722525496663941,2.926278270777687e-06,-2.895765909178864e-06,-1.6800052914507484e-10,528.1361796928863,528.1361896487672,528.1371339261315,528.1352342509097
2.0279999999999987,6.21505329756165e-08,6.136550200675467e-08,1.6283674721944406,-3.0833501306835e-05,3.076093461454286e-05,2.144442158375949e-06,1.1572381160357108e-08,1.1550589347270171e-08,1.6168307520392282,9.487571635914773e-23,-9.337873360343377e-07,-9.323495103977345e-07,0.4225854156988985,0.0,0.0,0.0,-0.2528133961432206,1.447266244538452e-06,-1.4875228996909069e-06,-1.6587623351702246e-10,528.6741219408002,528.6741088188187,528.6745931151802,528.6736364969746
2.0799999999999983,3.3259305508190177e-08,3.257754979331308e-08,1.649642995456985,-9.437963547913144e-06,9.787387627158612e-06,2.095051960976652e-06,1.4768922913670164e-08,1.4734255045258201e-08,1.6386799407948835,8.946568555398448e-23,-5.642171862715868e-07,-5.607354476366703e-07,0.400173024072653,0.0,0.0,0.0,-0.2336622033344485,-1.5553013876596627e-06,1.507553672416237e-06,-1.6189098233410306e-10,529.2035505443881,529.2035349962055,529.2030435291152,529.204040892655
2.131999999999998,9.60545154578242e-09,8.889458461098543e-09,1.669783599641024,7.623578095054737e-06,-7.475761711622469e-06,2.046780442337044e-06,1.7637805605960686e-08,1.758832757104582e-08,1.6594013033864405,8.433491336839179e-23,-4.162257173231232e-07,-4.167034081070044e-07,0.3787421930453195,0.0,0.0,0.0,-0.21490284915192093,-1.7579812665632015e-06,1.7639363697659277e-06,-1.5734161731208691e-10,529.7216239577734,529.721625895049,529.7210515194982,529.7221972468415
2.1839999999999975,-1.6118351997483808e-08,-1.6930707073260112e-08,1.688839420638382,-1.079193830584424e-06,8.013400779502341e-07,1.999618893634791e-06,2.0063848041395054e-08,1.9997963395380533e-08,1.6790413339698904,7.947188748404135e-23,-5.053044343607916e-07,-5.082840275204118e-07,0.35826330808236106,0.0,0.0,0.0,-0.19649163522381985,4.4095450089371273e-07,-4.030597216383687e-07,-1.5391940427331186e-10,530.2295940345281,530.2296063504011,530.2297368149195,530.2294625087465
2.2360000000000007,-4.089794210391207e-08,-4.1695401828057135e-08,1.706859503597846,-1.7606586476590518e-05,1.72988493052851e-05,1.953541600747348e-06,2.1957557668337624e-08,2.187353616391399e-08,1.6976458958065503,7.486525179708271e-23,-5.292829151841586e-07,-5.296631564330902e-07,0.3387251108337392,0.0,0.0,0.0,-0.17856030130484637,1.567298124002263e-06,-1.556906487648611e-06,-1.5035920476692197e-10,530.7238662664935,530.7238696406491,530.7243746487783,530.7233602221638
2.2880000000000003,-5.8072635801992373e-08,-5.8727380483506744e-08,1.7238920604579944,-1.748536761707831e-05,1.751721548330203e-05,1.908531113181362e-06,2.3243237106876405e-08,2.3139687794694497e-08,1.715260053230921,7.050384802422297e-23,-3.600618814142105e-07,-3.5690422052724655e-07,0.32009907261488035,0.0,0.0,0.0,-0.16109927806461724,3.6551186289176844e-07,-3.9345367540592086e-07,-1.478406395270799e-10,531.2047344192256,531.2047253547555,531.2048524844498,531.2046062720574
2.34,-6.742736795760884e-08,-6.794895902188202e-08,1.7399837185272073,-3.835021593341392e-06,4.063044790513925e-06,1.8645589595491346e-06,2.3894648729249224e-08,2.3771178248370503e-08,1.731927932548186,6.637675014559776e-23,-1.7108422665466679e-07,-1.6802142412082774e-07,0.30236371817626245,0.0,0.0,0.0,-0.14418447922888175,-1.0392209780564656e-06,1.0159040360001884e-06,-1.4438234416857086e-10,531.6701383212913,531.6701307637749,531.6698009911858,531.6704671008964
2.3919999999999995,-7.447438107580921e-08,-7.495619543278084e-08,1.7551800865895575,3.0545868676824844e-06,-2.996681272463453e-06,1.821595638588287e-06,2.394260679273813e-08,2.37997189127546e-08,1.747692608446948,6.247329252987088e-23,-1.2606253841135464e-07,-1.2546306269281176e-07,0.2854929201599937,0.0,0.0,0.0,-0.12784404390057535,-7.404169050740799e-07,7.504923721452984e-07,-1.4109030268138213e-10,532.1193476038952,532.1193508668116,532.1191073369146,532.1195901643624
2.443999999999999,-8.232647432024478e-08,-8.279586887337764e-08,1.7695250933011688,-3.424851645266812e-06,3.2574279825145336e-06,1.7796224458219333e-06,2.343181290689502e-08,2.3270377253544923e-08,1.7625960128642875,5.878309249996149e-23,-1.627893448225552e-07,-1.629531364018145e-07,0.2694531355548064,0.0,0.0,0.0,-0.11205527426584513,4.835707207108367e-07,-4.612792419526124e-07,-1.3800719046881797e-10,532.5530345426167,532.5530417557807,532.5531905446162,532.5528848063709
2.4959999999999987,-8.86197669778802e-08,-8.901101527584048e-08,1.78306112413014,-1.0635894840319833e-05,1.0509097444182166e-05,1.7386161051554562e-06,2.240319504810323e-08,2.2224170810412648e-08,1.7766788635579829,5.529606801912397e-23,-1.35938556021107e-07,-1.3444233148021833e-07,0.25422031847755344,0.0,0.0,0.0,-0.09687709774255525,7.911694980021519e-07,-7.896376010126496e-07,-1.3505495294808844e-10,532.9696222338384,532.9696227291483,532.9698775802043,532.969366456284
2.5479999999999983,-9.040450140005509e-08,-9.066579695856495e-08,1.7958292364912738,-7.7492142890729e-06,7.830607903882031e-06,1.698556380014908e-06,2.090112797610811e-08,2.070581056328752e-08,1.7899806099278754,5.2002451106003397e-23,-3.352448327393076e-08,-3.0756270402595575e-08,0.23976290657247837,0.0,0.0,0.0,-0.08230122762558897,-2.8277211224176408e-08,1.0606355670189011e-08,-1.322953303756121e-10,533.3693723451395,533.3693666358866,533.3693627557099,533.3693753185494
2.599999999999998,-8.872993542409688e-08,-8.889453897607105e-08,1.8078688454657783,8.199160684020329e-08,7.020607039584415e-08,1.659418937734484e-06,1.8989018717034322e-08,1.87792673525175e-08,1.8025393938877343,4.889279752306931e-23,4.04760991017506e-08,4.240004522750905e-08,0.226052909825781,0.0,0.0,0.0,-0.06834985619864782,-6.262659887685093e-07,6.165973499174494e-07,-1.2928182742227678e-10,533.7517106016928,533.751707480103,533.7515079644187,533.7519092318244
2.6519999999999975,-8.683087700143032e-08,-8.696335851760926e-08,1.8192176288589785,2.2127584695884455e-06,-2.189808504205613e-06,1.621182015949659e-06,1.67430175943174e-08,1.65210910369991e-08,1.8143920238231022,4.5957993224857395e-23,3.6865284587370356e-08,3.7299672403570136e-08,0.21305096024535075,0.0,0.0,0.0,-0.054943419456145726,-2.628367780077022e-07,2.7254150202442104e-07,-1.2642940772071913e-10,534.1188551398665,534.118858270953,534.1187699067658,534.1189426386944
2.7040000000000006,-8.573567077779846e-08,-8.584892509108198e-08,1.8299117613883829,-6.220400260048736e-06,6.130578035520186e-06,1.8961861250581413e-06,1.423507924008345e-08,1.4003226557466928e-08,1.8255739598818634,4.318925800014072e-23,6.583269506867518e-09,6.859692575862469e-09,0.20073710336399314,0.0,0.0,0.0,-0.04215388086501329,1.4954814125760184e-06,-1.4830093847880608e-06,-5.729073178172998e-08,534.4689707217777,534.4689747430582,534.4692569661634,534.468296629061
2.7560000000000002,-8.207827501098804e-08,-8.213750779818756e-08,1.8399858938365492,-1.2086134539823529e-05,1.2047629868549457e-05,2.161970145405039e-06,1.1525674755744599e-08,1.1286009720522898e-08,1.8361193090347574,4.0578146694985605e-23,7.125171805229279e-08,7.239948766537588e-08,0.18907553581821251,0.0,0.0,0.0,-0.029923992532497876,1.053225633635103e-06,-1.0545561537043423e-06,-3.4237697215614624e-08,534.8034212486333,534.8034208199102,534.8036436015359,534.8029644270691
2.808,-7.360082697860255e-08,-7.359075189331035e-08,1.8494732484986391,4.06739440520623e-07,-3.2764099049171663e-07,2.0470926493927867e-06,8.678108108630954e-09,8.432749782828127e-09,1.84606082851475,3.811654836113585e-23,1.803509972534383e-07,1.8177174383956388e-07,0.17804213430490762,0.0,0.0,0.0,-0.018278125074361162,-8.542223073198528e-07,8.438228959357816e-07,-6.989457347617346e-09,535.1216965697218,535.1216932207926,535.1213976090457,535.1219444316927
2.8599999999999994,-6.527541989712506e-08,-6.52291757274613e-08,1.85840532183829,1.217625090309578e-05,-1.2082062959060487e-05,1.7871514398927284e-06,5.7690173165020844e-09,5.520161431685421e-09,1.8554299363987703,3.5796683635891503e-23,1.6187507672568414e-07,1.624803169626169e-07,0.1676003607491725,0.0,0.0,0.0,-0.007136691630329248,-1.236423865753478e-06,1.233106702421651e-06,5.664758594743787e-09,535.4260292612039,535.4260281935827,535.425650659859,535.4264454723715
2.911999999999999,-6.202463066107225e-08,-6.198266507052498e-08,1.8668122358491082,7.5246458132995625e-06,-7.520539955832203e-06,1.554931789609153e-06,2.8721070337520517e-09,2.6218954654724096e-09,1.8642567282345002,3.361110062518583e-23,4.534273661173976e-08,4.513255807422997e-08,0.15773004328555434,0.0,0.0,0.0,0.0034565438666393083,1.0363577249188284e-07,-9.607475433275258e-08,7.749246151645464e-09,535.7152436742573,535.7152461064394,535.7153034519752,535.715239210321
2.9639999999999986,-6.210982940906626e-08,-6.207580995585483e-08,1.8747227172836138,-4.324091237351527e-06,4.272448051610033e-06,1.4036278051249214e-06,2.5309249129075396e-11,-2.24400301250695e-10,1.8725699987400373,3.155266953057744e-23,-1.1490021708395482e-08,-1.162967160761881e-08,0.14839856256076894,0.0,0.0,0.0,0.013568544815888768,1.020283115439765e-06,-1.0135089205079441e-06,5.5407395554761825e-09,535.991182888151,535.9911850661108,535.9915298130285,535.9908759321083
3.0159999999999982,-6.063401375529093e-08,-6.05876425203007e-08,1.8821641381502923,-6.561731751429023e-06,6.557371379329531e-06,1.3216956363739244e-06,-2.7591143051978964e-09,-3.0067773787140627e-09,1.880397267716759,2.961457623302175e-23,3.7132528233750786e-08,3.7460393670608884e-08,0.1395854418645313,0.0,0.0,0.0,0.023169278836460694,3.815376914499203e-07,-3.843456307050443e-07,2.7755980042332817e-09,536.2530416577682,536.2530407554334,536.2531737263488,536.2529276087772
3.067999999999998,-5.649184418217151e-08,-5.643132407215354e-08,1.8891625245311365,1.2913554993890434e-06,-1.2289465897825518e-06,1.280530169493612e-06,-5.467516893030509e-09,-5.71177629844229e-09,1.8877648094167152,2.779031502127449e-23,8.892471720341682e-08,8.91864596018041e-08,0.1312601580218271,0.0,0.0,0.0,0.032322419107032596,-6.253681293537964e-07,6.185751521380463e-07,8.363849245008547e-10,536.5025713413097,536.5025691593933,536.5023733214991,536.5027728783249
3.1199999999999974,-5.2822476561706604e-08,-5.277362244452894e-08,1.8957425860459232,6.2611471255391736e-06,-6.210177110834629e-06,1.256389104644358e-06,-8.076170765557935e-09,-8.315815580667807e-09,1.8946976846965065,2.6073680630337834e-23,6.474332575149995e-08,6.440305093728991e-08,0.12340287639059785,0.0,0.0,0.0,0.041010291909731926,-5.732205607949776e-07,5.726275959743016e-07,-1.1276131269345411e-10,536.7393066357828,536.7393064454055,536.7391222134676,536.7394900996317
3.1720000000000006,-5.1752657565374025e-08,-5.173710576497954e-08,1.9019278379647553,2.0616409342617704e-06,-2.0769159210220657e-06,1.3919551978950216e-06,-1.0562721535146524e-08,-1.0796779582397214e-08,1.9012197753708817,2.4458759735240237e-23,9.322212948851784e-09,8.621541651773938e-09,0.11598663797551749,0.0,0.0,0.0,0.04928053935330008,2.470883440320456e-07,-2.412685738805188e-07,-5.992792295946248e-08,536.9646653061895,536.9646671739017,536.9645406019181,536.9643838757249
3.224,-5.165242169093454e-08,-5.1664397150174226e-08,1.9077407669064015,-3.7893356714434812e-06,3.7486667674725644e-06,1.9181684677097045e-06,-1.2922344781361808e-08,-1.3150180067238446e-08,1.9073538202520386,2.2939922027422686e-23,1.8508598025381376e-09,1.3864925374283618e-09,0.10899820729601888,0.0,0.0,0.0,0.057071226788456116,5.541925643850869e-07,-5.506787852630244e-07,-5.839375416535358e-08,537.1767726717964,537.176773799012,537.1767517558202,537.1763973144301
3.276,-5.008180337723916e-08,-5.0104266507108615e-08,1.9132028099276368,-3.135912997611897e-06,3.1357193199289006e-06,1.9414005727720025e-06,-1.5158307526677633e-08,-1.5379573535999083e-08,1.9131214524257403,2.15118109848789e-23,3.893047233866142e-08,3.879868330074175e-08,0.10240917595994384,0.0,0.0,0.0,0.06445381208181322,5.595632917098194e-08,-5.884751741717653e-08,-1.9446729116044832e-08,537.3776288006251,537.3776278734825,537.3775805967168,537.3775437815567
3.3279999999999994,-4.7213016336691897e-08,-4.724513875738181e-08,1.918333958406836,1.6481231151252997e-06,-1.6108089131959767e-06,1.6628599520372013e-06,-1.7267992042301875e-08,-1.7482510495120954e-08,1.9185432373735498,2.016933443279048e-23,5.8104798945347186e-08,5.788434955887242e-08,0.09619701948308827,0.0,0.0,0.0,0.07145541080956366,-4.013596492913989e-07,3.973338613358202e-07,3.2498800199017016e-09,537.5680736054359,537.5680723149086,537.5679559940316,537.5682120273377
3.379999999999999,-4.49956993673739e-08,-4.5052413259310754e-08,1.9231532966351916,3.2399200791124544e-06,-3.2208088328368774e-06,1.359121001140172e-06,-1.9243315544574257e-08,-1.945102898022995e-08,1.9236387116024525,1.8907654978529455e-23,3.607293866514427e-08,3.5521611794904115e-08,0.09034289979534432,0.0,0.0,0.0,0.07809280932870974,-2.1859185107356967e-07,2.193262083349257e-07,9.788081268948493e-09,537.748574341601,537.7485745769316,537.7485375633124,537.7486778974551
3.4319999999999986,-4.41521887795567e-08,-4.4241326441727064e-08,1.9276786871655154,2.569247925049088e-07,-2.79541263907355e-07,1.1453012620325983e-06,-2.1079599324666013e-08,-2.1280620936460563e-08,1.9284264214894493,1.772218039343154e-23,1.05833536256311e-08,9.959528411169946e-09,0.08482452113405238,0.0,0.0,0.0,0.08440917522658521,2.1819581442833433e-07,-2.142604203759786e-07,8.320191294472312e-09,537.920301790034,537.9203030507583,537.9203999627215,537.9202614231026
3.483999999999998,-4.349676338270741e-08,-4.360879995564976e-08,1.9319271859351894,-2.28716403849936e-06,2.258469062930852e-06,1.4612544027354991e-06,-2.2780388778507377e-08,-2.2975029509018267e-08,1.9329239620899683,1.6608554003527896e-23,1.514854496671922e-08,1.4784680685210723e-08,0.07962888457633394,0.0,0.0,0.0,0.09038164179283041,2.6882523707761563e-07,-2.6738041103450215e-07,-4.728605349924745e-08,538.0827219699295,538.0827224326475,538.0826474310926,538.0824757065961
3.535999999999998,-4.195041561106528e-08,-4.207285855765314e-08,1.9359150694653444,-1.0437575243749442e-06,1.0457539007894833e-06,1.5722555772869558e-06,-2.4351733446535358e-08,-2.454043297309026e-08,1.9371480156956333,1.5562645142339843e-23,3.481089831122078e-08,3.4655116170705963e-08,0.07473959193791282,0.0,0.0,0.0,0.09601552537749011,-5.070618671036401e-08,4.833356522412227e-08,-2.1513803772244167e-08,538.2357569259052,538.235756166269,538.2356676290444,538.2356993383581
3.5879999999999974,-3.997614735186875e-08,-4.010903578499509e-08,1.9396577438571305,1.5164698676083864e-06,-1.496086559932528e-06,1.4066314836294526e-06,-2.5796266865862427e-08,-2.5979503034199927e-08,1.9411143899594738,1.458053971077628e-23,3.7300358506708024e-08,3.7065290338541044e-08,0.07013878879013999,0.0,0.0,0.0,0.10133734564844636,-2.325693282327556e-07,2.3047307603441734e-07,-1.056569293714444e-09,538.3802812329052,538.3802805619337,538.3802032045289,538.3803514158599
3.6400000000000006,-3.863229302771693e-08,-3.878360128618359e-08,1.943169677883583,1.7163120029630543e-06,-1.712925669160868e-06,1.1752900126269985e-06,-2.7113188639942957e-08,-2.729146334699033e-08,1.9448380554355629,1.365853088202517e-23,2.0621611948626297e-08,2.0227980501083034e-08,0.06581068628388352,0.0,0.0,0.0,0.106358728091273,-6.591598486052117e-08,6.702872065974049e-08,6.548891002657347e-09,538.5166303861138,538.5166307421899,538.5166315218568,538.5166740642279
3.692,-3.803951041156072e-08,-3.821047381079996e-08,1.9464645647831829,-1.8065287699557298e-07,1.6086636904035595e-07,9.952351047171418e-07,5.039358830056453e-05,-2.8478771806732092e-08,1.9483331824055796,1.2793109983006395e-23,8.860843134595918e-09,8.508982807613431e-09,0.06173862350851156,0.0,0.0,0.0,0.11110893115892553,1.5102805406349044e-07,0.2085488235607531,6.633994433704008e-09,504.1832535656963,571.0318774794385,504.1833292369589,571.0318531378686
3.7439999999999998,1.3940958363595109e-05,-3.720094435800649e-08,1.949536310313421,-0.0001140528564455326,1.2658514520367403,-1.0072587611926388e-07,0.0029977098333745667,-2.953804374246819e-08,1.9516131768873832,1.1980957578367262e-23,0.00019537457120842372,-1.837508817255866e-08,0.057157897441991554,-0.00011118445826818482,1.0235774420389234,1.0395299014565716e-07,0.12266131068489222,4.2847176376413906e-05,0.45181332120650536,5.083331942021755e-07,461.09611186187703,606.9121763249063,461.1141399424773,606.9015412665161
3.7959999999999994,0.0007411792135353516,4.3297552215115344e-08,1.9523704106039617,-0.0013606139424708432,7.916098645800419,-6.834077422576381e-05,0.012690650955527018,-3.044939038171774e-08,1.9546907157405122,1.1218934778083459e-23,0.02309622879308209,2.623383567930782e-06,0.055730784338459294,-0.0006618172123196918,2.917285760499248,8.939574524151681e-06,0.13951616002301667,0.00032332460433484524,-0.13393595766153976,1.7453029532015495e-05,560.3238565264377,517.6031988219053,560.4802072388965,517.5571867208014
3.847999999999999,0.00503246551766051,7.639449485419754e-07,1.9547236510151045,-0.003996889169487927,16.473368425984752,-0.0003319758608628933,0.029904938423045906,-3.076569817282962e-08,1.9575777808010437,1.0504074785401015e-23,0.1132135664922185,1.971473307774672e-05,0.072313073807352,-0.0008668520595595016,2.4221970810028095,7.764599501083435e-05,0.24494090592368112,0.000724081702069249,-0.5355032514500877,3.3591874884941346e-05,621.4078314406195,449.26096716300657,621.7073691424754,449.11987848279506
3.8999999999999986,0.016476049024361856,3.203235384290976e-06,1.9560342528489818,-0.005285069334986109,19.461726499700944,-0.00018415799129699572,0.054320430117162186,-2.7047872826488127e-08,1.9602856919935125,9.833574698064368e-24,0.26469741817545744,5.548772928656647e-05,0.11069189076501951,-0.00010349106025563913,-0.006799599115972313,0.00014423674993392573,0.44286332489313285,0.0008631728515733313,-0.24767803156010895,-3.477220130288724e-05,585.1813396466049,507.3186039500166,585.3268954725916,506.8999438830952
3.951999999999998,0.036450012795618374,7.971009325810588e-06,1.9563730122906946,-0.004611678505064101,16.617394080020553,0.00036955996113556186,0.08526775121305459,-8.65143338979898e-09,1.9628251393810066,9.204787572461002e-24,0.42700201204243393,9.599723184759448e-05,0.13246957883846583,0.00019513078953866306,-1.2848227980580693,4.092734019774059e-05,0.5909699334562074,0.0010236734002605312,0.2295596247090423,-5.150284669315667e-05,514.3259500535084,586.5168289196093,514.4858700329218,586.0553708168151
4.003999999999998,0.06385441876047569,1.4919414757736133e-05,1.9565129300524693,-0.004943703537879757,13.993560362847624,0.0004826787021332686,0.1219110945806235,4.366658948970863e-08,1.965206214126203,8.615214757425747e-24,0.5587528585401493,0.0001328902388457393,0.14508442992148127,-0.0003848992472823029,-0.40516459345443884,-6.882395405454248e-05,0.6133836964191146,0.0015200171012909837,0.24876608623714808,-8.232018671169577e-06,511.5782180462059,589.8929361527304,512.0605965043779,589.4231977411705
4.055999999999997,0.09749105455923082,2.4196424780147333e-05,1.9570196685584889,-0.006670533286610416,14.930133213505856,0.00019666807598822607,0.1634312711436364,1.5671646042557507e-07,1.9674384383462322,8.062498501941718e-24,0.6683341387505123,0.0001752999108927122,0.18940891579798508,-0.0004905117645463976,0.6627012856742328,-3.197644585909471e-05,0.5819243366969833,0.0020896231056835093,-0.09354414052600209,1.9800074147804643e-05,565.3597722791992,536.7604344607811,566.0602863335657,536.1566538632286
4.1080000000000005,0.1375606994644241,3.6302889995169e-05,1.9578327783366847,-0.0028779424949094746,16.525148027795886,0.00015683931962623616,0.20910283197847498,3.6499427628850634e-07,1.969530793853009,7.544414838808624e-24,0.7854821355915536,0.0002341792781818851,0.24982046384926998,0.0020386735733296355,0.24125637042706302,8.28588317846152e-05,0.5733082683923829,0.0015643502173535466,-0.25087557755926315,-2.739140831586645e-05,588.7857933361977,510.63029645887406,589.1584921221572,510.0039291456262
4.16,0.18457710063001256,4.966718025498223e-05,1.9587853999934521,0.0004627411550800504,15.148966502841313,0.0004160181469662716,0.25830690970790887,7.110615876676613e-07,1.9714917497781905,7.05886674448619e-24,0.9173162525040345,0.00025121094861132185,0.27298542154402283,0.00014534156897551588,-0.9102861410659333,7.35111228973777e-05,0.5618478752718663,0.002029644596156171,-0.03524853487638516,-3.4905296775861134e-05,555.9757635990806,545.5823674742145,556.4898591248108,544.8238196462645
4.212,0.23782435674440147,6.280848797142227e-05,1.960030654650923,-0.0022563762311374183,11.67060522436724,0.0006487055423762321,0.3105148445020051,1.2343924355187384e-06,1.973329289088361,6.603877573725952e-24,1.0359154063628304,0.00023399019457849066,0.24764519762589435,-0.0013089225075001271,-1.1594289265079574,6.0420881504921115e-05,0.49856422176166265,0.0029344260850449003,0.19546268145586587,-5.4649933944552335e-05,517.0890345197649,579.4470368378252,517.873184606242,578.401009109667
4.263999999999999,0.2956467098857683,7.677982386275611e-05,1.961788254586067,-0.004325921102857123,9.480966275767772,0.0009435349290109954,0.3653039606678664,1.969274259556756e-06,1.9750509340015103,6.177584766251404e-24,1.1183691562738958,0.0002464867616588402,0.22714834972654113,-8.739913514322093e-06,-0.38283773898576967,4.673449923264214e-05,0.39689667560587155,0.0032750724372275866,0.13401898540060797,-5.928425402131875e-05,524.3528686956251,567.6834426833279,525.221818637914,566.4971348082207
4.315999999999999,0.3569042369576781,9.24227910466227e-05,1.964022410893936,-0.0006477081142096245,9.535606760581324,0.0010878523440377521,0.42231589521490714,2.9445225479661276e-06,1.9766637703204906,5.778233821603087e-24,1.1791094008284708,0.000282059647350711,0.24334692677957034,0.001926096822805389,0.179716816051705,4.838442078414024e-05,0.302927943590861,0.0029664162691196774,-0.06953751697442523,-5.9483996605969035e-05,554.3729795402637,533.2781558214931,555.0984771909975,532.1144168571176
4.3679999999999986,0.4214360332169569,0.00010812542685671938,1.966496562793814,0.00566132335880654,9.646780343003213,0.001216547956886729,0.4812461188491228,4.19029642025661e-06,1.978174470702985,5.4041725373116275e-24,1.2406021490795482,0.0002856534008433612,0.26096314294980705,0.001912346321853065,-0.16047762765876136,3.877711159058135e-05,0.23791698721363105,0.0027114660407947513,-0.10466405782038433,-5.8772820854484874e-05,558.1433651425368,525.7241996905262,558.7876752270195,524.6299306053312
4.419999999999998,0.48915984541245344,0.0001211392876298212,1.9690190534336065,0.008533478053878924,8.106131540050226,0.001128715825737923,0.5418470128188979,5.732454900047138e-06,1.979589316890707,5.0538455047731706e-24,1.3037427011580993,0.0002290148193330659,0.23897523695577783,0.00024704726330173504,-0.7112538242101425,5.366630044020553e-05,0.18857684345799955,0.002967971641797058,0.032367782393836766,-3.789471465800802e-05,535.1491601195835,546.4093092146098,535.9748166431241,545.345471961253
4.471999999999998,0.5593306837607774,0.00013016875413633403,1.9715193238964472,0.0069297573004237336,5.934900944485807,0.0011159575202309986,0.6039076224953434,7.5774016924486635e-06,1.9809142209231427,4.725788856559713e-24,1.3506068925505752,0.00014191151342080703,0.19226821001478495,-0.0008643621216030262,-0.6430420844501354,0.0001279767054220685,0.1443214385896571,0.0034345946945830625,0.13014401480094873,-6.616597526482016e-05,517.8921790771462,560.5803561045495,518.8006925031958,559.3073490996106
4.523999999999997,0.6309423662552694,0.00013578021309560513,1.9739509043226273,-0.014172680051502727,4.903571393945797,0.0011577779204353855,0.6672523719900408,9.81957987255454e-05,1.9821547453632269,4.418625258383639e-24,1.375848635448373,3.5216708255373576e-05,0.16486253004311938,-0.025182757492973218,-0.13646673906596765,-0.000233196579949942,0.10949445702008401,-0.056215025032165473,0.06457034734331878,2.6600249424377253e-05,537.218222386312,539.8917393584672,518.9663647508788,557.6333112964817
4.5760000000000005,0.7034730334061265,0.00015848081540330714,1.9762391168893294,-0.4625175687165434,5.012649003373908,-0.004416111794607912,0.7317158943497704,0.0008348266586190314,1.9833161225639442,4.1310591385354046e-24,1.3925697512127861,4.590070663829204e-05,0.16434855916562102,-0.254414162291659,0.07812724921357786,-0.002566942056785145,0.08992685600990885,-0.027682241366857818,-0.0399165084337678,0.0010039496509949158,547.1138075749179,525.3908345120196,541.7222651376507,537.8163793179249
4.628,0.7769010858114879,0.0004042176948185477,1.9783135233583655,-1.5195248956121947,4.861123056416418,-0.007128986753706774,0.7971459806757886,0.002489663231932499,1.9844032730060808,3.861872147311988e-24,1.4106387346573843,0.004668745177243283,0.15950450799009724,-0.37836298076522773,-0.1774909346758457,-0.0014180780925998452,0.08403045971579753,0.05368996476692568,-0.038090154145930685,-0.0006963789188679825,536.5928124528455,541.5794859894945,551.2625088457735,521.783697147144
4.68,0.8511256090402681,0.001320994147995143,1.9801386866886517,-2.321104320782348,3.848793469757713,0.024604505804586018,0.8634352650395936,0.005067035931467996,1.9854208227382177,3.609918838737954e-24,1.426132689554023,0.01911474878245354,0.13264119118093806,-0.16038795123347677,-0.407992831804704,-0.002553939635967404,0.0874233100886242,0.06195717779945821,0.05476544139812125,-0.004539141301784498,526.9052603529917,563.7887395129893,531.4025786149532,529.0652701336455
4.731999999999999,0.9257000260578226,0.0032490830751618683,1.9817126299726662,-2.2770535940908183,2.820481672311405,0.0453079677213043,0.9305057077183133,0.008495172510254442,1.9863731199506143,3.374122566741204e-24,1.4311263595167898,0.04008167991014733,0.10221411970554176,0.11135198400882133,-0.25472417367870837,-0.010715247430070577,0.09561892878767828,0.00045290825804365775,0.0872803421959695,-0.0014799096016256234,526.5667230794621,554.5357363431079,521.5538289113518,549.4939260267973
4.783999999999999,1.0001700183945488,0.006170326330117732,1.9830560067910712,-1.8578780272414328,2.5956284763210427,0.016315008103351302,0.9982746025165857,0.012687746202626134,1.9872642507149523,3.1534715878690614e-24,1.4277267818487656,0.05950575288443072,0.09068225631706602,0.12043617840739755,0.03229436347058742,-0.01235466045507861,0.10576488903444968,-0.037083632040719176,0.024700882466256346,0.002768257107208194,535.7766441246351,531.7789794957615,533.287739073401,552.892321336256
4.8359999999999985,1.0744186381740566,0.009897359361199353,1.9841987034874833,-1.797619049646774,2.859311827593829,-0.017763756490054055,1.0666790426762138,0.017564204076553114,1.9880980539219766,2.947015362610923e-24,1.4237982893004917,0.0749131802422554,0.09355248663000724,-0.04993923633566798,0.08522416914888961,-0.005597539128855397,0.11619426178259185,-0.009124431158026696,-0.022970809593819978,0.0026302033808440076,539.4542878919879,529.1023207844469,545.4187453504971,541.026281244677
4.887999999999998,1.148546459678772,0.014383120211223933,1.9851701752551691,-2.097219038405184,2.839430420212562,-0.020791882482447486,1.1356565871189914,0.0230514207967177,1.9888781354489644,2.7538610474214187e-24,1.4222018776448075,0.08988423131284515,0.09189657510128932,-0.10622188088312923,-0.08088406809730526,0.0010185071049585704,0.12678755208071493,0.03174685786355743,-0.00021000739401323752,-0.0003778389701712693,534.6528282712349,544.7227366005894,543.5199589383018,533.2916408282341
4.939999999999998,1.2225467449077265,0.019732513348844054,1.9859944455947742,-2.1542523521651735,2.3962624702944453,0.00225917849531157,1.205160711760248,0.028895474121827976,1.989607881588678,2.5731701696067083e-24,1.4194240387219232,0.10704099769145974,0.07939980701281936,0.08231634507165926,-0.1646737454866042,0.0021957896684703126,0.13744305922722957,0.09029172873143436,0.05242695204163378,-0.00228418060044702,520.0868809345496,565.4012085666965,541.5339978083539,529.3476461641059
4.991999999999997,1.2962397319792458,0.02593742387834369,1.9866978950405902,-1.224960741676906,2.1092829789144623,0.017509514220073828,1.2751820679661592,0.034442811056088124,1.9902904717710292,2.404155477339564e-24,1.4125488132370034,0.1226742337458715,0.06782601359826246,0.45645691938394545,-0.029316194177257955,0.0015691123488234143,0.1461181509068393,0.011567249464592637,0.05493007999420138,-0.001260476935566292,531.0440088407809,552.2011616665507,530.4586588285291,544.3633343627151
5.0440000000000005,1.369507407557458,0.0325771568956721,1.9873138486119666,0.3253762906188872,2.3155319828336256,0.017057646307388295,1.3456955542237206,0.03938898030501634,1.9909288906081726,2.2460779572007213e-24,1.404336723370546,0.12762864312456282,0.06687526136408706,0.4947428170438476,0.11825541790067409,-0.001511673397739743,0.1519225603166745,-0.07956450765235532,0.006408672918362536,-0.0004442426330409121,552.0428589749232,528.7136018387098,525.0764382893817,552.572189760535
5.096,1.4424375913306038,0.0389747517227243,1.9878633508848318,1.2050522658391287,2.6466827082180804,0.006705880651364037,1.4166400344058014,0.04367175228221663,1.9915259392930844,2.0982440117998085e-24,1.3987635085678682,0.11987176858415143,0.07184817576993476,0.13439216957444983,0.0806578510391201,-0.007336769326838871,0.15685522682600694,-0.055009201651292056,-0.009306944056619852,0.0012069989825741105,548.0456054370251,527.4346875115347,534.6096824458666,549.1437425257968
5.148,1.5151759047046816,0.044733816828146686,1.9883572246675822,1.0423101796821226,2.665602129247736,-0.015311602525654246,1.4879722000188222,0.04732098787504651,1.9920842463810164,1.9600027902042356e-24,1.395648411007191,0.10732637269568752,0.07237121734626341,-0.13672626173383257,-0.039959043910927985,-0.006197231135451984,0.1610630100946113,0.028280877403641956,0.012599279937458793,0.0022745076991598067,529.5259585332309,542.666689200802,546.3148006257221,541.3457122585775
5.199999999999999,1.587740995606893,0.04990584680159571,1.9888080543415492,0.7301562303925219,2.477416918052464,-0.022221334549755094,1.5596471550254387,0.05039823600122142,1.9926062779823963,1.8307436640957792e-24,1.392080087646507,0.09721348365739058,0.06773844509473442,-0.040809796638349605,-0.05794492534349841,0.002065316990172761,0.16378710178755054,0.04845990019227086,0.0387795481272573,0.0003878565801005915,525.2971511798875,553.1765329189179,542.270020038153,539.184968066903
5.251999999999999,1.66006255315381,0.05462517620211371,1.989227325277792,0.9915502705193284,2.465791401319628,-0.007418530555740818,1.6316448989908472,0.05297770244655669,1.9930943473949676,1.7098938427775835e-24,1.3870935348984004,0.08845383736873855,0.06587156348369037,0.15991576209000105,0.03816680556194317,0.005756269036022572,0.1654618958205954,-0.004085137044963161,0.023161284296069465,-0.0014039571908564664,539.4511922671425,545.5109583296298,533.3545663640027,542.0863445567106
5.3039999999999985,1.7321392375587474,0.05879619389864815,1.9896191144047477,1.4999728255991958,2.682914819146076,0.007980308252447195,1.7038822464979433,0.055129100638967574,1.993550624202074,1.5969161203672576e-24,1.382758192754356,0.07652984000602359,0.06970367140739167,0.13937994754839075,0.07849607219621138,0.0012081236299601114,0.16723275756392575,-0.043090991018549865,0.006169178954767068,-0.0010971229931238252,547.8580113757433,536.1186941570834,530.3642213970555,546.1353160690352
5.355999999999998,1.8040647422696179,0.06221718713158151,1.9899835120169798,1.5668148981506336,2.8376376354628543,0.005250752622948675,1.7763306735908069,0.05691866155010006,1.9939771428631214,1.4913067487312462e-24,1.3804365156666907,0.06139171727139057,0.07341636060004761,-0.0616259947816004,0.027176978764295822,-0.004142240960016072,0.16901804095126166,-0.01620730165307545,0.009178390047913432,0.0006771324684656135,540.1908566462778,537.94389936749,537.3041392570088,545.385136279488
5.407999999999998,1.8759108660711592,0.06486714319644996,1.9903251407372493,1.1663495847054308,2.816338666445023,-0.006805650153348191,1.848963012964189,0.05840215686871774,1.9943758108213354,1.3925934299398533e-24,1.3791083007719664,0.047394402143137594,0.0734362628397152,-0.15411907079981912,-0.021523400980636383,-0.0027978865081937005,0.16984655513761865,0.02740816523071659,0.024927893989863375,0.0010087082414946356,530.0888647463282,546.8380834690275,542.3357530714313,541.5470807131745
5.459999999999997,1.9476756538131061,0.06692445065008118,1.990651541192558,0.8574082300362952,2.7699830858462455,-0.007828864207475947,1.9217534493476685,0.05962573285819548,1.9947484161530291,1.3003334222491074e-24,1.3774219908657366,0.037169921604742986,0.07228598702590099,-0.05231545184984412,-0.0026730638137554405,0.001651572983831433,0.16956560315961738,0.026808350132834283,0.02830161851026744,-0.0001970299479758941,531.7066153813477,549.2773807678312,539.6583714840227,540.1349966754591
5.5120000000000005,2.019343965804081,0.0685362204318017,1.9909663506092907,0.918948119051446,2.8542343510094956,0.0011070767557058326,1.994682195225513,0.0606277035981903,1.9950966347816597,1.2141117538434852e-24,1.3755899005029757,0.028833122961640534,0.07381572466363175,0.05554148763164697,0.04562136762754207,0.00249785640354222,0.1690254002807182,-0.0066687161883227306,0.016592300898563006,-0.000897617942323279,540.1513606573847,543.308078058038,534.961329914183,542.4025826679112
5.564,2.0909527179578804,0.06969493789844992,1.991268235015755,1.0525965861473165,2.9983737884065316,0.006210728448941995,2.0677106068037125,0.06144028109441292,1.9954220372790439,1.1335395388009275e-24,1.3747798142440084,0.019725585437383533,0.07711525627830469,0.018046950915364894,0.04139629149093576,-0.0004533432142720302,0.16872061386613682,-0.020395235826769432,0.013099033215408706,-0.00031814435239392217,541.906613117923,539.5814418977702,534.2943680343604,544.9901938031559
5.616,2.1625647729703634,0.07035760341997578,1.9915556645899721,0.9160014624435081,3.0579439452628527,0.0018096875626492513,2.1408258565451193,0.06209052002986177,1.995726095275197,1.058252389967157e-24,1.3751334765016592,0.010252917022831673,0.07870031019142061,-0.08585253074870017,0.0053966020906938295,-0.0023226385863330816,0.1685231336324214,0.00037264425468815435,0.017984746101252357,0.0004654975436108609,536.4735065427653,542.3381967218472,538.1765589561007,543.7867600821322
5.667999999999999,2.2342086710106788,0.0705906997632347,1.9918291712079383,0.6000736934667589,3.0324012343967883,-0.0034150641375391166,2.2139983845662177,0.06259991931409693,1.9960101874973404,9.879089236495315e-25,1.375794680615338,0.002748548190966091,0.0781234198325887,-0.10276450216596947,-0.01584894067102067,-0.0008473999959169816,0.16814347107110408,0.02065594488729778,0.02140136828398427,0.0003235693556628218,532.8865220977559,546.3178089691131,540.6200489495745,540.8576045372143
5.719999999999999,2.3058746970597177,0.07053719466600235,1.9920898995513558,0.4174782378657952,3.0028435545132255,-0.0021655624778191183,2.287208059915556,0.06298593267472748,1.9962756054577542,9.221893512598838e-25,1.3761220477185752,-0.0020585731856463158,0.07711894653881528,-0.02788409685115592,0.0003980276690188949,0.001256569226183425,0.1676615891239355,0.013936085761745754,0.024895827712472715,-0.00030065336528955106,534.4630763807107,546.8402373081199,537.9170458712399,541.4166938008004
5.7719999999999985,2.3775511103384015,0.07028595998415847,1.9923377360171712,0.4447438172309664,3.0405194949526977,0.0023966728436959216,2.360420147973559,0.06326299402498763,1.9965235588092773,8.607941532510591e-25,1.3763343443929785,-0.005751206191166739,0.07771387124146045,0.023126260289438757,0.01712697768615008,0.0012052132449893648,0.1673329502543528,-0.005369215504483896,0.014946740620665793,-0.00046749891459576566,539.43250146151,542.4834827400593,536.1229779347437,542.6138275888807
5.823999999999998,2.449252389350997,0.0698363221033567,1.992571613030336,0.46769853655649013,3.0899188850991965,0.003590779193344036,2.433640578126102,0.06344302614601817,1.9967551803864023,8.034428309020703e-25,1.3769325823419234,-0.009722672635198482,0.07870571378737837,-0.011909012127899332,0.015875747832604536,-0.000400329174840435,0.16725308753174337,-0.0077545064078200065,0.01784839341570168,-0.00010002712251861808,538.7247990193927,541.9439816354097,535.8975021678293,544.0681967172404
5.875999999999998,2.521000373002275,0.06918533710741581,1.9927910475099115,0.33460546906364225,3.131646213455972,0.001100682097427852,2.5068833071402645,0.06353576723454196,1.996971530949093,7.498727317116671e-25,1.3779427836686826,-0.01342764043461793,0.079516223660554,-0.061887947189569734,0.01215496818017836,-0.001064419718705926,0.16730542371801607,0.006315130405782172,0.013915706059388026,0.0001620856550285588,536.6562880044946,543.1137572220362,539.2300408251499,541.6535648913118
5.928000000000001,2.5928124979381635,0.06839326254249904,1.9929963786897091,0.15172533638915017,3.136664359267189,-0.0007165968623150333,2.580118800817823,0.06354964605787335,1.9971736036456418,6.998379443592383e-25,1.379256584811614,-0.01566318425238834,0.07950616073828351,-0.051710342698395875,-0.004502357186630314,-0.0001827628225310438,0.1674195704399279,0.014601046368770229,0.021815772959714166,1.5069509176528737e-05,534.30588552562,545.9247927735793,539.0455806202284,541.3471179191795
5.98,2.664690730962939,0.06754181205283094,1.9931881981496704,0.08388785362820812,3.1178957882211895,0.0004909471579163826,2.6533477628458355,0.06349152619130233,1.9973623282101156,6.531082593850699e-25,1.3804999390761143,-0.016477364084423997,0.07884212537241443,-0.003012434768995078,-0.004861251510026614,0.00069743631930374,0.16758423546375706,0.007069602634796325,0.017538021691793842,-0.00025040955325508513,536.6636627744734,544.5079741465594,538.0789844828348,541.4212284443959
6.032,2.7366266949324194,0.06666488937334063,1.9933670766020286,0.1197750845118431,3.123155862565574,0.0023121779767146747,2.7265650950177043,0.06336749597572543,1.9975385749091648,6.09468191928737e-25,1.3815805367703222,-0.016988558707042488,0.0787207543442496,0.014982551902639385,0.006603499994238131,0.0003914620533993117,0.16780853601477583,-0.002713241594322716,0.015622044393821366,-0.00023647416299697342,538.521105055693,542.6361716799317,536.8476161043591,542.7012447208123
6.084,2.8086215466860804,0.06575121225539113,1.9935335932849576,0.12389709235730202,3.1517974358165093,0.002070041035178911,2.7997628212811136,0.06318312868625096,1.9977031582522629,5.687160630449397e-25,1.3827612651843115,-0.017787922128575984,0.07924597662789898,-0.011160525068899552,0.008259553779319249,-0.00040789968308302654,0.1680813324333166,-0.0011765587693825324,0.01508317968292175,-2.5400940921712338e-05,538.0104004411165,542.4464253791532,537.547047749662,542.7345269321413
6.135999999999999,2.880685683936084,0.0648004907256858,1.9936883621539332,0.04452363349622664,3.15989699175029,0.00044892857658681537,2.8729429622369738,0.06294329865871497,1.9978568404787265,5.3066313628989575e-25,1.3841492742225234,-0.01838380228850168,0.07933298098959962,-0.03297145559753954,-0.0011934999159699587,-0.0005101628328362534,0.16840050347767782,0.007129172886554046,0.016391710388696242,5.668802574326113e-05,536.3372933645965,543.8420658845383,538.8153753230969,541.7696496130409
6.187999999999999,2.952821846552474,0.06384668290582195,1.9938322166950317,-0.03563917434169618,3.1423675203489707,-7.241092514323615e-05,2.9460897552846146,0.06265257878719996,1.998000334834198,4.951328064388523e-25,1.3855298511319223,-0.018208111596983996,0.07880825665884927,-0.018412381039748543,-0.009760139257393614,8.145394904669527e-05,0.16869110374471932,0.009488955080666267,0.020412520910988167,-8.016473913481042e-05,535.5528009474612,545.0893338129727,538.3252903231182,541.8107955236128
6.239999999999998,3.0250209502779466,0.06292467346145483,1.9939661320776172,-0.04129742503425406,3.111786596816292,0.0009169230160341856,3.0192001663264714,0.06231502924995188,1.9981343086486136,4.619598373560991e-25,1.3866729660946653,-0.017499421775267317,0.07792479421931517,0.007940209785303153,-0.007866316335724226,0.0004004793853415804,0.1689567654614038,0.003924914772537815,0.015409937464679432,-0.000193969445303534,537.4509219937611,543.6150047157539,538.0493582705409,541.7152745256828
6.291999999999998,3.0972689179145734,0.06203814914584927,1.9940909482075793,-0.004820307124625689,3.0979277188100265,0.001675560482932524,3.0922630835431955,0.06193464098616695,1.9982593862270763,4.309896461932176e-25,1.3875617587807898,-0.016895547166972728,0.07745687172994722,0.010969817172879981,-0.004051966007013989,8.856753470923894e-05,0.1692007305582349,-0.00040628636761960626,0.019604903956396916,-0.00013764604196445213,537.3836173186365,543.505270010465,536.7848008960015,543.1710623721298
6.343999999999998,3.169557985867383,0.06117212437176885,1.9942074209009515,-0.0013095564295084177,3.096538132971046,0.001172357995638033,3.1652902141003887,0.06151502089973651,1.9983761515644256,4.0207763123921297e-25,1.3883277267135232,-0.01656797450084612,0.07727085597090912,-0.00619477334758666,0.0023492120350123097,-0.0003015287240193035,0.16942051691334656,0.001931947308991748,0.018002807803754576,-2.1804946777789994e-05,537.0744641596083,543.4330842812595,537.6198601839247,542.7466768498359
6.395999999999997,3.241886671300441,0.06032437885335051,1.9943162212941072,-0.03878623882036669,3.107809645031306,0.00028997788419768124,3.238284997908547,0.06105967778089121,1.9984851508937587,3.750885408877653e-25,1.3891058659607107,-0.01615567182757914,0.07743114733439653,-0.014065204132870629,0.0032458942431150247,-0.00022169012564215448,0.16962439146734518,0.006298538943190272,0.01878243222261131,-1.372936497800854e-05,536.2400174389522,544.2403355322361,538.2136785702629,542.1960461439617
