Time_s,X,Y,Z,Roll_deg,Pitch_deg,Yaw_deg,Ref_X,Ref_Y,Ref_Z,Ref_Yaw,vx,vy,vz,p,q,r,T_pert,tau_x,tau_y,tau_z,RPM_0,RPM_1,RPM_2,RPM_3
0.0519999999999996,2.9102930597264804e-22,4.0,0.010054998081898055,-1.3931583648564343e-17,-3.34505924057577e-19,8.092100058636651e-12,1.4894270409911578e-22,4.0,0.016216050707931907,7.190026546353704e-22,-3.7826582460950064e-20,-2.383735342305292e-22,0.000999990310418357,0.0,0.0,0.0,1.9189653335863468,1.1827260127865804e-18,4.699416913946903e-18,-9.45285162456466e-12,585.6698475750825,585.6698475750826,585.66984754558,585.66984754558
0.1039999999999992,7.486228326728109e-20,4.0,0.011056938772985593,1.2511125961034131e-14,4.863590784424208e-16,3.673307009834565e-05,1.4770069996864642e-22,4.0,0.032758437754563774,7.130070318737395e-22,4.2402662558284645e-18,9.738311396523693e-18,0.050711321735959734,0.0,0.0,0.0,3.43258958702023,-2.4332245262338507e-15,1.221778484383459e-16,-6.379734111975058e-06,622.3232299628229,622.3232299628223,622.3044911416443,622.304491141645
0.1559999999999988,-1.0475490366868829e-19,4.0,0.018209119830548865,3.596310273509496e-14,-9.978545237971749e-15,7.024116853775236e-05,1.4580284377876157e-22,4.0,0.05803618915790014,7.038453636544268e-22,6.73556691086051e-18,1.195394709441914e-16,0.2044364834022785,0.0,0.0,0.0,3.9933647191135764,-4.951186594940461e-15,2.5180699890326036e-15,-3.7967938580067807e-06,635.3590627378799,635.3590627378793,635.3481395177885,635.3481395177904
0.2079999999999984,-6.663323220391431e-18,4.0,0.03464958147967386,6.056119864998431e-14,-1.8901437914790773e-14,6.080175779837297e-05,1.4335514179321913e-22,4.0,0.09063739605111035,6.920293822271651e-22,-8.439784999019935e-17,4.0567604811485903e-16,0.39403231369566083,0.0,0.0,0.0,4.02138955041905,-5.675000389783281e-15,2.3077956094112847e-15,-6.337785340917011e-07,635.9991608481131,635.9991608481123,635.9973393414381,635.9973393414404
0.259999999999998,-2.331298520307004e-17,4.0,0.06117051881053997,6.582160409143329e-14,5.608950782774413e-15,3.546891165123969e-05,1.4045131622135646e-22,4.0,0.12931376221384347,6.780115200740922e-22,-3.8175200272667886e-16,6.78800887373495e-16,0.5876848098192139,0.0,0.0,0.0,3.7196401227533373,-4.12583354072115e-15,-1.3226868736872747e-15,7.462458981890321e-07,629.021352415058,629.0213524150566,629.0235209427973,629.0235209427981
0.3119999999999976,-3.69593934230557e-17,4.0,0.09738614410837411,5.217511454506143e-14,2.2352681800165317e-14,1.4195997358808453e-05,1.371740588132666e-22,4.0,0.17296390730279548,6.621909614868653e-22,-4.635430664217885e-16,7.169612812010131e-16,0.7674455976563203,0.0,0.0,0.0,3.225541475959118,-2.271533454485674e-15,-2.3112783290205375e-15,8.888308087676767e-07,617.4284351027735,617.4284351027723,617.431066465444,617.4310664654439
0.36400000000000077,-3.7291716264969224e-17,4.0,0.1422333335047579,4.792203430008847e-14,1.9398842817039517e-14,2.34186984083168e-06,1.3359616482530187e-22,4.0,0.2206182634427897,6.449191166461898e-22,-2.269463275384184e-16,7.66190950446084e-16,0.9230546505610974,0.0,0.0,0.0,2.6404903879778017,-3.6775079364131e-15,-7.806079429262069e-16,5.835716960243419e-07,603.4143119778695,603.4143119778684,603.416079753483,603.4160797534839
0.41600000000000037,-2.679032665665711e-17,4.0,0.19427415225934053,5.949340883483894e-14,-6.8584878416050585e-15,-2.072993406326134e-06,1.2978155831156743e-22,4.0,0.27142541925873054,6.265045710908783e-22,3.046629670630587e-16,1.0767909796303752e-15,1.0493246882256888,0.0,0.0,0.0,2.0393820311444273,-5.1101758643916175e-15,2.673876018976774e-15,2.642512641482348e-07,588.668181791026,588.6681817910253,588.6690023227363,588.6690023227387
0.46799999999999997,-1.1388694080821523e-09,3.9999999988611266,0.2519327035461875,0.00015606159063843257,-0.00015604301191698608,-1.4546333258354424e-05,1.2578621872106546e-22,4.0,0.3246397784282443,6.0721755875203255e-22,2.3193205790002725e-06,2.3195792611697757e-06,1.1450856039645454,0.0,0.0,0.0,1.4717171905656006,-4.82591748465554e-05,4.8252014947586895e-05,2.5853262573736393e-06,574.3908447437353,574.3908425956616,574.3845935503547,574.4135478940742
0.5199999999999996,-8.580408477560076e-08,3.999999914185589,0.31366518622580164,0.00032060020910564023,-0.00032061651999073197,-2.8656726655605057e-05,1.2165901788942362e-22,4.0,0.37961041169852133,5.8729400242805815e-22,4.0428820301985734e-06,4.042543160079454e-06,1.2119841733923222,0.0,0.0,0.0,0.965484173230063,-3.5963297798738544e-05,3.597996530570725e-05,1.6130564181236242e-06,561.3573031800263,561.3573082966215,561.3515155474919,561.3736005002273
0.5719999999999992,-3.155178580184215e-07,3.9999996844802532,0.3780657009552196,-0.00012047729231643278,0.00012018973077538107,-2.5049634320542097e-05,1.1744247570131378e-22,4.0,0.4357709921370155,5.66939161652403e-22,-6.375457967690514e-06,-6.380534342640979e-06,1.2531510255293152,0.0,0.0,0.0,0.5344527566353561,3.3172383048276854e-05,-3.312724016047449e-05,3.2542590279263536e-07,550.0172899583284,550.0173041020201,550.0287645545429,550.0079922996308
0.6239999999999988,-4.887551570562763e-07,3.9999995113720193,0.4439040644895976,-0.0004981940830930672,0.0004983010482885552,-1.451977958463925e-05,1.1317344195805487e-22,4.0,0.4926307132632521,5.463309243258633e-22,-1.2569471723278231e-05,-1.256554850477184e-05,1.2722393170374091,0.0,0.0,0.0,0.18346032361939812,4.4262225065795384e-05,-4.432760927661896e-05,-2.7053360012192034e-07,540.6065910041932,540.6065701620997,540.6197852986486,540.5915460536495
0.6759999999999984,-4.375657983530973e-07,3.9999995626241507,0.5101585246538257,-0.0002705769085276003,0.0002715985185782105,-5.227115337096986e-06,1.0888371130833675e-22,4.0,0.549766098720159,5.256227752193081e-22,-4.296147032224279e-06,-4.276052763972202e-06,1.273226607106802,0.0,0.0,0.0,-0.09026889050367948,-7.67165085807727e-06,7.515117632992812e-06,-3.684497965697764e-07,533.1515480894257,533.1514974946513,533.1478052266044,533.152713915772
0.727999999999998,-2.614008118374885e-07,3.999999738413812,0.5760099198395833,0.00017913370593909285,-0.00017847881342312842,3.0288955980677926e-07,1.0460057748288341e-22,4.0,0.6068136203627762,5.049464714736064e-22,6.589601160222151e-06,6.595365702349217e-06,1.2600738714286095,0.0,0.0,0.0,-0.295101576485574,-3.889384678066555e-05,3.888133584369889e-05,-2.641971516750107e-07,527.5036522648053,527.5036481777158,527.4900307091345,527.5154384533589
0.7799999999999976,-1.5522829974151807e-07,3.999999843948842,0.640833948162128,0.00023764281962384393,-0.00023874309696295546,2.6177770276833535e-06,1.0034733251105858e-22,4.0,0.6634630491384107,4.844144525066248e-22,6.494423457077813e-06,6.462967705047517e-06,1.2362811740332962,0.0,0.0,0.0,-0.4409696846094163,-1.1511358953795616e-05,1.17023834050805e-05,-1.3491339936207676e-07,523.4443369837536,523.4443998718159,523.4400761349171,523.4477184476192
0.8319999999999972,-1.498720667257377e-07,3.999999849130677,0.7041736768326448,-6.12913116079213e-05,5.951769245871426e-05,3.062999126990924e-06,9.614371608420074e-23,4.0,0.7194514699678843,4.641220092596677e-22,-8.418123322956146e-07,-8.769459659369236e-07,1.2048964350834481,0.0,0.0,0.0,-0.5389110775372791,2.4999159754924027e-05,-2.48665041088578e-05,-4.43398623666184e-08,520.7010267900583,520.701070692338,520.7091445268562,520.6926415204865
0.8840000000000003,-1.2514931926052097e-07,3.9999998744102867,0.7657122993043457,-0.00021932841682500425,0.0002191708766117034,2.7465082397546757e-06,9.200631976255902e-23,4.0,0.7745578980697334,4.441492354569349e-22,-3.3226683928114403e-06,-3.315555903436532e-06,1.168345684926156,0.0,0.0,0.0,-0.5988369833703493,1.9597544806425792e-05,-1.971215130656481e-05,-1.3156291054271345e-10,519.0154242149687,519.0153861628551,519.0219305667017,519.0088788023834
0.9359999999999999,-1.3724085083805392e-08,3.9999999864682314,0.8252441375276477,-4.217117642522638e-05,4.369084590496338e-05,2.297905214049424e-06,8.794895029616002e-23,4.0,0.8285984398503752,4.245627814924892e-22,1.3226845242561053e-06,1.3597396519210266e-06,1.1286048885719369,0.0,0.0,0.0,-0.6302246435954592,-1.0693295822653795e-05,1.051251313955683e-05,1.3588283297507084e-08,518.1303664193179,518.1303062925871,518.1268578489015,518.1339107138565
0.9879999999999995,1.161361700071245e-07,4.000000116355024,0.882651519427669,0.00016894315220644426,-0.0001680421318263574,7.03009336434175e-07,8.39829559411628e-23,4.0,0.8814219466613622,4.0541742968247834e-22,5.118487906813523e-06,5.133743325645912e-06,1.0871651845340917,0.0,0.0,0.0,-0.6410399255961825,-1.9873709851487023e-05,1.98986788798052e-05,1.7805791190834314e-07,517.8247306493837,517.8247389587642,517.8187454250774,517.8319811624625
1.0399999999999991,1.7809765034916303e-07,4.000000177970327,0.9378809251217831,0.00013589535308512808,-0.00013684451577648893,-8.716051061115053e-08,8.011751929899229e-23,4.0,0.9329061144433597,3.8675750791017098e-22,3.2742330449826945e-06,3.253525595896576e-06,1.0451001890575982,0.0,0.0,0.0,-0.6376656633630291,-9.806439938349426e-07,1.1689371577258386e-06,8.681937033240786e-08,517.920137982726,517.9202006327893,517.9201181068289,517.920833328309
1.0919999999999987,1.8191821073872422e-07,4.000000181809441,0.9909240070591719,-3.637099295546165e-05,3.509838767703187e-05,2.2791955101156378e-07,7.635991988274373e-23,4.0,0.9829539865758713,3.686181571331023e-22,-4.2817784432464674e-07,-4.4632210843174033e-07,1.0031492699717393,0.0,0.0,0.0,-0.6249923274331644,1.4736648875169498e-05,-1.4657022702804338e-05,1.0507864452388187e-08,518.2779702779018,518.2779967533221,518.2829071976909,518.2731339066794
1.1439999999999984,1.9622275952535974e-07,4.000000196640335,1.041802970373687,-8.774152504680704e-05,8.801408463962306e-05,8.694440227197124e-07,7.27157693213075e-23,4.0,1.0314908211681189,3.510264668021679e-22,-9.472503941350179e-07,-9.336092622563452e-07,0.96180983179627,0.0,0.0,0.0,-0.6067464844838968,7.264533174184824e-06,-7.384618742623147e-06,-2.0131693421508896e-08,518.792576755244,518.7925368668213,518.7949188546921,518.7900528940683
1.195999999999998,2.4437212358618966e-07,4.000000245214813,1.0905593259389794,2.14897092270184e-05,-2.0127527970490687e-05,1.382226201441876e-06,6.918922184384597e-23,4.0,1.0784612875935782,3.34002490949647e-22,1.1754495015802393e-06,1.2012646034860392e-06,0.921372444055949,0.0,0.0,0.0,-0.5854284686058446,-8.143293474619167e-06,8.01832488488343e-06,-2.294062906674338e-08,519.3930891063858,519.3930476439796,519.3903065614344,519.3956687063862
1.2479999999999976,2.8457485765909556e-07,4.000000285295851,1.137245669441954,0.00010773618068775088,-0.00010717230069270738,1.6546031907588339e-06,6.578316244337582e-23,4.0,1.1238269603189213,3.1756015652583997e-22,2.084705746040621e-06,2.0892186499286366e-06,0.8820067258626512,0.0,0.0,0.0,-0.562788154451489,-9.261120383261412e-06,9.307158466724503e-06,-1.5495661260838846e-08,520.0300427744841,520.0300580304104,520.0269193832896,520.0330724700552
1.3000000000000007,2.8124372783885756e-07,4.000000281602291,1.1819204233516796,5.9705681390554364e-05,-6.0476467337844606e-05,1.737713511439443e-06,6.24993748961711e-23,4.0,1.167564081035454,3.0170807449215036e-22,6.221980551079406e-07,6.061486141916025e-07,0.8437884508165931,0.0,0.0,0.0,-0.5398859123942077,2.0400160468631477e-06,-1.9088771966509223e-06,-7.515573912334011e-09,520.6735863984597,520.6736298010443,520.674235191027,520.6729282390355
1.3520000000000003,2.519724028629677e-07,4.0000002522658935,1.2246438200508443,-3.1505743597768454e-05,3.075779605779395e-05,1.7167070176804975e-06,5.933869161159384e-23,4.0,1.2096615627930534,2.86450263202781e-22,-9.175316412570067e-07,-9.269034324597761e-07,0.8067320575476064,0.0,0.0,0.0,-0.5172608500242994,8.008070963844263e-06,-7.982625530755075e-06,-2.257996123455143e-09,521.3085972796841,521.3086056910157,521.3112365316578,521.3059505910293
1.404,2.3375091364151175e-07,4.000000234282616,1.2654762290198016,-3.9484182413599223e-05,3.9861365445776766e-05,2.774383420375874e-06,5.63011271030188e-23,4.0,1.250119212286515,2.7178679271927047e-22,-7.579019707388087e-07,-7.491918690805839e-07,0.7708327201602208,0.0,0.0,0.0,-0.4952262645732382,2.05504789740017e-06,-2.1526596523559515e-06,-1.9743522169703961e-07,521.9266468687896,521.9266146401148,521.9266339325395,521.9252446632026
1.4559999999999995,2.3204834116175395e-07,4.000000231798211,1.3044768825896358,3.970019147147418e-05,-4.814048521468178e-06,4.961884733742305e-06,5.338599670317116e-23,4.0,1.2889461486731593,2.577143578942393e-22,2.9671848544076143e-08,3.5805238344817617e-07,0.7360574697876885,0.0,0.0,0.0,-0.4737652844273586,-9.057341356420764e-06,1.1632497947253399e-06,-3.011371217281944e-07,522.5290193619486,522.5264159516934,522.5249788891438,522.5283495677397
1.5079999999999991,2.290778702495421e-07,4.000000214010283,1.3417033808323893,7.38784662988586e-05,-3.2044348446784013e-05,5.4439960637810284e-06,5.05920219949476e-23,4.0,1.3261593993283471,2.4422678732576086e-22,2.3803944150882862e-07,3.3209655601507276e-07,0.7023803713053136,0.0,0.0,0.0,-0.45283849088920863,-5.479735242547215e-06,2.2483026359934295e-06,-1.230126306887759e-07,523.113222140247,523.1121576305253,523.1109871475652,523.1135329466622
1.5599999999999987,2.1300003550594526e-07,4.0000001669979,1.3772118229622883,2.4502565266033163e-06,-3.0118773156665286e-05,4.262517482899013e-06,4.7917424290340096e-23,4.0,1.3617826547896077,2.313154946154127e-22,-5.914840720614753e-08,-9.122183893180773e-07,0.6697695524179261,0.0,0.0,0.0,-0.43227343316277705,4.936838637984793e-06,5.93279012549065e-07,4.481351368904317e-09,523.6860869414089,523.6879066940777,523.68772711045,523.6862978092157
1.6119999999999983,1.8440730781102017e-07,4.000000118775828,1.4110570656800345,-6.126918442603048e-05,-7.863534100737483e-06,2.7894639355033814e-06,4.53600073641902e-23,4.0,1.395845166816836,2.189698777553376e-22,-4.971869352409821e-07,-1.4254283860070818e-06,0.6382076093163318,0.0,0.0,0.0,-0.41196294286795365,6.490021672155473e-06,-1.4050679226653611e-06,4.808183728891543e-08,524.25288488069,524.2545563379288,524.2551858357383,524.2525906694725
1.663999999999998,1.5243254445270278e-07,4.000000095606897,1.4432931720662405,-3.5640371842291676e-05,6.117518861189005e-06,1.7199047544402934e-06,4.291723053506336e-23,4.0,1.4283807750202402,2.0717767191721092e-22,-6.613908993800884e-07,-6.795022395449154e-07,0.6076784698463565,0.0,0.0,0.0,-0.39177801682083563,-8.815985102389125e-07,-1.141622631286369e-06,4.4982062880875234e-08,524.8167474904368,524.8160831575859,524.8166146823608,524.8165293024136
1.7159999999999975,1.2314379773414591e-07,4.000000088045024,1.473973471395287,2.5527167083602526e-05,9.115938075682541e-07,1.1551205099300563e-06,4.058627308153374e-23,4.0,1.4594270488928942,1.9592526041396196e-22,-5.60829364865031e-07,6.277868547861469e-08,0.57817308394763,0.0,0.0,0.0,-0.3716377629300785,-5.465713874706594e-06,5.078896567491421e-07,2.745938240452938e-08,525.3781022434883,525.3764760597498,525.3764050063928,525.3783643689537
1.7680000000000007,9.480009508879956e-08,4.000000071328884,1.5031515210621578,3.344111881700308e-05,-7.3488660575812044e-06,9.460071357348271e-07,3.8364090887679284e-23,4.0,1.489024533343274,1.8519794814896137e-22,-4.907156007751338e-07,-1.1359753501122884e-07,0.5497012660922125,0.0,0.0,0.0,-0.3516234702085749,-1.7762368098039374e-06,1.0335076707494565e-06,1.1886016987286955e-08,525.9341811115443,525.9339377516823,525.9336404261634,525.9345610564981
1.8200000000000003,6.413709086730406e-08,4.000000041445583,1.5308808766787014,-9.865783822299009e-06,-3.0104048377083754e-06,9.153562369528875e-07,2.8442448075037683e-10,4.0,1.517216086966273,1.7498020145307494e-22,-5.723303044802402e-07,-6.584065834451857e-07,0.5222530743625973,0.0,0.0,0.0,-0.33166642848318073,3.3812008210397557e-06,2.5529890356794063e-08,2.600670491927582e-09,526.4880824282885,526.4891974891835,526.4891981620866,526.4880998136454
1.8719999999999999,3.2851491026961795e-08,4.000000015570604,1.5572140422548568,-3.5591257069764874e-05,8.767701188132699e-06,9.434060018989867e-07,9.112498884923193e-10,4.0,1.5440463033292375,1.6525585783375233e-22,-6.512302186576325e-07,-6.927889673302065e-07,0.49581130780869564,0.0,0.0,0.0,-0.3116731936525552,2.9390370572215976e-06,-9.134615989125335e-07,-1.3365899879313797e-09,527.0433006510222,527.0439629462733,527.0442569817731,527.0429973438878
1.9239999999999995,5.719420681107007e-09,4.000000004502851,1.5822039891085,-1.342467158981318e-05,1.286621383305395e-05,9.705480487541254e-07,1.6554597349395901e-09,4.0,1.5695610064918089,1.5600830881881614e-22,-5.804725462507336e-07,-2.5308176233405844e-07,0.47039258813382095,0.0,0.0,0.0,-0.2918340907163911,-1.311703680809242e-06,-4.843448472703761e-07,-2.083522469370326e-09,527.5940558589912,527.5934692236826,527.5936202046267,527.5938904411508
1.975999999999999,-1.548488760919287e-08,3.9999999996675606,1.605903589298553,1.6696137662372154e-05,6.802051903163967e-06,9.786685455382907e-07,2.342401713125145e-09,4.0,1.5938068128335625,1.4722065876765145e-22,-4.282261265345119e-07,1.5605178305087834e-09,0.44598552223199156,0.0,0.0,0.0,-0.2721596113427448,-2.865991596643373e-06,4.5275276092628075e-07,-1.5628451205197505e-09,528.1391539332567,528.1383665212212,528.1382133840727,528.1392962521413
2.0279999999999987,-3.317772114842549e-08,3.999999988665199,1.6283653843005568,1.3279426885775006e-05,1.5667605237051558e-06,9.69523322678134e-07,2.8486007268939744e-09,4.0,1.6168307520392282,1.3887586224132375e-22,-3.402951564294121e-07,-1.6679713522059742e-07,0.4225899642006178,0.0,0.0,0.0,-0.2527895932990454,-2.8754675112556e-07,5.374621843044819e-07,-8.505199795000593e-10,528.6747341820446,528.6748156438954,528.6746375132996,528.6749064312856
2.0799999999999983,-4.959415047575856e-08,3.999999972429291,1.6496413554172338,-1.1270340121508615e-05,4.0702063861046404e-06,9.502931916977466e-07,3.0952150108921328e-09,4.0,1.6386799407948835,1.309568422681299e-22,-3.3090336809827183e-07,-3.7120774651463803e-07,0.4001820835085737,0.0,0.0,0.0,-0.23368227936268246,2.0635691601991433e-06,-1.3331207334802341e-07,-3.384692684137784e-10,529.2026740813204,529.2033026354042,529.2033448770113,529.202629501488
2.131999999999998,-6.386141430351983e-08,3.9999999608382,1.6697823210189482,-1.9642733291878065e-05,8.994980853856465e-06,9.271227315231369e-07,3.0217759437672084e-09,4.0,1.6594013033864405,1.2344659160988243e-22,-3.0447738477814553e-07,-2.851597325778488e-07,0.3787484695788971,0.0,0.0,0.0,-0.21491407676744567,1.1588925939687704e-06,-4.918791756019174e-07,-7.89658960910502e-11,529.7212063723216,529.7214233609162,529.7215831034035,529.7210460847521
2.1839999999999975,-7.403386322640314e-08,3.999999957554133,1.6888385996281112,-4.4673139691800374e-06,8.787298578078454e-06,9.035935531640235e-07,2.5917457907282336e-09,4.0,1.6790413339698904,1.1632825892468285e-22,-2.1696653372510373e-07,-5.806770036128741e-08,0.3582744163863275,0.0,0.0,0.0,-0.19655683597975487,-1.0434800083388673e-06,-1.327789267477048e-07,5.779215937031721e-12,530.2279929957846,530.2276107081732,530.2276538816515,530.2279498621799
2.2360000000000007,-8.019690372186595e-08,3.9999999565426547,1.706859243121438,9.036288037218515e-06,4.257087069398659e-06,8.811253872393314e-07,1.7985003668649906e-09,4.0,1.6976458958065503,1.0958522153209774e-22,-1.2324627862881274e-07,1.2515477425155155e-08,0.3387329167333793,0.0,0.0,0.0,-0.1786101820039399,-1.351334941858647e-06,3.0906367979825946e-07,5.713055900346843e-12,530.7226626008049,530.7223241753251,530.7222238419829,530.7227629734172
2.2880000000000003,-8.424587085175929e-08,3.999999952125813,1.7238920216680675,3.799820104913083e-06,1.579523002269185e-06,8.599457075266948e-07,6.609160352161424e-10,4.0,1.715260053230921,1.0320114631472984e-22,-7.884250064503883e-08,-8.53589602693583e-08,0.3201038110715321,0.0,0.0,0.0,-0.16114080128354752,1.9570933832412592e-07,2.397267594495734e-07,-2.0608039082417387e-11,531.2035160407664,531.2036572988192,531.2035794591284,531.2035937386408
2.34,-8.732609776464005e-08,3.9999999462571303,1.739984028562203,-1.4186361444700155e-05,8.707266068143395e-06,1.2642326933909144e-06,-7.886836844298798e-10,4.0,1.731927932548186,9.716004013452705e-23,-8.618969233942987e-08,-1.5866381746309837e-07,0.3023704063554208,0.0,0.0,0.0,-0.14424770170415133,2.6301093606314123e-06,-1.6424266516694294e-06,-7.533512136179905e-08,531.6683649457832,531.6686850757171,531.6689584190306,531.6675735944059
2.3919999999999995,-8.654564118686635e-08,3.999999946316334,1.755180686805996,-2.00242807401254e-05,2.4175092938142305e-05,2.3952372032234684e-06,-2.513717128628242e-09,4.0,1.747692608446948,9.144629100135106e-23,-3.9999582048294966e-08,-2.6848807903387094e-08,0.28549621788237967,0.0,0.0,0.0,-0.1278867595183128,1.3310573907591855e-06,-3.9485399907491e-06,-1.9030579252795394e-07,532.1189258870622,532.1180782201562,532.1187032261092,532.116993436147
2.443999999999999,-7.5692114750397e-08,3.9999999544699385,1.769525795537946,3.942002341520513e-06,1.8590506829429103e-05,3.071128191063472e-06,-4.463049217119676e-09,4.0,1.7625960128642875,8.604470110392503e-23,2.0266725554759237e-07,1.8977338055585276e-07,0.26945532826210006,0.0,0.0,0.0,-0.11209568301836019,-1.8798911908069113e-06,-8.738273756976507e-07,-9.835487459190993e-08,532.5525427304364,532.5516516698422,532.5515968419191,532.5519223887634
2.4959999999999987,-5.748967665686112e-08,3.999999961170341,1.7830618378184562,2.0268919367354588e-05,-1.8993266801702875e-05,2.5676571503635997e-06,-6.540729785546268e-09,4.0,1.7766788635579829,8.094051269811887e-23,4.0780285219464966e-07,1.575157480959366e-07,0.25421879213579834,0.0,0.0,0.0,-0.09688761507501156,-1.877718333814324e-06,3.2070009309259037e-06,-1.0707406657466982e-08,532.9691371630112,532.9695669614838,532.9684933151182,532.970137363365
2.5479999999999983,-4.718645721475046e-08,3.999999959529091,1.7958298069271719,6.1945047551112274e-06,-3.246137393385348e-05,1.8739525210871421e-06,-8.622009166619895e-09,4.0,1.7899806099278754,7.611942774345308e-23,2.1952471338980535e-07,-5.107097605076659e-08,0.23975881251893125,0.0,0.0,0.0,-0.08228495906404025,1.4208036214427343e-06,1.3981618067166925e-06,-3.029633357660773e-08,533.3694117918611,533.3703225667704,533.3697670100456,533.3697596947375
2.599999999999998,-5.021916325885975e-08,3.9999999554428984,1.8078691134496003,-2.0261605887508227e-05,-2.1264647861544982e-07,1.667283573404387e-06,-1.063165063307025e-08,4.0,1.8025393938877343,7.156762208470028e-23,-9.944157870333067e-08,-1.11363593294341e-07,0.2260462805040479,0.0,0.0,0.0,-0.06830581517818436,2.975614529896607e-06,-2.7533543425373708e-06,-2.2617876999163292e-08,533.7529181864935,533.7529899446329,533.7538014252165,533.7519517902857
2.6519999999999975,-5.404596788097754e-08,3.999999959352192,1.8192176452775684,-1.2409520335999888e-05,1.8262400778803772e-05,1.3062608800066135e-06,-1.2569370690801562e-08,4.0,1.8143920238231022,6.727175489060319e-23,-8.708231223364928e-08,9.217319542792175e-08,0.21304800005469585,0.0,0.0,0.0,-0.05492227246404319,-8.838190441286723e-08,-2.038889855430356e-06,2.4745154205539378e-09,534.1197743514521,534.1190880192414,534.1197543047655,534.1191250027468
2.7040000000000006,-5.0672702300569394e-08,3.999999968407242,1.8299116399674185,1.4002363081522509e-05,1.0173577143417997e-06,9.198022230134334e-07,-1.4455325303583555e-08,4.0,1.8255739598818634,6.32189739851615e-23,9.200054255672267e-08,2.0221940409502704e-07,0.20073466666651388,0.0,0.0,0.0,-0.04213254817403249,-2.3910713856379447e-06,1.246471931187848e-06,1.226621044799908e-08,534.4696219447436,534.4692528987941,534.4688929569587,534.47006578691
2.7560000000000002,-4.675937554238888e-08,3.999999971822139,1.839985626302135,1.8877929928184237e-05,-1.878237894153689e-05,6.428806058720852e-07,-1.627554339154875e-08,4.0,1.8361193090347574,5.93969176378998e-23,8.82623918802275e-08,5.681117683946743e-08,0.18907205649385075,0.0,0.0,0.0,-0.029888356327337884,-9.941394350418624e-07,2.128255126353353e-06,1.1342480544884437e-08,534.8041347678688,534.8045002046351,534.8038532013388,534.8048593047705
2.808,-5.0495128231847235e-08,3.999999967315046,1.8494727877562154,-5.989690690421344e-07,-1.1860257903839483e-05,4.943940425935124e-07,-1.8008636981195885e-08,4.0,1.84606082851475,5.579371331730096e-23,-9.324523054952464e-08,-1.1270291178612606e-07,0.17803861726362752,0.0,0.0,0.0,-0.018236355714755098,1.414978783643581e-06,-5.181550223836035e-08,6.941483466929932e-09,535.122592967867,535.1230319473256,535.1230723443505,535.1225999926215
2.8599999999999994,-5.925760200930019e-08,3.999999962791944,1.8584047451818333,-1.4180588896271782e-05,8.5646004620302e-06,4.361800931452072e-07,-1.9670946226170056e-08,4.0,1.8554299363987703,5.239797385556167e-23,-1.86030815747892e-07,-8.783564585904453e-08,0.16759958756487706,0.0,0.0,0.0,-0.007114111345509558,1.423679627500526e-06,-1.7118254581665537e-06,3.000712821434513e-09,535.4266963041533,535.4266035652107,535.4271647553744,535.4261556017085
2.911999999999999,-6.460221441163139e-08,3.999999964065875,1.8668116206248482,-5.963850081180984e-06,1.3599311860198188e-05,4.2354681098514175e-07,-2.1307912434029532e-08,4.0,1.8642567282345002,4.9198791422379715e-23,-8.999624854924022e-08,4.50050259222514e-08,0.15772841852027608,0.0,0.0,0.0,0.003489550907958189,-4.518911100833846e-07,-7.448134511087908e-07,6.463694331472091e-10,535.7163504061488,535.7159654582216,535.716207250308,535.7161130250071
2.9639999999999986,-6.419623438660446e-08,3.9999999679727787,1.874721987386788,7.802201185674398e-06,7.425985730287037e-07,4.259604095824952e-07,-2.2945966748441414e-08,4.0,1.8725699987400373,4.6185729660126905e-23,2.7377705923384207e-08,8.191624434207215e-08,0.14839621848458434,0.0,0.0,0.0,0.013608960774248051,-1.3131868294398633e-06,9.93957103011544e-07,-3.4342102278702645e-10,535.9923479096541,535.9922452748726,535.9919245388248,535.9926663031233
3.0159999999999982,-6.315376505954482e-08,3.999999968735725,1.8821633333502508,1.092009928442296e-05,-4.60988705839747e-06,7.010861165396465e-07,-2.458045167400362e-08,4.0,1.880397267716759,4.334881429199092e-23,1.3788150110183385e-08,3.5743934022149795e-09,0.13958435794705468,0.0,0.0,0.0,0.023202317566285872,-1.1354769728369692e-06,8.694858208971041e-08,-4.389874994009837e-08,536.25419011156,536.2538531662493,536.2536755910171,536.2540684184092
3.067999999999998,-6.387977052317568e-08,3.9999999649421523,1.889161730843216,9.327767768784462e-07,2.845741447867642e-06,8.968879277304378e-07,-2.619704256908129e-08,4.0,1.8877648094167152,4.067852247805855e-23,-2.0244890249249128e-08,-9.083692056530845e-08,0.1312608334441274,0.0,0.0,0.0,0.03234168817881195,5.255832452237342e-07,-7.564651781571782e-07,-2.3812017430967876e-08,536.5031744950968,536.5031003354816,536.5032621847594,536.5028503888642
3.1199999999999974,-6.354385250766645e-08,3.9999999607622216,1.895741811375676,-1.170342457445929e-05,4.726509193512971e-06,8.093649239220134e-07,-2.7791068976951406e-08,4.0,1.8946976846965065,3.816577116146255e-23,1.4046617424124134e-08,-7.675435314710435e-08,0.12340331830657003,0.0,0.0,0.0,0.04103027018618297,1.2454571168117602e-06,-3.0518995694121194e-07,-3.77660483576877e-09,536.7397061032793,536.740007985271,536.7400931081095,536.7395952576495
3.1720000000000006,-6.12844243780695e-08,3.99999996146154,1.901927133121319,-9.904289860176306e-06,-1.0164701112168676e-06,6.264027361817181e-07,-2.9355952513410737e-08,4.0,1.9012197753708817,3.580190461726454e-23,5.024522346688015e-08,3.663279530436723e-08,0.11598817710213045,0.0,0.0,0.0,0.049290796087813955,1.497078203900995e-07,4.780145248541277e-07,4.893552565080571e-09,536.9647344898077,536.964935941782,536.9647991930221,536.9649045549424
3.224,-5.9408851738099886e-08,3.9999999664191397,1.90774007140879,1.5523395161232712e-06,-4.688463598760642e-06,4.715916952036975e-07,-3.0876648982545976e-08,4.0,1.9073538202520386,3.3578681390371245e-23,3.045256506709979e-08,1.0733455108848176e-07,0.10899767807135093,0.0,0.0,0.0,0.057097796441620545,-9.119425041171637e-07,4.4799243009774565e-07,5.9217820611647024e-09,537.1774614706783,537.177312636282,537.1771890714479,537.1776253362507
3.276,-5.9476216728284995e-08,3.999999970887459,1.913202041719488,5.994555071964268e-06,-1.304759032509229e-06,6.93861970593657e-07,-3.234006579878416e-08,4.0,1.9131214524257403,3.1488260785178076e-23,-1.0068989951824257e-08,7.602662252227358e-08,0.10240761177770345,0.0,0.0,0.0,0.06448978465284103,-5.265332278593561e-07,-1.850215120559151e-07,-6.1233411833757e-08,537.3787923260771,537.3785641460278,537.3784151937158,537.3785247090995
3.3279999999999994,-6.014075715787008e-08,3.999999972864133,1.9183331240897747,-1.5898035139637506e-07,3.4006328343236534e-06,1.0382857252092219e-06,-3.374453671679767e-08,4.0,1.9185432373735498,2.952318904854647e-23,-1.1457960758782837e-08,2.7586869880787623e-08,0.09619597646701653,0.0,0.0,0.0,0.07149006343606577,4.6132998024991913e-07,-4.392714948499555e-07,-4.040210760391127e-08,537.5690862193803,537.5690932905488,537.5690967268793,537.5688080258976
3.379999999999999,-5.942983112765247e-08,3.9999999747835617,1.92315241780797,-5.653870960660728e-06,3.014134702286305e-06,9.579903577502315e-07,-3.5093615464253705e-08,4.0,1.9236387116024525,2.767638536888426e-23,2.2196841909956192e-08,4.298250624335019e-08,0.09034222801758733,0.0,0.0,0.0,0.07812558642237433,6.005480142695296e-07,-5.452742385772959e-08,-9.041034218985908e-09,537.749410237595,537.7495852137189,537.749571955668,537.7493620321422
3.4319999999999986,-5.7442258505149746e-08,3.999999978963315,1.9276778245880288,-2.8251161997471003e-06,-7.767872866839099e-07,6.981270678510933e-07,-3.6384904045997615e-08,4.0,1.9284264214894493,2.5941127797311003e-23,4.154847867743332e-08,9.233561122902036e-08,0.08482514760109157,0.0,0.0,0.0,0.08443197746011652,-1.0304505050393934e-07,3.187169883801986e-07,6.182449863584202e-09,537.9208913404728,537.9209604320309,537.9208793378072,537.9210144513297
3.483999999999998,-5.5741972727720774e-08,3.999999984299824,1.931926296098867,3.211082625208681e-06,-2.1975208253199673e-06,4.611769599444149e-07,-3.76097502978898e-08,4.0,1.9329239620899683,2.4311039181936348e-23,2.796027667031871e-08,1.0232171127979533e-07,0.07962791021018338,0.0,0.0,0.0,0.09041735502915524,-5.376035527108962e-07,1.8631695116903005e-07,9.044134160837444e-09,538.0836532753826,538.0835407730268,538.0835118267196,538.0837436680628
3.535999999999998,-5.4963632459852927e-08,3.9999999882780166,1.9359141570417095,3.9466088964798345e-06,9.971555479898053e-08,6.676912261294982e-07,-3.8760682207898675e-08,4.0,1.9371480156956333,2.2780073192984148e-23,1.1122804110059918e-08,6.528798455984368e-08,0.0747396066118354,0.0,0.0,0.0,0.09604385986573083,-1.63683406819716e-07,-1.6777399553381434e-07,-4.38171577089908e-08,538.2366172444559,538.2365111227289,538.2364160325048,538.2364147228329
3.5879999999999974,-5.407949731196542e-08,3.999999990408222,1.9396568200204831,2.473623661061502e-06,4.916215993154827e-06,9.982849456979998e-07,-3.9836720218268715e-08,4.0,1.9411143899594738,2.134250050468975e-23,2.1871102804862456e-08,3.3046405571907855e-08,0.07013866916489916,0.0,0.0,0.0,0.1013675067252087,-1.9190706055095756e-07,-7.621035440166012e-07,-4.536346635971041e-08,538.381327960877,538.3810226001924,538.3811125191984,538.3809300100758
3.6400000000000006,-5.1224162558767506e-08,3.9999999914210953,1.9431687684655468,-4.2252928575117027e-07,3.3111061619368504e-06,9.419779676132305e-07,-4.083722695225569e-08,4.0,1.9448380554355629,1.9992895189434838e-23,6.837327487010556e-08,1.5662238670721525e-08,0.0658113034353527,0.0,0.0,0.0,0.10638230268735006,1.8113891062076756e-07,-6.46929084353034e-08,-1.2498844775045104e-08,538.5172843788872,538.5173216416202,538.5172999186001,538.5172212523856
3.692,-4.703753102184601e-08,3.999999992565571,1.946463712825251,-2.8143477430514856e-06,-3.7060882970278477e-06,6.731122201801941e-07,5.038013745978195e-05,4.0,1.9483331824055796,1.8726121370326744e-23,8.034850014458891e-08,2.6627280204831477e-08,0.061740125364836765,0.0,0.0,0.0,0.11112378441232773,2.6955262514324356e-07,0.20854957736570473,5.4504221672899415e-09,504.1835374073817,571.0323913436334,504.1836492983053,571.0323274452151
3.7439999999999998,1.3011530400013088e-05,3.9999999952495884,1.9495384290812277,-0.00010554971958996123,1.166257196491524,-4.4861096270353036e-07,0.002788397637578291,4.0,1.9516131768873832,1.753732017025286e-23,0.00018144637199283534,2.2020533252109132e-08,0.05726206450531688,-0.00010123255579143827,0.9468980425379323,4.221010650392667e-08,0.12175112345087755,3.928186130924647e-05,0.45985012730734276,4.4260713940391625e-07,459.56369900127095,608.0297894183778,459.5801889234397,608.0199868022175
3.7959999999999994,0.0006880430792871416,4.00000007181741,1.9523799872531862,-0.0012749134708380403,7.464444690339123,-6.108600601607166e-05,0.012029655742973041,4.0,1.9546907157405122,1.642189698824115e-23,0.021457953663384273,2.46760234853496e-06,0.05554889163894898,-0.000625044628595239,2.7896632450528736,7.995218786812137e-06,0.1371195012438045,0.00030404525618915704,-0.08527299023598606,1.5615819000075673e-05,552.7327931025897,525.5748212297624,552.8792074322954,525.5294387881166
3.847999999999999,0.004735333250673367,4.00000075023982,1.9547743176912102,-0.003823971413707136,15.9173876955328,-0.00031294566174852763,0.028754443280912544,4.0000000004692104,1.9575777808010437,1.5375509127623655e-23,0.10714309263051551,1.862833637746522e-05,0.07061422468101126,-0.0008598439664839634,2.469652017594582,7.122843262567373e-05,0.23289842264941735,0.0006995652204877382,-0.5069363049712742,3.367141418625724e-05,617.1521518184107,454.31452161646587,617.4471471368994,454.18462501042205
3.8999999999999986,0.01570218364194039,4.00000307730275,1.9561719691300095,-0.005224853376371279,19.302864877086872,-0.00020930551583181765,0.05270714141099926,4.000000005009571,1.9602856919935125,1.4394053794951688e-23,0.2546558492964308,5.3309515655275506e-05,0.10802226865760715,-0.0001540584406610471,0.15734106891967747,0.0001417297869490087,0.4241490233471249,0.0008563507735639481,-0.26786796167374927,-2.9051734053142415e-05,587.6732668193537,503.32295748716757,587.833993842209,502.92410032973186
3.951999999999998,0.03512249271053916,4.000007698815328,1.9565853363122667,-0.004648410406299,16.839096106555807,0.0003264510501944982,0.08323371704799132,4.000000023635223,1.9628251393810066,1.3473656483759307e-23,0.41639492831473274,9.356344281982973e-05,0.13191814034040167,0.00018918897880763186,-1.205913923816028,5.1011651785485525e-05,0.5766441644523643,0.0010090154786977744,0.19796194176604207,-5.12926246890454e-05,519.1911616586085,581.4937998004182,519.3454597502827,581.0333610538628
4.003999999999998,0.06206028817798332,4.000014506987634,1.956738010391482,-0.004902246815864957,14.175623705447254,0.00047470778990207636,0.11951371280123241,4.00000007507751,1.965206214126203,1.2610659753045603e-23,0.550490552033288,0.00013047037621458847,0.14482473596731973,-0.0003523037912108079,-0.47540756795770023,-6.109414297021319e-05,0.6085284050241657,0.0014867394652642388,0.2495184498069889,-1.1432028332822313e-05,511.3239817917021,589.8825740098574,511.78396612672304,589.4126327986421
4.055999999999997,0.09531264240872939,4.0000236258484785,1.9572140714219806,-0.006604612045638428,14.846403342000375,0.00022019702966926977,0.16072983418912962,4.000000186876223,1.9674384383462322,1.1801612406677517e-23,0.6616857544093611,0.00017236363678781438,0.18614701058088445,-0.0005387934643244964,0.5854787071429277,-3.581302321298045e-05,0.5811318999427105,0.0020824693500738336,-0.0728185462935562,1.750288521542243e-05,562.1764660956953,540.0584283704148,562.8712918011342,539.4528404629424
4.1080000000000005,0.13497444027809785,4.000035700851016,1.957998359388823,-0.006621861366589811,16.40462611299066,0.00011476377202521677,0.20614442245128933,4.000000391527952,1.969530793853009,1.1043259076744378e-23,0.7781861231562368,0.00022654440742161212,0.24526866889381083,0.0005126421543464203,0.2744012806092359,7.193259223650584e-05,0.5714499687930841,0.0023088438983629054,-0.2393287416157477,-1.8981035573131548e-05,586.9249366638579,512.632121376073,587.5433913541733,511.78760802313576
4.16,0.18153983209490102,4.000050629168795,1.9589296304434165,-0.0028965890689954575,15.23652094444188,0.00048364930970657983,0.2551234336681517,4.0000007292274775,1.9714917497781905,1.0332530211168251e-23,0.9087700505173448,0.0002800013489620228,0.27131984145936416,0.0015337154919405048,-0.830741919305028,8.492724592507647e-05,0.560905410305915,0.0022054039829447463,-0.04649888320865775,-5.5225420697690294e-05,557.6980057987687,543.839374650771,558.1982346828966,542.9542142249975
4.212,0.23438076414223127,4.0000667469937605,1.9601415793453794,0.0011203788944185037,11.90456610957101,0.0006923767672505371,0.30714812200220365,4.000001250672617,1.973329289088361,9.666532463540175e-24,1.0282144975384884,0.0003002392570662096,0.24955970939076835,0.00098983353077567,-1.1418059060101267,4.062057963701542e-05,0.5013450946354403,0.0023468635688936317,0.18160796140886692,-3.4909637047110675e-05,519.5335283758401,577.3346829511455,520.188729918958,576.5230829121332
4.263999999999999,0.29190698508976665,4.0000822166187255,1.9618517172956969,0.0019406046245816907,9.623498179522043,0.0007619150662221068,0.3617739261031471,4.000001998939307,1.9750509340015103,9.042539481171571e-24,1.113083518865421,0.000281252421714476,0.22843661584896555,-0.00015912143788521165,-0.43728888101842767,5.554921790801604e-05,0.4024580997407379,0.002834725116175469,0.1405048996580094,-4.4602684517374895e-05,523.4882334004855,568.719704709709,524.26507095437,567.7165259874389
4.315999999999999,0.3529419269179534,4.000096581407729,1.9640399218645903,0.0010810019599121565,9.5193105123364,0.0009562140669824015,0.4186415375896461,4.000003009948936,1.9766637703204906,8.457983085676437e-24,1.1752418861590583,0.00025463741794534255,0.24176080468949795,-0.00018018218606900764,0.13810650530976096,6.952852377828663e-05,0.3085808062134291,0.0032241165742528527,-0.05176846969324726,-6.0880106933208436e-05,551.7162297984944,536.3393787825297,552.520976989282,535.0945428665412
4.3679999999999986,0.4172553482062322,4.000110162500931,1.9664821040326557,0.0024195511276356575,9.61929283296159,0.0011663861076035282,0.47743690246249637,4.000004304442161,1.978174470702985,7.91044483900406e-24,1.2365776403740645,0.00023897553537423032,0.25902879741627094,0.000894806819113429,-0.1385532301965949,6.83460809892131e-05,0.24208536027961944,0.0031706460096587695,-0.10633728928603306,-6.751860795873397e-05,558.4542210434123,525.6563618921837,559.2110972150361,524.3805976719793
4.419999999999998,0.4847573367405667,4.000122391243162,1.9689854525362804,0.00616009260777422,8.20048877749567,0.001256404059363767,0.537910888352542,4.000005894979434,1.979589316890707,7.397647986687785e-24,1.2994024406474414,0.00021304994530534205,0.2399794005956355,0.0012942851644001205,-0.6687336653141576,6.999652227126928e-05,0.1919795786640145,0.002970525816862894,0.024411886549369044,-5.5968444228212405e-05,536.5517089112302,545.2752674544529,537.3145481848323,544.1476951595132
4.471999999999998,0.5547520589229427,4.000131690377648,1.971472727151543,0.008512556232887786,6.0857229559464505,0.0012344288843695913,0.599861376085082,4.000007784673327,1.9809142209231427,6.917449769135674e-24,1.3473016983835802,0.00014885961313453844,0.19532224493076686,0.0003202575469382071,-0.6444921190505772,0.00010127780401049708,0.14741146220869275,0.00307667229750299,0.124935450454796,-5.936820950877882e-05,518.8925691493345,559.7937375037571,519.7045703246207,558.6516026284356
4.523999999999997,0.6262568094278242,4.000137066046689,1.9738962981511396,0.007477579876294565,4.978228618361271,0.0014112803448386715,0.6631166742561465,4.000009960443634,1.9821547453632269,6.467834091037694e-24,1.3740007586760807,6.21940603075241e-05,0.16661380731962236,-0.0006920399731621716,-0.17044467995316376,0.00011309343773719374,0.11199727396782105,0.003430073805612345,0.06852231230001912,-8.904080357532213e-05,527.1893296384494,550.2063836967887,528.001188805413,548.834558614444
4.5760000000000005,0.6987186550093339,4.000138979564757,1.9761829202908563,0.005494184446237414,5.035330396624389,0.0016839716172734314,0.7275490956292485,4.000012391628874,1.9833161225639442,6.046904538378094e-24,1.391300427004964,-9.698474035543358e-06,0.16478535887342363,-0.0004917009253076997,0.08036701160140941,6.968419226431332e-05,0.09142152454804253,0.003607628772735816,-0.03772660588243669,-9.685016695606668e-05,543.709430272398,532.7858843484184,544.5266347362908,531.2846344886219
4.628,0.7720941704082843,4.0001383362156835,1.9782623248922235,0.005563751351489792,4.969909527670014,0.0018066454390730808,0.7930169070242487,4.0000150329348205,1.9844032730060808,5.652877732100441e-24,1.4095717374920018,-5.960454416193523e-05,0.16183160677633052,0.0003523367373347042,-0.135138799009039,2.8672747730662248e-05,0.08426785552682695,0.0034579821117889775,-0.03726094514504012,-8.738915695583814e-05,543.4509980205479,532.6244041257446,544.2529834736258,531.2038058527653
4.68,0.8463177556447459,4.000135199558069,1.9801035252420278,0.007092384607848085,4.077087366499509,0.001764222001104429,0.8594155359919022,4.000017833443127,1.9854208227382177,5.284077007157094e-24,1.4262280308744804,-0.00010995066616348946,0.1377493651362221,0.00047081520232156925,-0.3776729021030652,1.6822205234757048e-05,0.08488643942087955,0.003280761510360901,0.045450631311367284,-7.626974367636114e-05,530.2018205997343,545.8106842242322,531.0045801042534,544.5179150691517
4.731999999999999,0.9209924507638219,4.000129000703484,1.9817087853177877,0.007209466088725569,3.0488703323880215,0.001691823161072397,0.9266524277906277,4.000020737142765,1.9863731199506143,4.9389264054701646e-24,1.4334318734141924,-0.00017339544072090445,0.10720610506025915,-0.0003129574352991958,-0.27502199656465287,2.269881357330577e-05,0.09003737267654842,0.0033584447205642497,0.07520272036177063,-8.008930376927084e-05,525.4818323797969,550.6426745768666,526.3039614649952,549.3241982925656
4.783999999999999,0.9956639677165638,4.000119738410229,1.983091554050952,0.0050476801062769115,2.733636256660883,0.0017164546505301916,0.9946481451143684,4.000023681656018,1.9872642507149523,4.6159449712192476e-24,1.431913287914626,-0.0002325653581809896,0.0932671055008553,-0.0008971222601189431,0.0037133514029004354,1.657244604513107e-05,0.09847790414656837,0.0035788384063795706,0.033208552503526466,-8.967028994224971e-05,532.5356323577312,544.3096707978956,533.385260823218,542.8736065029877
4.8359999999999985,1.070176203148259,4.000108369980306,1.984270606660526,0.0027877461689823505,2.9555630614199546,0.0017518246402531432,1.063316004897492,4.000026601032167,1.9880980539219766,4.313741336842701e-24,1.4290287825887267,-0.0002682791724527823,0.09450799181874919,-0.0005534335701766076,0.08033439713887838,1.207614792916725e-06,0.1088282515135767,0.0036316324840820124,-0.014214920533300299,-8.936586115355444e-05,540.4253099875492,537.0400104948469,541.2803902525415,535.5685065110883
4.887999999999998,1.1446083298497394,4.0000959172378465,1.9852708066400677,0.002348547813725511,2.9625144671900814,0.0017404498837272691,1.1326052947502854,4.000029426925912,1.9888781354489644,4.03100858817989e-24,1.4281923461840198,-0.0002853357753377918,0.0923546797516836,9.110259668960118e-05,-0.06281336656314604,-7.02665754501488e-06,0.1195007552431536,0.003470270753181204,-0.0006818648026018625,-8.667775642350663e-05,538.574442728939,539.4659004842307,539.3900157998264,538.0618465297815
4.939999999999998,1.2189635176341214,4.000082643682196,1.9861200324384343,0.0028269227428380176,2.5566522238449347,0.001686176087078484,1.2024407344840047,4.000032100892199,1.989607881588678,3.766519397282308e-24,1.426501328482562,-0.00030079368935184475,0.08004431645806706,9.527788420881865e-05,-0.16286839535770184,-1.5405349011053238e-05,0.1296357957784295,0.0033429700482497807,0.03627521733217211,-8.252170880832938e-05,532.92073993296,545.581314206878,533.7180838791622,544.2473070407851
4.991999999999997,1.2930748656893667,4.000068403539353,1.9868445189812969,0.002161582802038256,2.1991589025143474,0.0016107374558935344,1.2727720476280209,4.000034567636728,1.9902904717710292,3.519121411572253e-24,1.4208410261983033,-0.0003183826506750788,0.06805341933245591,-0.0004524912545502944,-0.06893211897101874,-2.1920889558932687e-05,0.1388878396621256,0.003415237347726574,0.047898722083483954,-8.078989520934735e-05,531.2781203480829,547.6694790269033,532.1072798756428,546.3235700323278
5.0440000000000005,1.3667931728378782,4.000053501917019,1.9874682321515786,0.0002494539195643584,2.270435907628425,0.0015443315625160384,1.3435557423116058,4.000036777123819,1.9909288906081726,3.287732888220827e-24,1.4129642897964019,-0.000325835698713619,0.06684763428135675,-0.0006797632648107268,0.0758467738899937,-2.1421190972693727e-05,0.14677595434285545,0.0035407713065607233,0.017393914037941688,-8.048122580574825e-05,536.3969503514566,543.0808894889404,537.2595260538463,541.6846872862317
5.096,1.440147824690351,4.000038766789918,1.9880138841766555,-0.001202342633484665,2.544822394064343,0.0014922405743370303,1.414746086681353,4.000038686042339,1.9915259392930844,3.0713385628449754e-24,1.406630797463378,-0.00031643046492534603,0.07201418907880201,-0.00029956391200114944,0.08073096516427158,-1.2718949067546761e-05,0.15294700751747667,0.00352689943718733,-0.0005780263550318326,-8.149043179389892e-05,539.4473273351541,540.3885191055643,540.2971946758328,538.9863551354432
5.148,1.5132590595283524,4.00002484346474,1.988500614833552,-0.0012738219618050205,2.621353900713762,0.0014634764931950842,1.4863065790812664,4.000040259768089,1.9920842463810164,2.8689857418796558e-24,1.4025819004537508,-0.0002980743292295412,0.0733011015709778,0.00012287710694516032,-0.012797313476203323,-7.806340875423636e-06,0.15755857631987916,0.0033959460969156486,0.011126665634934502,-8.32658481204455e-05,537.7239779198111,542.358102936852,538.528636465115,540.9967596654988
5.199999999999999,1.5861688578329456,4.00001178890367,1.9889426300682298,-0.0009208721884702572,2.4833137008167276,0.001430427329748791,1.5581905279614157,4.000041476529665,1.9926062779823963,2.6797806082612784e-24,1.3986732497643855,-0.00028143189735648985,0.06920103234207686,3.824103446198824e-05,-0.05297500559896197,-1.6065292704034007e-05,0.160965731356624,0.0033306803124310207,0.034083610955085275,-8.105721066966999e-05,534.1328093078396,546.070268304161,534.9293917779721,544.7462604545766
5.251999999999999,1.6588280494273375,3.999999462429308,1.9893499058448296,-0.0014585290768272313,2.4220603062682398,0.0013679223584305033,1.6303631315596652,4.000042323706621,1.9930943473949676,2.5028847303556774e-24,1.3935551335197238,-0.0002660799183133717,0.06647566879397279,-0.00031780837814911667,0.009271550868033824,-2.348705420924034e-05,0.16343800867257466,0.003399008683055049,0.02815601789489193,-7.769875016632762e-05,535.1389737093499,545.2056479818064,535.9674846603367,543.8691729249108
5.3039999999999985,1.7312155466229728,3.9999880765201894,1.9897298609783003,-0.0025922524147643927,2.5624039018816984,0.001298782084743544,1.7027653694509448,4.000042799415404,1.993550624202074,2.3375117643756193e-24,1.388477922642733,-0.0002440745760008162,0.0688530446055294,-0.0003559136757513736,0.06536305789811835,-1.83717770132312e-05,0.16508388094617557,0.003472811937133467,0.015760292838200345,-7.688297099374227e-05,537.1626806112727,543.2977616905885,538.014486379483,541.9358656230299
5.355999999999998,1.8033949808346446,3.999978094667068,1.9900881147085587,-0.0031020736593037807,2.7514518585068832,0.0012536442865351417,1.7753739811306173,4.000042902166896,1.9939771428631214,2.1829243408541387e-24,1.3849909317629598,-0.00021378251633995845,0.0729986104338893,-2.1945508837939077e-05,0.05142265585929404,-7.848051845617573e-06,0.16604999283360108,0.003435440839708551,0.0003376696393071251,-7.895680650904929e-05,539.6665104098538,540.8699931298876,540.4954422626789,539.5068790861412
5.407999999999998,1.875451768310259,3.9999697239985275,1.9904283183655664,-0.0026754333694451317,2.8099558931522304,0.001233207755372168,1.8481594940913282,4.000042642122548,1.9943758108213354,2.0384311260681453e-24,1.3830165452723233,-0.00018240773531678708,0.07431238633251333,0.00010529553174816038,-0.00028099469687838905,-3.0840330879106514e-06,0.16656819266179929,0.00334684432855565,0.00985168441311354,-8.022346990416414e-05,538.1757812561978,542.3855272276647,538.9743840420288,541.0501709810895
5.459999999999997,1.9474176276925745,3.999962771814687,1.9907524062637858,-0.0022013114672609696,2.7720768604242956,0.0012049529479774238,1.921088999562778,4.000042038596302,1.9947484161530291,1.9033840496387915e-24,1.3812919685704923,-0.00015605227912588365,0.07307344877071636,8.468351356146628e-05,-0.012266779294637927,-1.2977024439918774e-05,0.16683211736827244,0.0033264175047113603,0.026543126070365772,-7.843603345298862e-05,535.5042298078688,545.0315163646941,536.3063393217841,543.7151421410894
5.5120000000000005,2.019281875420822,3.9999570105978886,1.9910613215168227,-0.0023665201574187894,2.7818792218572312,0.0011578490873504048,1.9941235373176651,4.000041117622477,1.9950966347816597,1.7771756898685335e-24,1.379286986724478,-0.00013272289790912855,0.07275248782866103,-0.00013162110020867958,0.015277791872301405,-1.633118255992388e-05,0.1669480791993671,0.0033823514774832465,0.026443630898913915,-7.654168338877508e-05,535.5111721105407,545.0245643317309,536.3376995259678,543.6968137577398
5.564,2.0910506404090596,3.99995247456076,1.9913555479534057,-0.002771475881629886,2.865861389361209,0.0011124892571613481,2.0672423318236652,4.000039905739371,1.9954220372790439,1.6592368087077204e-24,1.3775825925645666,-0.000107348636216238,0.07429198953731546,-9.673246291015997e-05,0.035417608550487714,-1.1508623915051341e-05,0.16698979984004636,0.003418563940759937,0.013729474399699418,-7.677804846295232e-05,537.5486971865934,543.01813380305,538.3828850327411,541.6731472381118
5.616,2.1627622899610803,3.999949304095969,1.9916353051921085,-0.0026823788598131365,2.9663838573011363,0.001084288941840642,2.1404313415465843,4.000038433062093,1.995726095275197,1.5490340285737431e-24,1.3767486458437568,-8.000652157312431e-05,0.07644242669360331,0.00011992349458047672,0.0286739726918226,-5.761256555639877e-06,0.1670135370035995,0.0033855570846458008,0.010414106538998737,-7.815785623030608e-05,538.0881236615663,542.4895384174433,538.90624208611,541.1490882198785
5.667999999999999,2.234462219020971,3.99994743841141,1.9919006602400593,-0.002107563184039592,3.0166888621304593,0.001065978741958382,2.213677246707986,4.000036733716547,1.9960101874973404,1.4460676435725109e-24,1.3767336362395042,-5.5510556987835955e-05,0.07750458577225919,0.00021094704345578016,0.008370676911182273,-6.037014919077558e-06,0.16705982965330834,0.0033381961857270846,0.017556720095421287,-7.848358009423674e-05,536.9525904517558,543.6170914528554,537.7561525116865,542.2933806771555
5.719999999999999,2.306174232039982,3.99994661011288,1.992151688089311,-0.001656707424058807,3.0205498106605777,0.001041288152542561,2.286966458282073,4.000034843007763,1.9962756054577542,1.3498695579929078e-24,1.3770326407222009,-3.655430241239557e-05,0.0773806202937343,0.0,0.0,0.0,0.16714138785729848,0.0033407929274400093,0.014837533738951107,-7.754296359822747e-05,537.3889542141133,543.1869567645739,538.1958908544943,541.8645424047636
5.7719999999999985,2.377902224393399,3.9999465983203737,1.9923885854180072,-0.0016329308641668343,3.0324171508922726,0.0010086287073887879,2.360265711008128,4.000032797724617,1.9965235588092773,1.2600013452599849e-24,1.3773609683201122,-2.0823740086678824e-05,0.07739567710094243,-3.137201831472453e-05,0.0038126638004863356,-1.0809263986080702e-05,0.16726160454185635,0.0033827339662524927,0.01851225489779092,-7.689610142533438e-05,536.7948820461544,543.778336569129,537.6183535018655,542.4462198138231
5.823999999999998,2.449650316212314,3.9999473612378713,1.9926116340322042,-0.0016674488425201142,3.0455854522833987,0.0009815249745621754,2.43356515097642,4.000030633816385,1.9967551803864023,1.176052420840317e-24,1.3777769735867917,-5.166700101683933e-06,0.07743984823422193,2.5623301699244582e-05,0.008388243383375269,-7.4643896099039e-06,0.1674173484016747,0.0033967976115956713,0.021456245866878793,-7.753806472067294e-05,536.3252044965398,544.2521069755016,537.1517232493152,542.9145274275425
5.875999999999998,2.5214253457793347,3.999948888697475,1.9928212670858478,-0.0013667395838219893,3.088166279394556,0.0009628483665374079,2.5068679984115296,4.000028385584578,1.996971530949093,1.0976383228928693e-24,1.3783589642351533,9.686726280734138e-06,0.07819473468394324,0.00014597788100152113,0.01675608242301412,-5.212113195362786e-06,0.1676016772599142,0.0033717809794709896,0.019629247720576944,-7.815274581740511e-05,536.6287252099601,543.9648155857642,537.4446654174754,542.6324019238215
5.928000000000001,2.5932448386848517,3.9999510359670065,1.993017932805023,-0.0008836862074301053,3.1214202052193616,0.000945726343337022,2.580152682230607,4.000026085586689,1.9971736036456418,1.024399094750168e-24,1.3793294349703156,2.0927690177544013e-05,0.07888064797385551,0.00015367661716573946,0.005000989358070044,-6.04968986101529e-06,0.16782307271381716,0.0033513431950196104,0.013316911332673485,-7.81618720736409e-05,537.650610620745,542.9667695463336,538.4584306108324,541.638372345539
5.98,2.6651223924849847,3.9999535809314164,1.9932021619731815,-0.0005852172110244762,3.108039753910828,0.0009246181719985628,2.6534078841104685,4.000023765224433,1.9973623282101156,9.559977635972428e-25,1.3804852937026333,2.7981674152248594e-05,0.07847963759426305,5.9977952263896695e-05,-0.010382362205153232,-7.69615777599896e-06,0.16806069497723108,0.00336322253802575,0.020173277052427396,-7.778221022803249e-05,536.5546196654569,544.0613406940772,537.369188236885,542.7331293840624
6.032,2.7370522628271554,3.9999563776336466,1.993374588150781,-0.0004894583876493587,3.0878502618716204,0.0009057758940776345,2.7266452121990032,4.000021452682672,1.9975385749091648,8.921189099891625e-25,1.381426885477191,3.2867215610042924e-05,0.07775431626741262,1.0782175515425396e-05,-0.0007249057605902522,-1.4758448065368768e-06,0.1683120259474237,0.003374897626410998,0.02146971023971398,-7.858284416269783e-05,536.3527317873288,544.2765625313359,537.1686275047616,542.9424767372038
6.084,2.809026009721832,3.9999593681395114,1.9935359154904964,-0.00038736303907534495,3.1193396852732835,0.0008904021609116802,2.7998625572875575,4.00001917249928,1.9977031582522629,8.324673231122512e-25,1.3822717021855147,3.6681142868073346e-05,0.07825662169491812,3.200177821401172e-05,0.015426188837596413,-5.519426665608563e-06,0.1685408141352458,0.0033843151557187375,0.015792341121097772,-7.851740962037918e-05,537.2686080896019,543.3845918067229,538.086353380777,542.0455373754974
6.135999999999999,2.881055211564005,3.9999625023116847,1.993686883179445,-0.00026557934958835495,3.155141524167383,0.0008726872767123295,2.8730483597640584,4.00001694686245,1.9978568404787265,7.767667369484757e-25,1.3834406399147965,3.963039652417586e-05,0.07905125819752615,6.188428790146827e-05,0.006855914568668783,-5.788034589245961e-06,0.1687699481339648,0.0033811704158725284,0.016699313113325197,-7.861437046924735e-05,537.1300427653141,543.5342172780723,537.9466618467169,542.1962049842688
6.187999999999999,2.953153956756763,3.9999657090573435,1.9938281048484878,0.00011881341442257438,3.1477048914953585,0.0008571543693835736,2.946205315265074,4.000014794785831,1.998000334834198,7.247586427475978e-25,1.3848211998631474,4.084324460240826e-05,0.07885010455383136,0.00011885772112433382,-0.007367505111111126,-5.7398407472201415e-06,0.1689935209034555,0.003349145226442814,0.01293286561518862,-7.868243464023943e-05,537.745218127368,542.9378730611611,538.5504260727051,541.608347465127
6.239999999999998,3.0253187623090585,3.999968834972072,1.9939602558811595,0.0002033698539635796,3.123577033528795,0.0008356518469851865,3.0193357291879717,4.000012731804041,1.9981343086486136,6.762011734470994e-25,1.3860402197203654,3.900127152220271e-05,0.07815632818010751,-3.3356621201397305e-05,-0.0066422973831074626,-7.870786511536291e-06,0.16919589873914959,0.0033832662446001633,0.019348746888109572,-7.805519574174365e-05,536.7151861870342,543.9648944772099,537.5350088879551,542.6291621877399
6.291999999999998,3.097538284552222,3.999971845862731,1.9940839995188324,-0.0005338821960413573,3.116336326265084,0.0008071139666385322,3.092427976083499,4.000010769368578,1.9982593862270763,6.308680559058046e-25,1.387047434727025,3.768343927435334e-05,0.07783683698955753,0.0,0.0,0.0,0.16937929961977516,0.003548445794924332,0.01976817319343109,-7.724709011324674e-05,536.6249480753055,544.0610584663357,537.5006169036752,542.6758346328595
6.343999999999998,3.169807344879438,3.9999750347456735,1.994199870129214,-0.0006709359678236924,3.110626554597971,0.0008022684697118012,3.165481000032333,4.000008917446366,1.9983761515644256,5.885476270336564e-25,1.3879934496076527,4.3695323468176406e-05,0.07760951963503018,3.9218938209286956e-05,-0.00041329832384331256,7.189710718814562e-07,0.16956947821297783,0.0034549235397487686,0.02296089832576903,-8.141595348153366e-05,536.1393893650958,544.5637604780734,536.971647418642,543.1954597761788
6.395999999999997,3.242123003680554,3.9999784448577884,1.9943083701570463,0.0008211709145888703,3.1139465679675373,0.0008137680451682686,3.2385026823969096,4.0000071844019836,1.9984851508937587,5.49041910107337e-25,1.388880222461101,4.59204914576232e-05,0.07758421277108413,0.0,0.0,0.0,0.16973105020382395,0.003278693842153203,0.019006219273005057,-8.14082392990287e-05,536.8072439386369,543.9140915001682,537.5820057203408,542.6001503905821
6.448,3.314485065227445,3.999981466987944,1.9944100908824782,0.001684234866493594,3.1096653711227207,0.0007915111132549399,3.3114847485233665,4.000005576361814,1.9985868950785755,5.121657477595864e-25,1.3897800255393031,3.529151594612167e-05,0.07743239765333129,5.0052995600671215e-05,-0.003198402448171453,-1.2536569129994302e-05,0.16987666274566077,0.003296758017981768,0.01021833230636101,-7.780800044112034e-05,538.2108876872531,542.5209226989031,539.0016167398381,541.2100069768807
6.5,3.386890643592661,3.9999837308496455,1.9945054879186344,0.0008858169637918354,3.0908011891905556,0.0007466274982468116,3.3844278361472764,4.000004097188904,1.9986818618577324,4.777459883193403e-25,1.3905915817506116,2.1545293625850696e-05,0.07692413810943102,-0.0004128134145505763,-0.007342016874301865,-1.419858187199871e-05,0.17001221271586456,0.0034458331278334584,0.014244362305695337,-7.647863809438214e-05,537.5435018127089,543.1850174842939,538.3874425765844,541.8327825425089
6.552,3.4593308672209426,3.9999855604332972,1.9945949948464707,-0.0001675079165969742,3.076184004732077,0.0007217433965923711,3.4573454852401535,4.000002746024258,1.998770497951863,4.456207223603366e-25,1.3912066702754875,1.669155096585751e-05,0.07645046389831886,-7.82604579821758e-05,-0.0006746994886893604,-1.3365402703379945e-06,0.17013433139663026,0.003499469190490765,0.016945929014590376,-7.89335130527928e-05,537.1091908851643,543.6292980708682,537.9626531506227,542.2528511150117
6.603999999999999,3.5317990719996004,3.9999874079278945,1.994679011301349,-6.00968124113831e-05,3.086268943248515,0.0007243498413701823,3.5302411860689986,4.000001519788664,1.9988532210394638,4.1563856648807955e-25,1.3917381121931152,1.8556795559759343e-05,0.07658900359483663,0.00020085113344251327,0.004477187317144311,2.5327911601218785e-06,0.17024897711627204,0.0034117566998142787,0.016987623109282514,-8.11501377350092e-05,537.1234658710647,543.6288146172826,537.9412766754967,542.2727686710749
