Time_s,X,Y,Z,Roll_deg,Pitch_deg,Yaw_deg,Ref_X,Ref_Y,Ref_Z,Ref_Yaw,vx,vy,vz,p,q,r,T_pert,tau_x,tau_y,tau_z,RPM_0,RPM_1,RPM_2,RPM_3
0.0519999999999996,-1.4082599489742515e-21,1.7623328686575587e-22,0.010054998079340962,-5.703952358725256e-19,-1.1435658051343522e-17,-8.250925098680045e-20,6.122640853033874e-23,-7.961445117648765e-24,0.016216050707931907,4.912004924521841e-22,-6.6591331184297015e-21,-6.091538267083393e-21,0.0009999901967684688,0.0,0.0,0.0,1.918965334879468,-1.0534334942855197e-18,1.699935517868014e-18,3.963490869220098e-19,585.6698475926163,585.6698475926164,585.6698475926163,585.6698475926164
0.1039999999999992,-2.4245781031084336e-22,-1.290334907074338e-21,0.011032139941250445,1.4340437204576376e-16,5.124308027840813e-16,-1.0056849335415715e-16,6.071585346321788e-23,-7.895056181175283e-24,0.032758437754563774,4.871044674457614e-22,-3.4979690605846734e-20,-3.9762055615384943e-20,0.049757320974682176,0.0,0.0,0.0,3.4410606249506754,-5.067831452793708e-17,-1.604250639066816e-16,1.633836134564044e-17,622.5128700955615,622.5128700955615,622.5128700955615,622.5128700955617
0.1559999999999988,3.2037376826867966e-19,-1.0442574800810396e-19,0.018141009774411517,7.616027435949431e-16,1.9310227517020063e-15,-2.4099963148580077e-16,5.993569495114737e-23,-7.793609937209529e-24,0.05803618915790014,4.808454975907861e-22,5.9970361852380736e-18,-1.6777382082486314e-18,0.20373563708613007,0.0,0.0,0.0,4.001005396894419,-1.6276466675789148e-16,-3.790311980893e-16,1.8209143426224954e-17,635.5294227946812,635.5294227946812,635.5294227946812,635.5294227946812
0.2079999999999984,1.846635135713077e-18,-6.963820172741575e-19,0.03455611421400364,2.0246583954102755e-15,3.8781126279580846e-15,-3.510569043657394e-16,5.892950936700749e-23,-7.662772746223066e-24,0.09063739605111035,4.727731826160658e-22,1.855919414069293e-17,-5.210776801755791e-18,0.3936975937157149,0.0,0.0,0.0,4.026893549911481,-4.1526699824373667e-16,-7.579599550330332e-16,2.840579954201143e-17,636.1247806170227,636.1247806170225,636.1247806170227,636.1247806170226
0.259999999999998,5.7790549230586665e-18,-2.5586574828959537e-18,0.061070014723749545,3.3258920274758886e-15,5.558936196365228e-15,-4.3290117309692965e-16,5.773582343362068e-23,-7.507554348239469e-24,0.12931376221384347,4.631966104736331e-22,4.3377433518472044e-17,-1.6099996199757215e-17,0.5876906734947804,0.0,0.0,0.0,3.7226513125693317,-5.267711804125274e-16,-1.0033037666984298e-15,9.14193037041222e-18,629.0924311719805,629.0924311719801,629.0924311719804,629.0924311719804
0.3119999999999976,1.289664681474884e-17,-6.2483814461845966e-18,0.09729322859021025,8.080798154909757e-16,3.1061643498527816e-15,-3.4620707526965987e-16,5.638862954359125e-23,-7.332374871347785e-24,0.17296390730279548,4.523884915900451e-22,1.1191078729799667e-16,-6.604457194092572e-17,0.7676708674772824,0.0,0.0,0.0,3.2266402390153077,-1.433812049306917e-16,-6.987737311845158e-16,1.0916416882812273e-18,617.4557717492759,617.4557717492758,617.4557717492759,617.4557717492756
0.36400000000000077,2.1824565985401227e-17,-1.0416839044243873e-17,0.14215138492404847,-4.010725089164152e-16,-1.804874595382831e-15,-3.16057579904766e-16,5.491785190254886e-23,-7.141125445642509e-24,0.22061826344278967,4.4058889858909835e-22,1.9308298815805069e-16,-8.51831822433053e-17,0.9231821655194871,0.0,0.0,0.0,2.6421935394465885,-4.690419572734602e-16,4.146103311603617e-17,2.222732609945903e-17,603.4564662220073,603.4564662220073,603.4564662220072,603.4564662220074
0.41600000000000037,2.9458286737275636e-17,-1.4460639807914512e-17,0.19419973118877593,1.1749403764440545e-15,-7.43631636394424e-15,-1.698289191418328e-16,5.334976799937912e-23,-6.9372230082038e-24,0.27142541925873054,4.280086476168132e-22,2.534581374763591e-16,-5.678802708012714e-17,1.049563938978307,0.0,0.0,0.0,2.0396396594046617,-2.8393245147936684e-16,9.897765308495723e-18,-4.2734282058721144e-17,588.6749914135693,588.6749914135694,588.6749914135692,588.6749914135692
0.46799999999999997,-1.4316596918608644e-09,1.431638279418702e-09,0.25187976014471286,-0.00016469878503663836,-0.00016471883976330485,-1.2524222855539919e-05,5.170738950581609e-23,-6.723659832561556e-24,0.3246397784282443,4.1483235418076613e-22,2.4608194183621457e-06,-2.460537024644784e-06,1.1455144140953644,0.0,0.0,0.0,1.470022967058255,4.963043480684732e-05,4.963792319174088e-05,2.548252800990044e-06,574.3328787828377,574.3626629652487,574.3558798094953,574.3558820562563
0.5199999999999996,-8.997468511913989e-08,8.996386087441667e-08,0.31363457502810205,-0.00032055106204999874,-0.0003205306090645777,-2.7286239627055868e-05,5.001080634161695e-23,-6.503048268474708e-24,0.37961041169852133,4.0122119347830937e-22,3.974191693288813e-06,-3.97460734760297e-06,1.212420863634969,0.0,0.0,0.0,0.9629772975808708,3.519557276905548e-05,3.517769029153001e-05,1.6134695826517034e-06,561.2811988680211,561.3028045818631,561.2972589246946,561.2972534345403
0.5719999999999992,-3.2333138775542477e-07,3.2333057490087167e-07,0.3780571107605259,5.452038373561572e-05,5.480703208319285e-05,-3.108423266237855e-05,4.8277497307407225e-23,-6.277661134409062e-24,0.4357709921370154,3.8731539250757716e-22,-5.474505177554821e-06,5.4694320878432235e-06,1.2535541803347086,0.0,0.0,0.0,0.5315723374492354,-4.847724338031439e-06,-4.889536282074934e-06,2.146472795826362e-06,549.9392144334098,549.9361632164156,549.9448297909757,549.9448166891739
0.6239999999999988,-5.384016574312246e-07,5.385289921717841e-07,0.4439112715683077,0.0002495837002529357,0.00024946674403259465,-3.403815453212877e-05,4.65226103824281e-23,-6.0494681654555164e-24,0.49263071326325203,3.7323647880940547e-22,-8.676851554483677e-06,8.681043277686983e-06,1.272464396341837,0.0,0.0,0.0,0.18148670456271754,-1.1738351228978673e-05,-1.1679452532768753e-05,1.1237862816240014e-06,540.5545708374049,540.5471053287735,540.5546288058731,540.5546475824261
0.6759999999999984,-6.338019804651098e-07,6.339943643165896e-07,0.5101756077297687,0.00028268555390707697,0.00028185735406705394,-2.4427299626980428e-05,4.475921550630194e-23,-5.820168883266444e-24,0.5497660987201589,3.5908930845706283e-22,-7.0913774292002985e-06,7.107960321410578e-06,1.27340127797111,0.0,0.0,0.0,-0.09217542668450007,-8.702065917617064e-06,-8.581579179491728e-06,1.69227830711882e-08,533.1013640206194,533.095777034318,533.0986090857205,533.098648033389
0.727999999999998,-5.987410147316511e-07,5.986391433116895e-07,0.5760354236200007,9.848801518515071e-05,9.786497618561675e-05,-1.6382238876349897e-05,4.2998532410251766e-23,-5.5912222216011655e-24,0.6068136203627762,3.44963893875485e-22,-1.2971552364337193e-06,1.3035142758352877e-06,1.2602366416949358,0.0,0.0,0.0,-0.2971928707864824,2.2854691196707605e-05,2.2894513384071624e-05,5.458357612465977e-07,527.4367995089983,527.4517466024928,527.446158222924,527.4461712335071
0.7799999999999976,-5.175521867875606e-07,5.168941556781531e-07,0.6408664603895554,-0.00011027003193270209,-0.0001097817137770525,-1.2616226332873182e-05,4.1250135831851655e-23,-5.363873210987226e-24,0.6634630491384108,3.309370502155912e-22,3.594561964618821e-06,-3.613516878899561e-06,1.2363877796589176,0.0,0.0,0.0,-0.4427874616753388,2.3171267947433527e-05,2.3079300560919523e-05,2.1275004674904495e-07,523.3853656606141,523.4005935238258,523.3937377906724,523.3937075107249
0.8320000000000007,-4.7630151397668635e-07,4.752985070385237e-07,0.7042086433668946,2.2628548791142816e-05,2.388377609040474e-05,-6.662471963417499e-06,3.952214023641526e-23,-5.139176998571162e-24,0.7194514699678882,3.1707387731671095e-22,4.868280358271632e-07,-5.156493076616786e-07,1.204903477837529,0.0,0.0,0.0,-0.5400123813506674,-1.010932200215912e-05,-1.021933574657356e-05,-1.1514658191956026e-07,520.6736093945171,520.6668812435295,520.6698592970108,520.6698228858683
0.8840000000000003,-4.2546209791187235e-07,4.2463842077608336e-07,0.7657454559936308,0.00021721303732066022,0.000217826440860347,-1.1949460879208836e-06,3.782136597578303e-23,-4.918020454221127e-24,0.7745578980697335,3.0342909274701685e-22,-2.7397583736923805e-06,2.7322006897382444e-06,1.168291478878866,0.0,0.0,0.0,-0.5994208495307858,-2.207892905161322e-05,-2.205344513781751e-05,-2.03569411755252e-07,519.0066404936117,518.9919870299117,518.9985926222535,518.9986010837996
0.9359999999999999,-2.877283319800224e-07,2.873441158434477e-07,0.8252735319364477,0.00015214010143038318,0.0001515020833946445,2.276911590733997e-06,3.6153488639925384e-23,-4.701141591143261e-24,0.8285984398503754,2.9004823000513066e-22,6.86649004935529e-08,-4.996042849265057e-08,1.12852362941242,0.0,0.0,0.0,-0.6304833194749835,-1.3968513295051248e-06,-1.2765302726861171e-06,-1.616571501712262e-07,518.1237898364868,518.1229006812746,518.1227549396908,518.1227949580006
0.9879999999999995,-8.885282344852533e-08,8.866043958236061e-08,0.8826764002234964,-7.113538254645122e-05,-7.188296192208392e-05,3.851513669509291e-06,3.452317319697164e-23,-4.489147008493524e-24,0.8814219466613624,2.7696871468398513e-22,4.895292874393229e-06,-4.879536373212216e-06,1.08707497845286,0.0,0.0,0.0,-0.6410869332253871,1.7050665669620562e-05,1.7078477019534504e-05,-9.013360627814191e-08,517.8182018366123,517.8295596071046,517.8235579592065,517.823567214497
1.0399999999999991,8.07210458431678e-08,-8.102115528754746e-08,0.9379010096571848,-0.0001547373164581428,-0.0001543380290925815,4.229154723216361e-06,3.293419437163637e-23,-4.2825275445289785e-24,0.9329061144433599,2.642208302296156e-22,5.57726554932131e-06,-5.585075001641164e-06,1.045007276034458,0.0,0.0,0.0,-0.6375418556834951,9.259948522220974e-06,9.139408277362746e-06,-3.465479575267218e-08,517.9208181233527,517.9269400270167,517.9237768318588,517.9237367252427
1.0919999999999987,1.8505172199860664e-07,-1.853065384036986e-07,0.9909394209164092,-4.515470383562298e-05,-4.408612333749594e-05,4.062573307770776e-06,3.138954457932767e-23,-4.0816723115887754e-24,0.9829539865758715,2.51828583863046e-22,2.630882047746881e-06,-2.6454265241286925e-06,1.0030633062920709,0.0,0.0,0.0,-0.6247800572234287,-8.446790530665421e-06,-8.557302686034863e-06,-4.5188069596394065e-09,518.2868256735813,518.2811719384214,518.2840012489997,518.2839645045249
1.1439999999999984,2.665254457317544e-07,-2.6631180067992767e-07,1.0418140218803078,5.1865579359983734e-05,5.210605339735689e-05,3.758710709364653e-06,2.989153061234557e-23,-3.886881268477214e-24,1.031490821168119,2.3981048226368067e-22,8.248310319586735e-07,-8.192989698871607e-07,0.9617259871851335,0.0,0.0,0.0,-0.6064116846957148,-1.0499023134308463e-05,-1.0461181629024231e-05,6.497285086116837e-09,518.8054273050152,518.7984651496762,518.8019628460705,518.8019754155292
1.195999999999998,3.6469915405373675e-07,-3.6391959088721777e-07,1.090566468259158,2.0280872390620834e-06,1.117551454381725e-06,3.495874740911697e-06,2.844186016448657e-23,-3.698376471505697e-24,1.0784612875935784,2.2818022572938035e-22,1.844343164265697e-06,-1.8217299129842637e-06,0.9213048822746821,0.0,0.0,0.0,-0.5851040385262792,2.0325763912912966e-06,2.1376174845321417e-06,7.411017478216175e-09,519.4014566797894,519.4028402534608,519.4021571229266,519.4021919731251
1.2479999999999976,4.6094151168533835e-07,-4.5996270085029905e-07,1.137249778697757,-9.933240152976338e-05,-0.00010014957277586964,3.3156930335247495e-06,2.704171918011845e-23,-3.5163121324142746e-24,1.1238269603189215,2.1694732872410663e-22,3.061769993476963e-06,-3.0479806515640364e-06,0.8819542450196343,0.0,0.0,0.0,-0.5624855632600302,9.231179992700452e-06,9.23927185767673e-06,4.829361812606943e-09,520.0354626402845,520.0415832091454,520.0385385677653,520.0385412491732
1.3000000000000007,5.149234032243379e-07,-5.140856094550448e-07,1.1819220216370754,-0.00010709439711709484,-0.00010688436854166141,3.2005940965080072e-06,2.5691840922515457e-23,-3.340783599524937e-24,1.1675640810354542,2.0611767399176135e-22,2.2546710131275576e-06,-2.259978323774325e-06,0.8437434262341341,0.0,0.0,0.0,-0.5395626695678921,2.7588139626576772e-06,2.6611457830286644e-06,2.1531320588360105e-09,520.6817719251909,520.6835657198369,520.6826925441521,520.6826602198059
1.3520000000000003,5.231131839315586e-07,-5.223478090282995e-07,1.2246434238656665,-2.980965249071875e-05,-2.918672942598201e-05,3.121544118674088e-06,2.439256757316254e-23,-3.1718353676754196e-24,1.2096615627930538,1.9569400674830525e-22,4.4595796116449276e-07,-4.54225918894258e-07,0.8066985831018183,0.0,0.0,0.0,-0.5169689442231412,-5.7621565418375024e-06,-5.824186203248554e-06,4.200926883523428e-10,521.3186994400818,521.3148694782288,521.3167961878478,521.3167756834281
1.404,5.17091393348124e-07,-5.16154968335585e-07,1.2654741900301523,2.6918151925514343e-05,2.6847121483162677e-05,3.858566256918042e-06,2.3143905098124422e-23,-3.0094682126501905e-24,1.2501192122865152,1.8567637485762582e-22,-4.11261859725162e-07,4.1543152176101116e-07,0.7708027499651124,0.0,0.0,0.0,-0.4949062530209334,-6.848785626678148e-06,-6.799070416608129e-06,-9.655460005993181e-08,521.937672509397,521.9331664444433,521.9350731276576,521.9350895419656
1.4559999999999995,5.200099444582871e-07,-5.189289064188005e-07,1.3044735627266,-6.884730492330119e-06,-7.640617681369868e-06,4.28378347992671e-06,2.1945572048782806e-23,-2.8536455368799707e-24,1.2889461486731593,1.7606252034472137e-22,1.4142896537565752e-07,-1.3123772306235603e-07,0.736037510155884,0.0,0.0,0.0,-0.4734853222319233,1.0554148597152006e-06,1.1314693108776514e-06,-1.1935306806856457e-07,522.5348734520413,522.5355946591286,522.5348040043522,522.5348290861803
1.5079999999999991,5.197875716379334e-07,-5.188661862278681e-07,1.341699278178009,-5.825928903942342e-05,-5.8734733448295835e-05,5.568244376656819e-06,2.0797042901659945e-23,-2.7042990050430163e-24,1.3261593993283474,1.6684822709766795e-22,5.367936971503705e-07,-5.357413580103566e-07,0.7023675537289641,0.0,0.0,0.0,-0.45258770234455425,4.478261299790889e-06,4.473767780820799e-06,-2.6424044127544034e-07,523.1184722608348,523.1214212283518,523.119024176773,523.1190226965203
1.5599999999999987,4.95384755656674e-07,-4.948208711782431e-07,1.3772071172839517,-6.178381488998752e-05,-6.149992994581652e-05,6.257673924951743e-06,1.9697586485133288e-23,-2.5613335408007935e-24,1.3617826547896081,1.5802762915323674e-22,4.3474768439144294e-08,-5.30177075987833e-08,0.6697591066406962,0.0,0.0,0.0,-0.4320204117357543,1.7296925550623837e-06,1.6644250168413424e-06,-1.3207773815900572e-07,523.6937414885084,523.6948583487213,523.6938496570958,523.6938281802968
1.6119999999999983,4.4543307457983314e-07,-4.451174275635273e-07,1.4110519653655889,-2.0041093748981034e-05,-1.9580748509783542e-05,5.360171050381678e-06,1.8646299989094795e-23,-2.4246317491713146e-24,1.3958451668168363,1.4959348354584644e-22,-8.254505630505586e-07,8.170857730253093e-07,0.6382014035512562,0.0,0.0,0.0,-0.4117314575395274,-2.6501442437070425e-06,-2.67605625379869e-06,-9.142991071104034e-09,524.2611522092045,524.2594014744914,524.2602492232887,524.2602407059492
1.663999999999998,3.870204418829506e-07,-3.867639916116738e-07,1.4432879322801284,1.0466711851117002e-05,1.041267532608262e-05,4.037023203401482e-06,1.764213900656666e-23,-2.294057822926391e-24,1.4283807750202406,1.4153741132213141e-22,-1.2054229706695205e-06,1.2049934386906173e-06,0.6076798237386372,0.0,0.0,0.0,-0.39160955376152284,-2.605336343182693e-06,-2.560188395797065e-06,3.9109532535112145e-08,524.8219672601041,524.8202711543506,524.8212480093115,524.8212628336861
1.7159999999999975,3.3301064899330803e-07,-3.3282673579526437e-07,1.4739688920337581,1.0635708255060181e-06,6.421706482659246e-07,3.006517920643769e-06,1.6683944013533165e-23,-2.1694609858399577e-24,1.4594270488928947,1.3385010998042285e-22,-1.0269518090891626e-06,1.0285684878049298e-06,0.5781915283588653,0.0,0.0,0.0,-0.37162366127168245,7.694698777145133e-07,8.17746429048795e-07,4.071256525845552e-08,525.3773982684695,525.3779188806211,525.3777923037183,525.377808138581
1.7680000000000007,2.801919371951207e-07,-2.8024604688394483e-07,1.5031480984293701,-1.8466477800074295e-05,-1.8623412325135848e-05,2.4206680553883606e-06,1.5770463654406363e-23,-2.0506785205638114e-24,1.4890245333432743,1.2652154028282015e-22,-8.815441483159256e-07,8.777517458036087e-07,0.5497241027193758,0.0,0.0,0.0,-0.3516752378144211,2.235740840645085e-06,2.2293118503411116e-06,2.6323032663081148e-08,525.9318635660226,525.9333265726232,525.9326876091511,525.9326855026467
1.8200000000000003,2.2095762866541147e-07,-2.2131319445945606e-07,1.5308784763700665,-1.2798187833709332e-05,-1.2502901427886545e-05,2.1695872872641156e-06,7.228967768931142e-10,-7.232039589079934e-10,1.5172160869662734,1.1954109010448755e-22,-1.0665237214169283e-06,1.0587978775637432e-06,0.5222710708888749,0.0,0.0,0.0,-0.33171600529754125,3.855823793066163e-07,3.498255171764891e-07,1.2024451479313226e-08,526.4871263340239,526.487367041854,526.4872942869014,526.4872825832523
1.8719999999999999,1.5768098896384102e-07,-1.5821685597080442e-07,1.5572127130666251,1.1778765556225414e-05,1.210565079735784e-05,2.9444918409708132e-06,2.6466606945984108e-09,-2.6489212808315273e-09,1.544046303329238,1.128977177277779e-22,-1.2889196044481946e-06,1.2838150753715716e-06,0.49583211096219443,0.0,0.0,0.0,-0.31177511261051216,-1.7900416743243842e-06,-1.7959071202586496e-06,-1.7204161569411884e-07,527.0416864141115,527.0405139234718,527.040504452209,527.0405025343935
1.9239999999999995,1.0035792757896271e-07,-1.0093492786323772e-07,1.5822037379954181,2.3485260827732533e-05,2.3480029619846566e-05,3.965593682002379e-06,5.229132807039829e-09,-5.23589776618923e-09,1.5695610064918093,1.0658007675548417e-22,-1.2111280065922532e-06,1.2106416803565391e-06,0.47041219554173386,0.0,0.0,0.0,-0.29195935665299877,-1.212705633085436e-06,-1.1806186148711018e-06,-1.1378123014979173e-07,527.5908751288581,527.5900934031915,527.5900848201269,527.5900953006393
1.975999999999999,5.386883775986398e-08,-5.448097719876456e-08,1.6059041134585224,1.292062472358191e-05,1.2738629477756687e-05,3.7752123764724664e-06,8.031655558689837e-09,-8.045469910975694e-09,1.593806812833563,1.0057662460575802e-22,-9.313180552787719e-07,9.315267304689276e-07,0.4459964891878265,0.0,0.0,0.0,-0.2722356952610723,7.766340244533949e-07,8.028439514542062e-07,-2.67804998741241e-08,528.1364396815742,528.1369550490577,528.1366004017847,528.1366089538169
2.0279999999999987,1.401363177956096e-08,-1.4730173618154195e-08,1.6283657843547996,1.0515828654817233e-06,1.0590285578108258e-06,3.062146925011569e-06,1.0752321504396085e-08,-1.077549632466473e-08,1.6168307520392287,9.487571635914778e-23,-7.565310974752208e-07,7.543073981691506e-07,0.42257986205116865,0.0,0.0,0.0,-0.2526967325802161,1.2413505385251499e-06,1.232970904274679e-06,1.5833438680796902e-08,528.6769111855665,528.6777177057278,528.6773705551419,528.6773678237494
2.0799999999999983,-2.4095845035372473e-08,2.327899520886073e-08,1.649641176513995,5.194073831106139e-06,5.433028402219617e-06,2.4002828953847025e-06,1.314461748176554e-08,-1.3179585877582264e-08,1.638679940794884,8.946568555398452e-23,-7.528015363445041e-07,7.498758570503737e-07,0.40017264753466686,0.0,0.0,0.0,-0.23358291663935826,-1.0577288239040172e-07,-1.2591693261893083e-07,2.389998584844059e-08,529.2057296872913,529.205654241986,529.2057777953856,529.2057712358665
2.131999999999998,-5.895315845846036e-08,5.813484771824344e-08,1.6697818049080986,1.6612366698347214e-05,1.680337609332121e-05,1.978822699022642e-06,1.501781713556453e-08,-1.5067173714213434e-08,1.659401303386441,8.433491336839182e-23,-7.275883060041287e-07,7.270619004836799e-07,0.3787421209893863,0.0,0.0,0.0,-0.21482291638073114,-1.0477926271980598e-06,-1.0466259805106811e-06,1.7632394955513117e-08,529.7241413441144,529.7234600042718,529.7238613275875,529.723861707112
2.1839999999999975,-8.603818623966634e-08,8.529997860255043e-08,1.6888374940026811,1.828478974164005e-05,1.825727569491246e-05,1.772469202753579e-06,1.6239142602927673e-08,-1.6305155410893627e-08,1.6790413339698909,7.947188748404139e-23,-5.659954451474356e-07,5.678073803937537e-07,0.3582602552965957,0.0,0.0,0.0,-0.1963875631591262,-4.226225326293955e-07,-4.0213007475427306e-07,9.058185930883308e-09,530.2325883570992,530.2323203124295,530.232482231311,530.2324888913612
2.2360000000000007,-1.0473567806861502e-07,1.0406975492454277e-07,1.706857444190341,9.455429575787172e-06,9.351266704642243e-06,1.6942992299331037e-06,1.6739445614872067e-08,-1.6823612506539984e-08,1.6976458958065508,7.486525179708275e-23,-3.698552701218979e-07,3.7151082839893484e-07,0.3387211719008243,0.0,0.0,0.0,-0.17843990004661525,6.003552174356856e-07,6.120446982386104e-07,2.9728421918502333e-09,530.7269829852471,530.727376648025,530.7271881577168,530.7271919532577
2.2880000000000003,-1.1873746632279483e-07,1.1810181748922134e-07,1.723889746985581,3.0895827493985985e-06,3.1136256641838947e-06,1.6701535205949782e-06,1.6500484427742094e-08,-1.6603548538278535e-08,1.7152600532309215,7.050384802422301e-23,-2.6937193521537206e-07,2.697457075685258e-07,0.3200953762516756,0.0,0.0,0.0,-0.1609780466693474,5.871661055692683e-07,5.784792602402141e-07,-7.883637657633596e-11,531.2078777880736,531.2082559271547,531.2080679953921,531.2080651773517
2.34,-1.3078942462110223e-07,1.3019229885588696e-07,1.7399812300635977,5.877321241234097e-06,6.010901738608681e-06,1.6571448556635588e-06,1.55461796056433e-08,-1.5668439318184415e-08,1.7319279325481864,6.637675014559779e-23,-2.453230535636542e-07,2.45741247034867e-07,0.3023594215142204,0.0,0.0,0.0,-0.14404956301702676,-2.2175649885113727e-07,-2.3354329279242957e-07,-1.0437867954106094e-09,531.6739204080401,531.6737728367281,531.6738449440287,531.6738411237048
2.3919999999999995,-1.399137623371227e-07,1.3940869878186807e-07,1.7551774684562929,1.0697709183877992e-05,1.0766617800911857e-05,1.6381287868175162e-06,1.3915460927313544e-08,-1.4056854885344363e-08,1.7476926084469484,6.247329252987092e-23,-1.9414579100611625e-07,1.9590766027218085e-07,0.28549129365685244,0.0,0.0,0.0,-0.12772642004760926,-5.589527857179892e-07,-5.562274672675937e-07,-9.958339677972722e-10,532.1227634976495,532.1224023513539,532.1225790624668,532.1225799450494
2.443999999999999,-1.4425353091070672e-07,1.4386876254045537e-07,1.769522562430635,9.232866033292813e-06,9.170418902224295e-06,1.6103962143097107e-06,1.1661700799610038e-08,-1.1821613662983429e-08,1.7625960128642881,5.878309249996152e-23,-9.02242180519381e-08,9.272539885638624e-08,0.2694585837411658,0.0,0.0,0.0,-0.11200302764717987,-7.86736650507115e-08,-6.703603863775768e-08,-6.547613872887726e-10,532.5544971443686,532.5544499951801,532.5544694395687,532.5544732053072
2.4959999999999987,-1.444824146712616e-07,1.441918627234018e-07,1.7830591651358072,3.4637746136467866e-06,3.380239477468703e-06,1.5767285861974891e-06,8.857930563796702e-09,-9.035103286687872e-09,1.7766788635579835,5.529606801912401e-23,-1.0669015377311686e-09,2.926011792419558e-09,0.254233593405063,0.0,0.0,0.0,-0.09690042291714696,3.964650389611142e-07,4.003287604493223e-07,-3.50253400053703e-10,532.9688540970471,532.9691117254822,532.9689810854095,532.968982334672
2.5479999999999983,-1.4308047278638658e-07,1.4278228992275568e-07,1.7958279106671673,5.223268139900179e-06,-3.875899376144733e-06,1.8868357101207636e-06,5.59351858481746e-09,-5.786184003002463e-09,1.789980609927876,5.200245110600344e-23,3.9903991851814413e-08,-1.6007545500418427e-08,0.2397741214017925,0.0,0.0,0.0,-0.08232827910416318,-1.0289646866334543e-06,1.5149847066854202e-06,-6.546067310705338e-08,533.3686613024487,533.3688183301905,533.368104517263,533.3689264397764
2.599999999999998,-1.4320802244687576e-07,1.3899839400677426e-07,1.8078680067970736,1.0837659678957774e-05,-5.486290475777378e-06,2.204259832498216e-06,1.9598230491404048e-09,-2.1672288233245207e-09,1.802539393887735,4.8892797523069345e-23,-3.4214192192995437e-09,-6.471327979468068e-08,0.22605913375397102,0.0,0.0,0.0,-0.06834896639373153,-9.95515137309079e-07,6.071463035147712e-07,-3.959164937050824e-08,533.7518636826452,533.751738294984,533.7514066877579,533.7519241186213
2.6519999999999975,-1.4539465039509774e-07,1.3086982781270706e-07,1.819217020352649,1.6176729681020958e-06,7.6191023448772725e-06,2.0805751553713043e-06,-1.967934615514685e-09,1.7289160799394462e-09,1.8143920238231028,4.595799322485743e-23,-6.016465640231264e-08,-1.688974207151411e-07,0.21305462136671816,0.0,0.0,0.0,-0.054931349686669115,5.763951921811227e-07,-1.1174331694259075e-06,-7.895649065387199e-09,534.119287706495,534.1191131486607,534.11944665092,534.1189001624333
2.7040000000000006,-1.4440350850352635e-07,1.2210036953349672e-07,1.8299112023885962,-9.113867831850897e-06,1.4936755227320056e-05,2.4149230594989963e-06,-6.134365606982292e-09,5.798000338283329e-09,1.825573959881864,4.318925800014075e-23,1.534640749436399e-08,-1.7712320237746e-07,0.2007369648007272,0.0,0.0,0.0,-0.04211538000646091,1.0789517626869483e-06,-9.966917717775428e-07,-1.0806044245680317e-07,534.4700996150264,534.4701261375606,534.470077927767,534.469408691557
2.7560000000000002,-1.3718358593723687e-07,1.1715280304192858e-07,1.839985420094239,-6.646246436301258e-06,6.188351062002886e-06,2.7605042614964703e-06,-1.0478818275483424e-08,9.943936107846098e-09,1.836119309034758,4.0578146694985634e-23,1.5337918214549745e-07,-8.568390132671221e-08,0.18907789768701827,0.0,0.0,0.0,-0.029906443593883517,3.5161609726668155e-08,4.395992179074872e-07,-5.937390734492817e-08,534.8038673146881,534.8040202930696,534.8036757126315,534.8038060313743
2.808,-1.2727567956242123e-07,1.1514356656263248e-07,1.849472787828328,3.2169040845486716e-06,-5.280675571128539e-06,2.431022231986548e-06,-1.491688435389186e-08,1.4099656210931655e-08,1.8460608285147504,3.8116548361135877e-23,1.985300117169087e-07,-2.7969067587584743e-08,0.1780409980556811,0.0,0.0,0.0,-0.018234310494605416,-8.341361363000112e-07,9.99430352818218e-07,-6.950623345355823e-09,535.1228654552476,535.1229186849348,535.1225730962271,535.1231635595644
2.8599999999999994,-1.1952133827171015e-07,1.1201021684479789e-07,1.8584048620567712,6.01904999966706e-06,-5.1648765687107335e-06,1.890631914683054e-06,-1.935656650272213e-08,1.8225404902340552e-08,1.8554299363987707,3.5796683635891527e-23,1.4050644801398225e-07,-6.36563191816262e-08,0.16760148490588309,0.0,0.0,0.0,-0.007110727205529466,-4.0461064799716635e-07,1.275678521588872e-07,1.4944575965701283e-08,535.4267665495611,535.4266773841116,535.4266873458465,535.4268586259933
2.911999999999999,-1.1406082596664451e-07,1.0647081431107593e-07,1.8668118736208867,2.2500309476843367e-06,5.051748417083672e-06,1.653083721555882e-06,-2.3728189442882558e-08,2.228678097709845e-08,1.8642567282345006,3.3611100625185845e-23,9.218812119273219e-08,-1.1052399329870526e-07,0.15773263811581506,0.0,0.0,0.0,0.00346710299748218,-3.559147982061028e-07,-1.5066756443596179e-06,-2.899761327497903e-08,535.7158953650812,535.7152962188043,535.7156819355546,535.7153117660379
2.9639999999999986,-1.0660824135361619e-07,9.987354207218959e-08,1.8747225700488555,1.1829292307528025e-06,1.12713716328435e-05,1.689095370846966e-06,-2.798104302281665e-08,2.6240330556614838e-08,1.8725699987400377,3.155266953057746e-23,1.5155057641575448e-07,-1.294303131911481e-07,0.14840334610239156,0.0,0.0,0.0,0.013554560300594959,-1.9392077353600491e-07,-1.1007510927630066e-06,-2.0453556348891266e-08,535.9910549151375,535.9906386671738,535.9909228153671,535.9906312617056
3.0159999999999982,-9.467487288350111e-08,9.287509394836609e-08,1.882164260384869,7.853735246143619e-07,2.703977625978933e-06,1.8312721905497359e-06,-3.206787669414753e-08,3.0042654653061484e-08,1.8803972677167593,2.9614576233021765e-23,2.431636302384014e-07,-1.3279569254608623e-07,0.1395901552103846,0.0,0.0,0.0,0.023150516394932534,-5.701952997831615e-07,-7.564200541238908e-08,-4.536352981959088e-08,536.2527154149841,536.2525078741818,536.2523775543686,536.2525364798695
3.067999999999998,-8.177740526329114e-08,8.573941152151758e-08,1.8891627994897184,-1.063059006646717e-06,-9.012572618169872e-06,1.7903290429565928e-06,-3.5927353376285604e-08,3.3655229230665266e-08,1.8877648094167154,2.779031502127451e-23,2.493705392543291e-07,-1.3938534882569996e-07,0.13126306331002527,0.0,0.0,0.0,0.032311678737812106,-5.876595097979246e-09,9.45367861072989e-07,-1.641600885907179e-08,536.5021560294107,536.5024577958496,536.5020982117753,536.502403753394
3.1199999999999974,-7.288194308344399e-08,7.929734217184031e-08,1.8957429894688957,-6.3629974327315975e-06,-1.261736405275517e-05,2.051631586495742e-06,-3.949978736973682e-08,3.7045467906468705e-08,1.8946976846965067,2.6073680630337852e-23,1.521932873731412e-07,-1.2061749932779925e-07,0.12340451540382587,0.0,0.0,0.0,0.04100614367049243,5.42280088561812e-07,5.822780132677507e-07,-7.461715351348832e-08,536.739139869075,536.7395009198417,536.739059861993,536.739072703738
3.1720000000000006,-6.954896480821205e-08,7.568268646247582e-08,1.9019283725231406,-6.94931204131677e-06,-4.806180315871076e-06,2.093232161002302e-06,-4.275148955441592e-08,4.018906980664508e-08,1.901219775370882,2.4458759735240252e-23,4.3642793711986745e-08,-5.6527595561320305e-08,0.1159906631989516,0.0,0.0,0.0,0.04925133198234906,2.54323195126867e-07,-4.6924428391070427e-07,-3.0973084782659326e-08,536.9638560852891,536.9637871115468,536.9638322682674,536.9636000566821
3.224,-6.855804580741285e-08,7.513628992839377e-08,1.9077415122132988,-1.7736532495021033e-06,2.6943424665291214e-06,1.7324543489907983e-06,-4.568572296103085e-08,4.308078906409215e-08,1.9073538202520388,2.2939922027422698e-23,1.6012922421156366e-08,3.024945295653778e-10,0.10900128977633457,0.0,0.0,0.0,0.05704532572353691,-3.2068435170737113e-07,-6.669097224574054e-07,2.2795588895568824e-09,537.1761233716014,537.1758065522596,537.1760282531673,537.1759171843635
3.276,-6.667184894294358e-08,7.5492703904521e-08,1.9132036016701208,2.234631141018017e-06,1.2412725202915866e-06,1.3102109245406154e-06,-4.832377223098936e-08,4.57343387040897e-08,1.9131214524257405,2.151181098487891e-23,4.320454436836535e-08,6.470166858843782e-09,0.10240902047960021,0.0,0.0,0.0,0.06445244945622493,-3.588777197833467e-07,5.276353804811764e-08,1.3515896416555206e-08,537.3775842804235,537.377486116089,537.3775151701764,537.3776471747982
3.3279999999999994,-6.433812505605854e-08,7.500437851634043e-08,1.9183346312086598,9.626998657622576e-07,-4.191986852458256e-06,1.0052800392575425e-06,-5.068438429289948e-08,4.817039936693711e-08,1.91854323737355,2.016933443279049e-23,4.3397349624344243e-08,-1.4490668089690865e-08,0.0961930595172665,0.0,0.0,0.0,0.07148893985131387,7.714805046398767e-08,5.368292359111825e-07,1.2315574768234748e-08,537.5688711553544,537.569067974752,537.5689377627286,537.5690851202432
3.379999999999999,-6.362581538188647e-08,7.425029063658672e-08,1.9231536548395904,-5.509249897893582e-06,-1.1375136944999439e-06,1.0822837711737077e-06,-5.278196398606157e-08,5.040511446284549e-08,1.9236387116024527,1.8907654978529467e-23,3.5251360107634574e-09,-1.2695958763873545e-08,0.09033621623069006,0.0,0.0,0.0,0.07815645947337159,9.853434750697976e-07,-4.94467339641981e-07,-2.1743352082130807e-08,537.7502801513116,537.7504374557566,537.7505220024113,537.750047787362
3.4319999999999986,-6.349349021115565e-08,7.57133544745423e-08,1.9276787471515304,-4.603498690930075e-06,2.878835774477741e-06,1.1061513920258944e-06,-5.463698770126623e-08,5.245153926564687e-08,1.928426421489449,1.7722180393431552e-23,5.523424061010607e-09,4.33783802721828e-08,0.08482020392624372,0.0,0.0,0.0,0.0844613086137137,1.890815693559931e-07,-4.7359185603156093e-07,-9.944988355103485e-09,537.9217961677903,537.921705023671,537.9218229473076,537.9216106569535
3.483999999999998,-6.22893635362263e-08,7.904368335588075e-08,1.9319270902879533,4.300200451002035e-06,-3.195717422836227e-07,1.0056537492089999e-06,-5.627273654979077e-08,5.433044506891783e-08,1.932923962089968,1.6608554003527908e-23,2.8780531558920458e-08,6.680258599910912e-08,0.0796268048094811,0.0,0.0,0.0,0.09042080157614255,-7.588737113132226e-07,2.2882476864001147e-07,-6.22915550103077e-11,538.0837910269985,538.0836212746015,538.0835477800231,538.0838640983312
3.535999999999998,-6.124325924887623e-08,8.059378839057408e-08,1.9359149022061501,7.815982787951188e-06,-4.635914637014607e-06,8.788202298415194e-07,-5.770651361462396e-08,5.6072054091322624e-08,1.937148015695633,1.5562645142339855e-23,1.400750882327702e-08,1.2728612954435608e-08,0.07473848867342955,0.0,0.0,0.0,0.09605023960132356,-4.984197167180997e-07,4.7522427778829226e-07,3.5131744893657834e-09,538.2366608470935,538.2366534206805,538.2365132005149,538.2368249291457
3.5879999999999974,-6.213244603138136e-08,7.883296908307737e-08,1.939657586122146,2.0002309313835835e-06,-3.299948881756371e-06,7.812301103666174e-07,-5.895340321628189e-08,5.7697775888136395e-08,1.9411143899594738,1.4580539710776291e-23,-2.8887420769217004e-08,-4.8520186998940114e-08,0.07013997709038196,0.0,0.0,0.0,0.10135388233637271,3.6894960672182266e-07,2.2776588299587858e-08,3.378034456167285e-09,538.3806598104999,538.3807851947244,538.3807893733161,538.3806785698134
3.6400000000000006,-6.443755860311124e-08,7.612902123755504e-08,1.9431695829882294,-3.865555011449791e-06,1.367503551726558e-06,7.222265634049571e-07,-6.003607972714031e-08,5.9209541184629024e-08,1.9448380554355629,1.365853088202518e-23,-4.7024832670109296e-08,-4.8194062409271717e-08,0.06581181527151773,0.0,0.0,0.0,0.1063739327664978,5.619701344352862e-07,-3.73320851167573e-07,2.0751592204665062e-09,538.5170208243525,538.5170811921716,538.5172076986219,538.5169084052711
3.692,-6.620937106680376e-08,7.498500466282064e-08,1.946464511626204,-2.2553451473673194e-06,3.0241962995393554e-06,7.097779855584412e-07,-6.098418110682003e-08,6.060025305240098e-08,1.9483331824055796,1.2793109983006407e-23,-2.6843173298308417e-08,-1.0926241245194242e-08,0.0617394633827022,0.0,0.0,0.0,0.11112448984822934,-1.3114223427055286e-07,-2.88003321431975e-07,-1.1777048010194386e-08,538.6461176205526,538.6459835259893,538.6460356998457,538.6459855162751
3.7439999999999998,-6.655913725314988e-08,7.469297029846958e-08,1.9495552917108943,5.168215536686694e-06,2.963913387069519e-06,8.596030692388206e-07,-6.182223263140822e-08,6.18715446496641e-08,1.9516131768873832,1.1980957578367274e-23,2.132428306432793e-09,-9.171217133030766e-09,0.057910649989235716,0.0,0.0,0.0,0.11560284815510735,-8.885771245046187e-07,-2.4105176809978764e-07,-1.8007548615405263e-08,538.7677994753599,538.7674381619414,538.7674541681776,538.7676612801132
3.7959999999999994,-6.56549601869479e-08,7.23602903332861e-08,1.9524541098691381,5.590220031720377e-06,5.224645030164208e-07,9.7290678301666e-07,-6.256485029862781e-08,6.30303461725164e-08,1.9546907157405122,1.121893477808347e-23,2.13976442046849e-08,-6.146345177063229e-08,0.05431043375111032,0.0,0.0,0.0,0.11983327804497494,-5.005365749645898e-07,-9.63546554402453e-08,-2.5818163525797206e-08,538.8825303827482,538.8823395069111,538.8822827444384,538.8824119950807
3.847999999999999,-6.447765799867965e-08,6.770110587282046e-08,1.9551725078510458,-8.801920869128004e-07,-1.0250277904810274e-06,1.0068808909438196e-06,-6.321826424619809e-08,6.407652634631225e-08,1.9575777808010437,1.0504074785401025e-23,2.2105387388825e-08,-9.772100697351117e-08,0.05092726931017415,0.0,0.0,0.0,0.12381786109722769,3.939215460683005e-07,6.215058494060303e-08,-1.1910789101270375e-08,538.9904473249844,538.9905931399815,538.9905328760246,538.9904268024851
3.8999999999999986,-6.377713474995803e-08,6.345627528788838e-08,1.9577213278734704,-6.979165627244945e-06,-2.421616180921351e-06,8.93270601714369e-07,-6.378551294851096e-08,6.499761250237983e-08,1.9602856919935125,9.833574698064378e-24,8.22840407075696e-09,-6.801953990490494e-08,0.047747691845004644,0.0,0.0,0.0,0.12757736534276864,6.382942117428051e-07,1.654444995205688e-07,-1.2252374258107836e-10,539.0923539921253,539.0926109141851,539.092557612986,539.0924064624685
3.951999999999998,-6.413027279963677e-08,6.219739398607306e-08,1.960110820197293,-4.840058812693359e-06,-1.9040979031301496e-06,7.481100324814713e-07,-6.427117638117028e-08,6.578069559014326e-08,1.9628251393810066,9.204787572461012e-24,-1.3671391359939333e-08,-4.186302420987581e-09,0.04476016894345877,0.0,0.0,0.0,0.13112507451723082,-1.7436180808013464e-08,2.8045266437047537e-08,4.203652695600851e-09,539.1886926848188,539.1886960755002,539.1887013628543,539.1887158987993
4.003999999999998,-6.531625707829478e-08,6.309211657868972e-08,1.962350592009734,1.4022527136656908e-06,-2.7158084619657836e-08,7.545254010383585e-07,-6.468520729809868e-08,6.643102407267441e-08,1.9652062141262028,8.615214757425758e-24,-2.545423162296766e-08,2.1572084814665244e-08,0.0419528156938795,0.0,0.0,0.0,0.13447844588563945,-5.196282247919636e-07,-1.2775968502463367e-07,-2.4810984339396756e-08,539.2797797304023,539.279572859068,539.2795295876459,539.2796548083662
4.055999999999997,-6.651837219939981e-08,6.350105309529597e-08,1.964449754786932,4.2306980964093675e-06,2.133490231011542e-06,9.73744005263954e-07,-6.50415590281167e-08,6.696694960609569e-08,1.967438438346232,8.062498501941727e-24,-2.029675507394855e-08,-2.0701020189562445e-09,0.03931769404203992,0.0,0.0,0.0,0.1376283757633876,-5.225212913697453e-07,-3.857270306693325e-07,-3.2722957122379893e-08,539.3652368786825,539.3649466959583,539.3649590378742,539.3650027432558
4.1080000000000005,-6.681924166095999e-08,6.217001323536548e-08,1.9664169215599492,9.404082108304561e-07,1.9681808659098684e-06,9.94485079615862e-07,-6.535304817005786e-08,6.740492302263331e-08,1.9695307938530089,7.544414838808633e-24,2.2073293093151835e-09,-3.5359431811602235e-08,0.036843484817828835,0.0,0.0,0.0,0.14059669208661651,1.603203913174504e-07,-9.020311961056338e-08,-1.2212340957284507e-08,539.4455115734655,539.4455339723919,539.4455214067788,539.4454413771663
4.16,-6.630002238802248e-08,6.045042080627245e-08,1.9682601426376256,-4.32668116430435e-06,-1.4370359933091566e-06,8.398000606321258e-07,-6.562717444403138e-08,6.775158073123167e-08,1.9714917497781903,7.058866744486199e-24,1.0790069389320676e-08,-2.6321390829973042e-08,0.03452009060102927,0.0,0.0,0.0,0.1433988095146816,5.24201602611545e-07,3.01806232570309e-07,1.5571132550669503e-09,539.5213169064698,539.5215807371134,539.5214896143142,539.5214185802264
4.212,-6.635505701079548e-08,6.053500902837233e-08,1.9699870583625805,-3.977047556978393e-06,-2.8101248608504503e-06,6.640398948006325e-07,-6.586601071834721e-08,6.800867946439433e-08,1.9733292890883607,6.603877573725961e-24,-9.267786804466088e-09,1.6925090378384298e-08,0.0323411645545298,0.0,0.0,0.0,0.14602261246605963,1.0811954989990088e-07,2.049861105281939e-07,5.725917238393583e-09,539.5924983642033,539.5925983583919,539.5925522902486,539.592583225789
4.263999999999999,-6.758042096067633e-08,6.232756224359001e-08,1.9716048872312697,7.563582781205516e-07,-4.056162997462002e-07,5.395905685452602e-07,-6.607298481754264e-08,6.818610927825802e-08,1.97505093400151,6.177584766251413e-24,-2.9059929332508287e-08,3.903551646017327e-08,0.030296970344689922,0.0,0.0,0.0,0.14848735734318408,-3.665215755658104e-07,-1.5022225296609232e-07,4.963414771754407e-09,539.6594196564399,539.6592546482929,539.6593194293451,539.6593884986738
4.315999999999999,-6.89946919927338e-08,6.385866138601307e-08,1.9731203488026943,2.9864070443153445e-06,2.03139018808656e-06,4.7266696262312715e-07,-6.625711453505548e-08,6.830259042721415e-08,1.9766637703204903,5.7782338216030954e-24,-2.328981618495972e-08,2.1117512262415136e-08,0.028378583225861342,0.0,0.0,0.0,0.15080922405617686,-2.546254156412932e-07,-2.3338262497329197e-07,2.880963231891918e-09,539.7223269380007,539.7221711240136,539.7222553967587,539.7222621792778
4.3679999999999986,-6.955860106987413e-08,6.413856952349991e-08,1.974539764015894,5.7178189165495e-07,1.4335790527331855e-06,4.4440756525725397e-07,-6.642853937630957e-08,6.837537745605929e-08,1.9781744707029847,5.4041725373116356e-24,-4.195182408115824e-09,-1.1742604138733657e-09,0.026578828428980204,0.0,0.0,0.0,0.15299418488975214,1.6862417476370403e-07,9.45857765852065e-09,1.1499416418679874e-09,539.7814158814837,539.781472734524,539.7814736089656,539.7814227952407
4.419999999999998,-6.948587479785614e-08,6.412775503806745e-08,1.9758690815921511,-2.052084482363864e-06,-6.258527414412006e-07,5.613452191124559e-07,-6.659221658419234e-08,6.841342858014166e-08,1.9795893168907066,5.053845504773179e-24,2.2315203113341155e-09,3.5245869022167605e-09,0.024890759329388005,0.0,0.0,0.0,0.1550498791119425,2.7099215595733014e-07,1.8416851673989435e-07,-1.8429014781706077e-08,539.8370892910286,539.8372345863861,539.8371133959704,539.837085680322
4.471999999999998,-6.963391793907618e-08,6.49356960919441e-08,1.977113892981979,-1.1906232999706231e-06,-1.0171101130118277e-06,6.348871537360264e-07,-6.674866788652306e-08,6.842186693756207e-08,1.9809142209231423,4.7257888565597204e-24,-6.5175960735149435e-09,2.188635144555862e-08,0.02330743984884153,0.0,0.0,0.0,0.15698535281981105,-1.5709918698391417e-08,7.212713795803344e-08,-9.75008629403265e-09,539.8895609501017,539.8895789577302,539.8895229251576,539.8895509615835
4.523999999999997,-7.019249897187155e-08,6.624021801425976e-08,1.9782794656183302,1.340191669741374e-06,4.4539082791183094e-07,5.909154830006727e-07,-6.68986352947994e-08,6.840855308566581e-08,1.9821547453632267,4.4186252583836464e-24,-1.1669361548739455e-08,2.4051560841027273e-08,0.021823172897738618,0.0,0.0,0.0,0.1588028683076367,-2.2347958824270107e-07,-1.149981103731584e-07,-1.4798336407217109e-09,539.9388331206637,539.9387250929155,539.9387567856777,539.938791408372
4.5760000000000005,-7.056748173678386e-08,6.698890261499756e-08,1.9793707669437355,1.818189178037129e-06,1.3817688962597554e-06,5.088526198181352e-07,-6.704497449932382e-08,6.83837453069453e-08,1.983316122563944,4.131059138535413e-24,-3.3734044170253475e-09,7.861402831205084e-09,0.02043190941054508,0.0,0.0,0.0,0.16051038924305155,-8.805977279662954e-08,-1.0873084617099893e-07,2.030033544199781e-09,539.985044687276,539.9849818854213,539.9850234565351,539.9850168597688
4.695999999999998,-6.980416907336302e-08,6.698844236696878e-08,1.9816287444549332,-2.1883222674078246e-06,-1.7044642280760208e-06,3.8864560321288316e-07,-6.737384517532478e-08,6.830404005430273e-08,1.9856091537222602,3.563286607370795e-24,5.124888069393002e-09,6.913883795098046e-09,0.017480209496145836,0.0,0.0,0.0,0.15160414962769858,3.286288698570719e-07,2.6931162511548695e-07,2.9608932574717156e-09,539.7436893667763,539.7438802730063,539.7438043164013,539.7437853780095
4.7479999999999976,-7.017878352476828e-08,6.804980351724164e-08,1.982498807637081,-3.0132632566009853e-06,-4.010933179101658e-06,3.806022997264955e-07,-6.751401455070598e-08,6.826685432374261e-08,1.9865364295376204,3.3336858298735534e-24,-1.6853602288526082e-08,2.936550008737028e-08,0.01622500750962091,0.0,0.0,0.0,0.1628838336870967,4.890782220855947e-07,7.265925340887861e-07,-1.1251540006241117e-09,540.0490916001744,540.0494795114096,540.0492438530554,540.0493196420553
4.800000000000001,-7.226695881364173e-08,7.037554803929224e-08,1.9833051459774977,-5.148654230106442e-07,-2.4477120490032825e-06,3.8075720540527446e-07,-6.76505760624524e-08,6.823223014820886e-08,1.9874052485806815,3.1185594084929556e-24,-5.38240119693216e-08,5.2044568320926406e-08,0.015039996196589935,0.0,0.0,0.0,0.16576433761147885,-4.023192035743828e-08,1.4330206932817016e-07,-9.878086337283663e-10,540.1272554391621,540.1272883233094,540.1272392603979,540.1272978162341
4.852,-7.529383245482011e-08,7.284489970401955e-08,1.9840544227384185,4.548603434390603e-06,4.702587402388952e-06,3.7239986558728517e-07,-6.779193398907378e-08,6.821286537468733e-08,1.988219182492298,2.9170229768910273e-24,-5.274830466054059e-08,3.871429376013134e-08,0.013999927214729656,0.0,0.0,0.0,0.16809906339161637,-4.849926193094098e-07,-6.29388484709929e-07,-3.190497182672763e-10,540.1906504367519,540.1902949392087,540.1904946402011,540.190448576628
4.904,-7.631335229814061e-08,7.33617013588898e-08,1.984753441264507,5.012122882817535e-06,7.160259654977609e-06,3.594483233898491e-07,-6.795199826091365e-08,6.821994168527758e-08,1.9889815948887866,2.728243677239707e-24,4.685234378929258e-09,-9.061175024510535e-09,0.013079501043524084,0.0,0.0,0.0,0.16995600775729278,-1.9071212817100945e-07,-4.0665971698243634e-07,5.5938722063753384e-11,540.2408302581159,540.2406397088821,540.240769614175,540.2407007313711
4.9559999999999995,-7.426362141290914e-08,7.170606011946621e-08,1.9854076665277562,5.74491267342119e-07,1.8743813925771192e-06,3.6917702212663526e-07,-6.813476056916574e-08,6.825437284346635e-08,1.9896956525329237,2.5514373941943157e-24,5.519243912470824e-08,-4.088219233647492e-08,0.012255213304504842,0.0,0.0,0.0,0.1714175936078531,3.0555782915154897e-07,3.23922278812609e-07,-9.565634535551897e-09,540.2802091271084,540.2804099035048,540.2802742239601,540.28028008141
5.007999999999999,-1.1574948136861489e-07,6.973344011888768e-08,1.9860213428068014,-2.5435032886802335e-06,0.004424696683797654,4.5551415811047414e-07,0.00010037108084092768,6.830522086744867e-08,1.9903643359969236,2.385866114656258e-24,-4.615260124703679e-06,-3.1898955952308894e-08,0.011496154986076037,-2.809734339941496e-07,0.00762916866247178,1.0938680317744432e-08,0.17275720346422718,3.526121754461175e-07,0.21641827070756334,-1.0113482798686746e-08,504.6261213833309,573.791301860714,504.6262051637801,573.7911637435834
5.059999999999999,2.7768558743919888e-05,7.019251184496513e-08,1.9865834855446758,-0.00015018835263128365,1.4032046813842753,-9.975117932912714e-07,0.00292629381632164,6.834007882351804e-08,1.9909904498308157,2.2308354100028978e-24,0.0017184678720742464,8.695939943670927e-08,0.010371154805573319,-0.0001286107540036109,0.9898134062521265,1.7591140996793885e-07,0.17802660413462287,5.0917091691647704e-05,0.3419845660003341,6.461721493988487e-07,482.8596321961682,592.4832150456243,482.8802494398886,592.4703990352529
5.111999999999998,0.0008061735328930091,1.650246869105818e-07,1.9870806163801917,-0.0013670328094159624,7.298547105966446,-6.326009493919893e-05,0.01173576077021114,6.834471445088408e-08,1.9915766322504884,2.0856920372516162e-24,0.029043156427695605,3.954012765542192e-06,0.012155845793225673,-0.000623879859977189,2.533291670346306,8.681206741964393e-06,0.18948789332401256,0.00031578740384715775,-0.10203623313656379,1.513320907933356e-05,556.7159319935846,524.2848046949488,556.8633485950958,524.2337679881688
5.163999999999998,0.004883144074838198,9.010295248612647e-07,1.9873042223544153,-0.0037935807571637687,14.822198699665663,-0.00028207250609267923,0.02765927861455393,6.882074749466876e-08,1.992125364360319,1.9498216554648283e-24,0.1164905835851326,2.2445961282801887e-05,0.029543449000283502,-0.0008103233480700715,2.2066964107307387,6.757182065501758e-05,0.26973675163595634,0.0006915691352857929,-0.41729460816172403,2.8950247425265205e-05,605.4061038348941,472.1586789301607,605.6902972660488,472.01832960400486
5.2159999999999975,0.01544983394211372,3.2874865383440664e-06,1.9867929344529223,-0.005199947724066179,18.130109999404265,-0.00019964474360882972,0.05071037602995937,7.306608230340428e-08,1.9926389789257635,1.8226466535867167e-24,0.2562267001801323,5.802484642271266e-05,0.06599738608069719,-0.00019252730281297192,0.30039555835084697,0.00013188886076413261,0.431296976359379,0.0008743755857723019,-0.24074364491560468,-2.260105616228625e-05,583.8491213336285,508.14227117847935,584.0364087520236,507.7643044316222
5.268000000000001,0.033987824226586576,7.9650068208155e-06,1.9855192880538868,-0.004767607566942356,16.50340302246761,0.0002614251235833385,0.08028343120749605,9.077496086172868e-08,1.9931196687116202,1.7036240858248034e-24,0.40780345131463064,9.841842283923465e-05,0.09320773914528567,0.0001799027843810618,-0.8907616649605876,6.0746000053702123e-05,0.568455200673532,0.0010322568879912516,0.13496581714851316,-4.521564991328674e-05,529.3020977500114,571.8676494721597,529.481993195015,571.4118845646761
5.32,0.05988678617078015,1.4862072054128891e-05,1.9840499901699855,-0.004791709022065203,14.406730007962652,0.0004256445264491166,0.1155967370647514,1.4117034525093207e-07,1.9935694944018274,1.5922437106452018e-24,0.538850989462861,0.0001358306473359595,0.11167904294516122,-0.00022068018942051558,-0.4032697122712149,-3.803528451428422e-05,0.6096246387039854,0.001454773369964651,0.19493233930698875,-1.4159415049151268e-05,520.4818451692242,581.8817774358204,520.9135983268703,581.4062692657135
5.372,0.09219108167067286,2.4001809756282663e-05,1.9828834882113942,-0.006003260393342645,14.819330497464064,0.0002561547856937974,0.15588963975497858,2.5271745985734366e-07,1.993990392116745,1.4880261294345828e-24,0.6526708274960458,0.00017640934707993685,0.15127628588780365,-0.0003998440461596939,0.42530876832930364,-2.664620424601838e-05,0.5966959008339242,0.0019905633287536626,-0.051227697338458764,7.815158733561191e-06,559.2945845600706,543.9124888902036,559.9330788380628,543.3077544045333
5.4239999999999995,0.13090922624722215,3.583124101050827e-05,1.982057725837153,-0.006035675885931374,15.989144644430196,0.00018845941048577187,0.20045805406001144,4.579897945590239e-07,1.9943841805438223,1.3905210208911465e-24,0.7698612792544939,0.00022520804927366546,0.2054312910764134,0.0003769427910417831,0.20946084306520718,5.343014676004852e-05,0.589962096808482,0.0022606211011305687,-0.1914270847029102,-1.8825321192879033e-05,580.3237074156598,521.1325732594134,580.9353751035634,520.3183756818544
5.475999999999999,0.17638055855408252,5.026970051915934e-05,1.9814707286693152,-0.003087551354574642,15.0190767256627,0.0004816407742538304,0.24867752904745846,7.949344566827446e-07,1.9947525676974311,1.2993054672365844e-24,0.8960300009491016,0.0002718586448042689,0.23395978481240043,0.001261683305170417,-0.6931725729904825,7.000897034639922e-05,0.5787468443616437,0.0022455575267946856,-0.04918751559356192,-4.988745067562363e-05,558.5655513672403,543.8904977501567,559.0948328108536,543.0106465846463
5.527999999999999,0.22805542574765547,6.59795545306946e-05,1.9812353434635042,0.0005276744129823299,12.144440586490846,0.0006864104758713323,0.30001851466265667,1.3107445122252965e-06,1.9950971573234568,1.2139823683889153e-24,1.01174235790749,0.0002921351377832335,0.2217344023647126,0.0009805273474014211,-1.0122426779287135,3.592598482951508e-05,0.524665251956088,0.0023696601137747067,0.14311076694662575,-3.675506061925885e-05,526.5268967714316,572.1630668717283,527.1744597942936,571.3313406240798
5.579999999999998,0.28454173135668714,8.132793050402575e-05,1.981539471569852,0.0012359764461272378,9.979167716055171,0.0007513664054980026,0.35402810537703305,2.0489507935771783e-06,1.9954194549639859,1.1341789402987001e-24,1.0981268838635772,0.0002785532457446233,0.2059536734283475,-0.00014179315721228394,-0.46325160741498095,4.348585023045559e-05,0.4339305112184425,0.002884431110745054,0.12141984998321581,-4.2160375569873937e-05,527.4809399088239,566.6372385956978,528.2765713497269,565.6231155223498
5.631999999999998,0.3447198621305203,9.587749909962397e-05,1.9823732622360726,0.0010550558707109487,9.639925959516821,0.0009212034940502929,0.41034481719867894,3.0476446620250924e-06,1.995720873697116,1.0595452937262022e-24,1.1636834826734712,0.000259710544683179,0.2169922427646715,0.0001510734220899761,0.0478309254948216,6.59165013448396e-05,0.34443059600739034,0.0031519532892196876,-0.03172698099933019,-5.816792712877446e-05,549.5389234537558,540.5040343357625,550.3332664223967,539.3010643232113
5.6839999999999975,0.4082635220360542,0.00010965465119649021,1.9835430544507358,0.0031488733760484194,9.592647013429408,0.0011235145993057501,0.4686454414089532,4.328504332295724e-06,1.9960027395665887,9.897530898222904e-25,1.2262630879380525,0.00024384781844780258,0.2326349598801499,0.0010264519228496932,-0.14871110895877804,6.756128461879552e-05,0.2776269400450424,0.0030643901956225604,-0.08398781374932865,-6.486469610336924e-05,555.9429736953267,530.2661934424204,556.6790863268986,529.0453285073709
5.736000000000001,0.47501606231808896,0.0001217626638867698,1.9848672725422731,0.006189424247635774,8.296690487919664,0.0012012520237399532,0.5286726372845514,1.802674626368662e-05,1.9962662967155471,9.244942689693413e-25,1.2882990383132111,0.00020864563138701784,0.21796771953848498,0.00041097418985874877,-0.6043703882906757,5.984170930527496e-05,0.2259038923860912,-0.023302036944804587,0.019667451385800446,-4.8890682424115705e-05,542.4130578787685,541.2571118473354,534.7916579592114,548.4629455476258
5.788,0.5443273556869134,0.00013393133082871062,1.9862625002791006,-0.15968600403586664,6.34114142151019,0.0005634844208772218,0.5901984360042867,0.00035823489266893635,1.9965127122383342,8.634798494383472e-25,1.3365802403157292,-4.363067102172248e-05,0.17954981939394857,-0.11991888845806913,-0.6151975709288783,-0.0014994801856062021,0.1798985031413315,-0.03735158530984304,0.1049213114536974,7.723527660718847e-06,529.615620456822,551.1630356291648,517.3467624599119,562.7452314925227
5.84,0.6152767665668553,0.0002328259394668693,1.9876745811647796,-0.8702296555808055,5.170106734013483,1.7297694815129454e-05,0.6530232761744846,0.001422258843861743,1.9967430807638091,8.064387925232792e-25,1.3654708820303711,0.0016204663681258255,0.15195204479012955,-0.3059572740808904,-0.22343368023895835,-0.003758124014227942,0.14261094348097547,0.016123436244537655,0.05499886251438651,0.0002244789149590959,527.6304022977754,550.3691726600374,533.6398099159454,546.0493646079228
5.8919999999999995,0.6872812182479803,0.0007278681014289517,1.9890258104082685,-1.7769174495333702,4.992971964161126,-0.005256437902937505,0.7169681817184343,0.0033399124181548744,1.996958428783234,7.531169309224868e-25,1.384419492896269,0.010314933706157516,0.14650961866597062,-0.26326069350173814,0.000994444097206065,-0.0014777888317090587,0.1201975337498696,0.05402441306036403,-0.012271544631665285,0.0005364373937511023,531.2525290604468,544.6277860650999,550.2816740974673,529.1133529273538
5.943999999999999,0.7601965763242019,0.0020042852885924435,1.9902367731803232,-2.1546003699643883,4.812232011039561,0.005021272806551035,0.7819248092372869,0.0061021362081181,1.9971597187353252,7.032759572478713e-25,1.402148187332014,0.026433923506714873,0.1420874423264268,-0.028414797786080553,-0.1375233270923512,0.0023117875520166646,0.11188040714922781,0.028281559846226177,-0.021511040742931163,-0.00227819227095044,541.4417746600457,543.5923682335226,542.7503256406062,526.7037469192715
5.995999999999999,0.8339052345211085,0.004223614511655942,1.991268873742743,-1.955388003335123,4.033549952061624,0.0321633363796977,0.8477900155036298,0.009654786783744403,1.9973478528606126,6.566924696552786e-25,1.4172991154220629,0.044823090133390954,0.12213231587623723,0.09969010200591032,-0.32342759028613294,-0.003613202858383578,0.1114577713805933,-0.0182939654977173,0.03291473568819129,-0.003165939196087844,541.6795516931714,546.3110858689233,524.9168947900391,541.4673454177062
6.047999999999998,0.9080539760346883,0.007297923477546184,1.9921226789019761,-1.768239273739005,3.1176543752416155,0.03327701161971967,0.9144649852893688,0.01393263588043763,1.997523676836792,6.131570717028258e-25,1.4242452722584091,0.061323421480562426,0.09624485961496441,0.017447596589956305,-0.2576006520654685,-0.012845849883536774,0.11486960513523688,-0.020038055343875656,0.0584545429179994,1.980088722412245e-05,532.5342551794646,544.8238440397729,526.0788732607596,551.1910269217864
6.099999999999998,0.9822349873820769,0.011132738271079788,1.992810315647164,-1.9263979003868108,2.7361732512060186,0.004998373505675225,0.9818685705049766,0.01886797348484823,1.997687983206296,5.724735236570904e-25,1.423350412794451,0.0767986324575108,0.08282911007624508,-0.08628722823228666,-0.03847653708582714,-0.012274954218950657,0.12142908872599115,0.012824829859804989,0.040796979559802646,0.002563364910134766,525.8468891079565,543.1351315488274,538.8006333437377,547.6739514770389
6.1519999999999975,1.0562663283662148,0.01577346337129959,1.9933443873466725,-2.1404158662736235,2.8313015625477975,-0.019279951685996104,1.0499392422115938,0.02439424511043193,1.997841514606861,5.344579425796047e-25,1.4203311434683925,0.09340780548394866,0.08261867203078639,-0.04088630184062122,0.050396108617291754,-0.0028844008157257,0.13044829288330184,0.027431587380294234,-9.321040820783194e-05,0.0018007183171719896,531.6973324472731,540.4852055723522,546.5705800362665,537.8224099962999
6.204000000000001,1.130175459876258,0.02129274495561106,1.9937434562537977,-2.050842134358767,2.847081672358647,-0.014853950079854994,1.1186288674220368,0.030457691370580717,1.997984966815411,4.989380486373681e-25,1.418457940571248,0.11045489122139815,0.08161797349012405,0.07509447242865651,-0.03957965758827605,0.00365370952736103,0.14004042797608532,0.007884315869555477,-0.0063409156536328,-0.0008384627592825378,540.6032086082369,541.094967520528,540.2813516337808,535.7249256607139
6.256,1.2039677389498318,0.027638796530919628,1.9940351956411093,-1.6423518631857354,2.556192487662058,0.004427623159269838,1.1878811488242391,0.036750264129540265,1.9981189916151394,4.657524551906911e-25,1.416074466945822,0.1255883731641314,0.07265630250334784,0.1938458899956918,-0.12122274616669618,0.0025519910253489365,0.1481933444813767,0.04371161510810247,0.03889398307723578,-0.001760383780676117,529.3451930827291,555.5865828283543,537.4346760108072,535.8877012717878
6.308,1.2775244832025232,0.03460621735564141,1.9942468563581481,-0.7536841123078566,2.2768687937225156,0.014043481765332514,1.2576627047456308,0.04271417888870383,1.9982441994952367,4.347500003191513e-25,1.4107926739503316,0.13594254292790148,0.06201044933390694,0.3590532489217368,-0.0564516880534648,0.00014297885246940004,0.15487608826716223,-0.0016164229718070265,0.047280575211730944,-0.0008065564316153987,533.8766116864796,548.4181259225554,530.5832145985959,546.2334264255314
6.359999999999999,1.3507307266615611,0.04178890886864444,1.9944017592823522,0.34060903473908427,2.3259540344075322,0.010845403708314858,1.3279397081465618,0.04808090080057069,1.9983611621922903,4.057891175516787e-25,1.4037695832222745,0.13739536618673384,0.05863501639490328,0.33954472925594403,0.06031501023142098,-0.002163026811284638,0.1600548918141254,-0.04347613812321996,0.01830552579472542,5.130543806546126e-06,543.9656791644089,535.9324385202264,530.0314269366062,549.7512505016538
6.411999999999999,1.4236080173092032,0.04870053607717464,1.9945148340474983,1.0031176483324669,2.546507306169908,0.002561689194741415,1.3986447084841829,0.05277616989852373,1.9984704150819577,3.7873724366921883e-25,1.3979685470854073,0.129973752922326,0.06147120771674479,0.13203572894002424,0.06622124211756757,-0.004617917649633557,0.16471835296293325,-0.02911110555921208,0.0008031101364658344,0.0007636221278937657,543.313221221717,534.2591806342771,536.6075921730002,546.1297263158591
6.463999999999999,1.4962537065930206,0.055041739245874355,1.9945956156616595,1.0855168671074578,2.6167706274661544,-0.009389454813939943,1.469739476245821,0.056816754151076135,1.9985724594291214,3.5347026154817812e-25,1.3940130292155672,0.11848775439134954,0.06287906257525386,-0.018739242365496223,-0.007299943093401947,-0.003615520434341707,0.1687830338844119,0.012591636005111064,0.009294783067364929,0.0012587134921961311,534.5590457798372,541.5686048573593,542.8578689337114,541.8103003639143
6.515999999999998,1.5687058032204095,0.06076686762551891,1.9946545573160135,1.0529407216601714,2.518567025987701,-0.01409875418439883,1.5411790785654593,0.06025522415548317,1.9986677645043467,3.298719761095598e-25,1.3902570463040012,0.1069548491452323,0.06044565439295866,0.01472082501184401,-0.037151786227706374,0.000939055342290516,0.17175650324175312,0.021512604655039933,0.02744143336944715,0.00038706484497188554,531.7604370941298,547.3949486781033,539.9986372387934,541.8873555285354
