Time_s,X,Y,Z,Roll_deg,Pitch_deg,Yaw_deg,Ref_X,Ref_Y,Ref_Z,Ref_Yaw,vx,vy,vz,p,q,r,T_pert,tau_x,tau_y,tau_z,RPM_0,RPM_1,RPM_2,RPM_3
0.0519999999999996,-1.260304222361821e-21,-2.0,0.010154991784231685,3.9219029535885256e-17,-9.582979292490988e-18,-2.0647502753396235e-19,-1.670692868119304e-21,-2.0,0.016315732795559035,-2.3553428001834227e-21,1.418936442989594e-20,6.793652166250803e-22,0.0009999785910848671,0.0,0.0,0.0,1.9188685257061033,-3.1454787941873783e-18,1.9719817631020737e-18,2.7536545508437178e-19,585.6674305707741,585.6674305707742,585.6674305707741,585.6674305707741
0.10400000000000276,8.953267977514232e-22,-2.0,0.010761003583628663,2.6715305941206843e-16,1.3298588466183137e-16,2.7398270661829182e-17,-1.6567612864718457e-21,-2.0,0.03285728861272521,-2.335702056420958e-21,-6.5608654944745695e-21,1.319812551948824e-19,0.03586915065181638,0.0,0.0,0.0,3.566603698223578,-8.323812840004084e-17,-5.821637381461887e-17,-3.3657594072939458e-18,625.45482114477,625.4548211447701,625.45482114477,625.4548211447701
0.15600000000000236,1.9296888283353666e-19,-2.0,0.017138860603299787,1.2095985412830427e-15,3.913394686052183e-15,-1.3409220382622817e-16,-1.6354730010178185e-21,-2.0,0.05813376984799201,-2.3056898316552906e-21,-4.774349806471286e-19,4.592902382625176e-18,0.19117597970094277,0.0,0.0,0.0,4.1335637709648765,9.905741025351311e-17,-1.091832066663933e-15,3.5110815301506724e-17,638.5720530402235,638.5720530402233,638.5720530402236,638.5720530402234
0.20800000000000196,3.050137132924108e-18,-2.0,0.03309278899678485,1.515274890659595e-15,8.362936008956711e-15,-2.3491044289055633e-16,-1.6080170858371326e-21,-2.0,0.09073333858077527,-2.2669824825205137e-21,3.816366556819321e-17,5.819577054481179e-18,0.3873169045374031,0.0,0.0,0.0,4.124700500868026,-7.854432928971086e-16,-5.701832187890306e-16,-3.365813027823481e-17,638.3690656123115,638.3690656123113,638.3690656123111,638.3690656123113
0.26000000000000156,9.808405727649861e-18,-2.0,0.059434810156062334,1.334161672460443e-14,-1.1722435871981385e-14,5.686156463724773e-16,-1.5754448245604405e-21,-2.0,0.12940776131568626,-2.221062108675791e-21,2.172827607807876e-16,1.27653275114597e-16,0.5862052360994705,0.0,0.0,0.0,3.7876950532919675,-1.7502214063692144e-15,2.591990517446792e-15,-1.2487082346230075e-16,630.6024632359548,630.6024632359552,630.602463235954,630.6024632359552
0.31200000000000117,9.327655219542248e-18,-2.0,0.09569482107151356,1.653407851158512e-14,-2.6989616449600554e-14,1.5016376154058872e-15,-1.5386837719677379e-21,-2.0,0.17305571305208667,-2.1692363768470223e-21,2.3421287810554175e-16,2.271154539084221e-16,0.7696450276596296,0.0,0.0,0.0,3.2635246526846933,-7.335960526971218e-16,3.5293457159401936e-15,-1.0925431994075111e-16,618.3286349845963,618.3286349845971,618.3286349845957,618.328634984597
0.36400000000000077,-6.223523850258171e-18,-2.0,0.14071959049363658,8.700153486965539e-15,-8.816059204468485e-15,1.5699882725356319e-15,-1.4985504736988856e-21,-2.0,0.22070767463408855,-2.1126564530746988e-21,-2.0473235422244352e-16,1.541532466244742e-16,0.9270734918839562,0.0,0.0,0.0,2.6589618041733747,2.037819217269362e-16,-2.392364787777245e-16,-2.5830840119920862e-17,603.8626401814021,603.8626401814022,603.8626401814021,603.862640181402
0.41600000000000037,-2.614081899670134e-17,-2.0,0.19299844769476623,4.559338486072036e-15,2.5747712090862746e-14,8.276639772845661e-16,-1.4557619669658767e-21,-2.0,0.27151227746871315,-2.0523332164180164e-21,-7.510832643977804e-16,8.70048427557574e-17,1.0542405833087019,0.0,0.0,0.0,2.0432272867634222,-1.918938546629205e-16,-3.614957037620389e-15,3.0428093797071515e-17,588.764099046161,588.7640990461599,588.764099046161,588.7640990461601
0.46799999999999997,-3.222912119085961e-17,-2.0,0.25092753952006164,1.1483032482528827e-15,3.565436717391516e-14,4.461160540620325e-16,-1.4109461742089226e-21,-2.0,0.32472396269865006,-1.9891519119311963e-21,-6.864366639500029e-16,3.017787725665134e-17,1.1503514419883927,0.0,0.0,0.0,1.4644969900505589,2.0481599256679736e-16,-3.277367266046016e-15,-6.368212147432729e-18,574.2111240051086,574.2111240051076,574.2111240051086,574.2111240051075
0.5199999999999996,-2.018376698405598e-17,-2.0,0.31292818255211996,-1.9580302256509837e-15,4.511850811696135e-15,2.1130869680930708e-16,-1.3646512916470248e-21,-2.0,0.37969183377928195,-1.9238853866420514e-21,1.4289448231325488e-16,-4.084126680813893e-17,1.217016061566556,0.0,0.0,0.0,0.9517687782039628,8.888630575263663e-17,1.968491795367999e-15,1.3892778609993082e-17,561.0025593804606,561.0025593804614,561.0025593804608,561.0025593804613
0.5720000000000027,-5.369815268829598e-18,-2.0,0.37756808336153497,1.6110421370247224e-15,-2.821822725355675e-14,-6.823140784627695e-17,-1.3173542655562944e-21,-2.0,0.4358495922351229,-1.8572060394091316e-21,7.934534966898751e-16,2.7686406746830967e-17,1.257462711796936,0.0,0.0,0.0,0.5188515337497772,-5.177923065750819e-16,3.513994971823024e-15,2.9179893440193554e-17,549.6029202897068,549.6029202897079,549.6029202897067,549.602920289708
0.6240000000000023,-3.7361985154251475e-18,-2.0,0.44360617653834766,1.4178035496362734e-15,-2.48776267024696e-14,-8.782597111301663e-17,-1.2694684407905704e-21,-2.0,0.4927064562479598,-1.789696603806071e-21,5.084776071153814e-16,4.478747549032227e-17,1.2757397970691087,0.0,0.0,0.0,0.16793622975545608,4.2507021275463354e-16,7.439297217851184e-16,-1.0307719781100167e-17,540.1860644179869,540.1860644179873,540.186064417987,540.186064417987
0.6760000000000019,-1.3098844704217244e-17,-2.0,0.5100189601787872,-3.608442200797317e-15,1.4637759092303183e-14,5.176209689827142e-17,-1.2213504584698813e-21,-2.0,0.5498389707397592,-1.7218598724827567e-21,-4.4242728174651114e-16,-8.081472400699546e-17,1.2759756646109064,0.0,0.0,0.0,-0.10490999398130318,1.3641137161636932e-16,-3.576261262969128e-15,3.979897710078844e-18,532.7491897867411,532.7491897867401,532.7491897867412,532.74918978674
0.7280000000000015,-1.6627621281457584e-17,-2.0,0.5759904874862339,-4.437471912103163e-16,2.6579794108567053e-14,-1.3419193553732872e-16,-1.173306472840189e-21,-2.0,0.6068836258322902,-1.6541274616941737e-21,-5.728523207431559e-16,-1.874187159902464e-17,1.262096798484613,0.0,0.0,0.0,-0.30787202831580296,-4.190254372979289e-16,-1.7234640897164767e-15,2.3807710501685406e-17,527.1490785575137,527.1490785575131,527.1490785575137,527.1490785575132
0.7800000000000011,1.0198204488654372e-10,-2.0000000001019727,0.6408988374706837,-1.7006115717224312e-05,-1.700729030304725e-05,-1.6560982111969842e-06,-1.1255977509946171e-21,-2.0,0.6635302080613917,-1.586867705787383e-21,2.3765127393934215e-07,-2.3763736382121032e-07,1.237652404846961,0.0,0.0,0.0,-0.45134752319131155,7.790880741890875e-06,7.791565336934598e-06,5.413990312048436e-07,523.1506373737432,523.1557701995766,523.1550953135508,523.1550955390542
0.8320000000000007,-9.969799116716364e-09,-1.9999999900312224,0.7042925365661075,-8.408437101359852e-05,-8.408725334865725e-05,-6.142770850974477e-06,-1.0784457133896936e-21,-2.0,0.7195158155589632,-1.5203927633212949e-21,1.3120016999813605e-06,-1.3119432474795091e-06,1.2057239185784308,0.0,0.0,0.0,-0.546813579661818,1.140415424167377e-05,1.1402528153097683e-05,4.7228671558593006e-07,520.4744008637031,520.4819519489802,520.4798353274721,520.4798347890907
0.8840000000000003,-5.277203581750261e-08,-1.9999999472290548,0.7658615888677075,-1.044452490775299e-05,-1.0384113577289893e-05,-6.297086011962755e-06,-1.0320364678414892e-21,-2.0,0.7746194746476823,-1.4549650090944168e-21,-5.833851797902138e-07,5.823740624453491e-07,1.1687793752368232,0.0,0.0,0.0,-0.6046996338579047,-3.963714762563312e-06,-3.975446588000348e-06,1.449424829020028e-07,518.8512722943611,518.8486354613292,518.8504664536903,518.850462557204
0.9359999999999999,-9.935163752205328e-08,-1.9999999006658793,0.8254065310872047,0.00010152289787499936,0.00011075557655066541,-4.0793133529714504e-06,-9.865248849020056e-22,-2.0,0.828657300974344,-1.390802779610471e-21,-2.6704788674208405e-06,2.5456018957408163e-06,1.1287463564500566,0.0,0.0,0.0,-0.6342936249195477,-1.1107400995752385e-05,-1.483877191094956e-05,-3.705954954576243e-08,518.0198967176021,518.0112653369516,518.016070923559,518.0148296271658
0.9879999999999995,-1.0006367149777417e-07,-1.9999998956100624,0.8828145486719224,9.841525963747156e-05,0.00011744124653088265,-2.3283607264605005e-06,-9.420382581553475e-22,-2.0,0.8814781534854832,-1.328085533363924e-21,-1.8963188575953215e-06,1.6670183990636209e-06,1.0871007120422052,0.0,0.0,0.0,-0.643599394127042,-3.616570067527392e-06,-4.6986311687620965e-06,-9.770816519195842e-09,517.7541709479226,517.7514033684344,517.7529327381131,517.7525725916508
1.0400000000000027,-5.279977270229181e-08,-1.9999999313595012,0.9380361719058992,-4.391598121776263e-06,-1.8734437362562908e-05,-1.144526229842833e-06,-8.986795889992927e-22,-2.0,0.9329597342673592,-1.266958481725037e-21,1.1640332248211144e-06,-7.347830465066441e-07,1.0449010401699868,0.0,0.0,0.0,-0.6390068803635345,7.598920514949978e-06,1.0587326216333486e-05,-2.502769940332895e-08,517.8794733121495,517.8855247925134,517.8819135280557,517.882907921334
1.0920000000000023,-1.163632604449787e-08,-1.9999999666639945,0.9910664690157823,-6.294930831336695e-05,-9.244273870365108e-05,-3.408963652501971e-08,-8.565305318571716e-22,-2.0,0.9830050915713899,-1.2075367410995632e-21,2.1267530055318903e-06,-1.5896001427721615e-06,1.0028799995052444,0.0,0.0,0.0,-0.6254663636391551,5.484041008290504e-06,7.544082679504777e-06,-8.814575091321914e-08,518.2626172465718,518.2669491618944,518.264129837005,518.2648148114225
1.144000000000002,-7.306864296393109e-09,-1.9999999770708627,1.0419302460221362,-1.2608314547599039e-05,-1.9493086714302576e-05,8.783894574144677e-07,-8.156540324665541e-22,-2.0,1.0315394872624652,-1.1499090523881286e-21,3.537279879482254e-07,-3.7478630621315116e-07,0.9615071746698021,0.0,0.0,0.0,-0.6065555440246969,-3.828899332037988e-06,-5.28523316667017e-06,-6.494836174135089e-08,518.7995311315912,518.7965037524467,518.7980304812476,518.7975467405709
1.1960000000000015,-1.2350720372948715e-08,-1.9999999812368174,1.0906708654368118,4.170842798863457e-05,5.8517360069968534e-05,2.0936273661416405e-06,-7.760966888872517e-22,-2.0,1.07850759349434,-1.0941411095353085e-21,-8.617930754369226e-07,4.6618475746979577e-07,0.9210729082633821,0.0,0.0,0.0,-0.5848360062478657,-5.630150441369251e-06,-7.892565641927608e-06,-2.1283002046440532e-07,519.412324864193,519.4078384089503,519.4097079615063,519.408957354963
1.248000000000001,4.9649162347956e-09,-2.000000001197631,1.1373421650400943,2.193563422820792e-05,3.309028827840201e-05,2.9512751569708168e-06,-7.378908621354466e-22,-2.0,1.1238709866645098,-1.0402785351016135e-21,-7.485760725301059e-08,-1.1207366634992537e-07,0.8817281206678246,0.0,0.0,0.0,-0.5619593440258831,5.321957472758664e-07,6.297962796372471e-07,-1.147850689181028e-07,520.0533365135265,520.0537215526721,520.0531094154265,520.0531417564873
1.3000000000000007,3.565540582779242e-08,-2.0000000298616216,1.1820034736342495,-3.0378945082703177e-05,-3.899865980325863e-05,2.463463709198139e-06,-7.010565608602221e-22,-2.0,1.1676059096580962,-9.883495372804579e-22,1.0467269812179257e-06,-9.05139205005604e-07,0.8435447605866525,0.0,0.0,0.0,-0.5389701652311361,4.626313167726035e-06,6.396882527524314e-06,-1.563077671636084e-08,520.6975149807785,520.7011631105254,520.698991192537,520.6995771630314
1.3520000000000003,5.0917960300317325e-08,-2.0000000463060768,1.2247155991352696,-3.911924465860753e-05,-5.147447479881777e-05,1.5426905267840791e-06,-6.656031222116723e-22,-2.0,1.2097012760820847,-9.383672795860152e-22,8.51423698082692e-07,-7.389701699435074e-07,0.8065345782440779,0.0,0.0,0.0,-0.5164146092776976,1.7108774136660882e-06,2.4125659581068646e-06,2.613662700405324e-08,521.3316060793878,521.3329690773185,521.3322632475464,521.3324951895861
1.404,4.494171950111595e-08,-2.0000000464467482,1.2655389698140296,-2.594679120500478e-06,-8.511057153353348e-07,7.884750665948604e-07,-6.31530708986574e-22,-2.0,1.2501568926409805,-8.903319915291808e-22,-1.2174127098319125e-07,-1.694508847178787e-08,0.7706735498655026,0.0,0.0,0.0,-0.49444583129858016,-2.760892884334237e-06,-3.82150272953739e-06,3.052385166791866e-08,521.9491823919617,521.9470091581777,521.9483777567283,521.948027587457
1.456000000000003,3.7704992102720106e-08,-2.000000044718757,1.304532523803799,2.1028758431170242e-05,3.225668824031726e-05,3.558560727435956e-07,-5.988316412603527e-22,-2.0,1.288981878033882,-8.442328459523136e-22,-4.577400825548829e-07,2.423647190910244e-07,0.7359369223866017,0.0,0.0,0.0,-0.4731189647326121,-2.53267920909281e-06,-3.55071247297643e-06,2.0802463577891188e-08,522.5462438410171,522.5442376528358,522.5454813798797,522.5451456516996
1.5080000000000027,4.3076214330357113e-08,-2.0000000510443003,1.341753607901659,4.291807339567857e-06,9.096497748743464e-06,1.8049375949802083e-07,-5.674915790064236e-22,-2.0,1.3261932587805478,-8.000496262859802e-22,3.158064825657148e-08,-8.960216047377763e-08,0.7022852598884626,0.0,0.0,0.0,-0.4522622244343399,1.0026032249105917e-06,1.3623899359781576e-06,1.0043232428657365e-08,523.1281757417047,523.1289548023004,523.1285411053475,523.1286596239273
1.5600000000000023,5.233802456746955e-08,-2.0000000591407834,1.3772577333714846,-2.0635421125638235e-05,-2.5927312100377187e-05,1.485346970882797e-07,-5.374905706508721e-22,-2.0,1.3618147242280956,-7.577542048013385e-22,4.082981452850056e-07,-3.3731422064012657e-07,0.6696946824578676,0.0,0.0,0.0,-0.43176700546877866,2.419894362846022e-06,3.3659824357824437e-06,2.9334532343568485e-09,523.7001877969585,523.7020916588781,523.7009943107564,523.7013056241635
1.6120000000000019,5.1320661653957214e-08,-2.0000000589417297,1.4110997678333919,-1.7962462532609156e-05,-2.2748927127892053e-05,1.7089313262801413e-07,-5.088039810984028e-22,-2.0,1.3958755246665644,-7.1731185094111915e-22,1.5326472402337225e-07,-1.325083226510874e-07,0.6381553003912473,0.0,0.0,0.0,-0.4115809989512226,3.206055582214274e-07,4.6285275398814046e-07,-3.5849551654158087e-10,524.2643292393489,524.2645867618971,524.2644333724088,524.2644801290262
1.6640000000000015,4.086949595815087e-08,-2.0000000512343012,1.4433339157445604,3.2695533507798234e-06,6.421352977732855e-06,1.996688034812565e-07,-4.814033114817599e-22,-2.0,1.4284094980057744,-6.786823870023552e-22,-2.6263820556005197e-07,1.8301571623074422e-07,0.6076498665413601,0.0,0.0,0.0,-0.3915641383858227,-1.7004367362456558e-06,-2.361030251463426e-06,-1.2529910564482655e-09,524.8231216276619,524.8217880438843,524.8225589252157,524.8223420191556
1.716000000000001,3.2689591842473953e-08,-2.0000000445636994,1.4740133538892994,1.1697317088661638e-05,1.7929275781844637e-05,2.1781581224792877e-07,-4.552569217202987e-22,-2.0,1.45945421185099,-6.418212067994544e-22,-2.8066916546924103e-07,2.0902585645685682e-07,0.5781619305281961,0.0,0.0,0.0,-0.3715680738437189,-1.014045930324352e-06,-1.419330858413311e-06,-1.0739376486488873e-09,525.379677449359,525.3788792962567,525.3793411037267,525.3792081693506
1.7680000000000007,3.1783336278654254e-08,-2.0000000426100897,1.5031909276035746,4.362859363281988e-08,1.4319561170495544e-06,2.2399186973661504e-07,-4.303306659134787e-22,-2.0,1.4890502090733655,-6.066801714419419e-22,-1.3822053983590357e-08,2.8874321424229838e-08,0.5496915613173218,0.0,0.0,0.0,-0.35158071846404026,8.493846022451498e-07,1.1781640097741858e-06,-6.252148089557436e-10,525.9349376106085,525.9356019481029,525.9352137433318,525.9353214697198
1.8200000000000003,3.1741524258837156e-08,-2.0000000408658103,1.5309196871621602,-1.088052707183268e-05,-1.4113007747294829e-05,2.2227368684117942e-07,9.959539104649428e-11,-2.0,1.5172403461142214,-5.73208395003983e-22,8.852263258673283e-08,-3.490584138557458e-08,0.5222422572605373,0.0,0.0,0.0,-0.33163887712680507,1.1534396560785946e-06,1.6217469552154482e-06,-2.599454379396893e-10,526.4889559412825,526.4898642894327,526.4893325720745,526.4894858540441
1.8719999999999999,2.616130735660336e-08,-2.0000000348402986,1.5572526254725518,-6.0930511411931945e-06,-7.6117834964385e-06,2.1689880644395437e-07,3.629203023996532e-10,-2.0,1.544069214300143,-5.4135293163035115e-22,-7.401570204609853e-08,8.84873830265511e-08,0.49580771478122526,0.0,0.0,0.0,-0.3117205939740667,-1.5214481880376126e-07,-2.1550458679730862e-07,-5.429816518417135e-11,527.0423746024603,527.0422543931328,527.0423246677688,527.0423039511976
1.9239999999999995,1.7457919834990323e-08,-2.0000000263294715,1.5822419601800906,5.215221375464371e-06,8.033334955828042e-06,2.1057743176225985e-07,7.418890225455937e-10,-2.0,1.569582635388183,-5.110593745047254e-22,-2.1594900484064006e-07,1.9565574531655444e-07,0.47037457999675425,0.0,0.0,0.0,-0.29177709658973616,-1.0007714206309804e-06,-1.409827934376687e-06,2.514860100575684e-11,527.5957321642376,527.5949448032891,527.5954053749863,527.5952717670833
1.9760000000000026,1.197437690420309e-08,-2.000000019930183,1.6059407018112626,6.973426092176402e-06,1.0195181621057674e-05,2.0456721977231303e-07,1.1708376540567271e-09,-2.0,1.5938272234155177,-4.82272376090874e-22,-1.477949225863635e-07,1.517952038930717e-07,0.44597142805667717,0.0,0.0,0.0,-0.27214291223858705,-3.3421385712072474e-07,-4.6587754267759615e-07,3.435258049609093e-11,528.1393503330887,528.139089272708,528.1392414019614,528.1391984416548
2.0280000000000022,1.0777113915123845e-08,-2.0000000165009792,1.6284016835816848,-7.321597115704085e-07,-9.629375487599037e-07,1.991835671893464e-07,1.6046188084583496e-09,-2.0,1.6168500057037045,-4.549360981361714e-22,-8.836258463447911e-09,5.5480538807389824e-08,0.4225709250591958,0.0,0.0,0.0,-0.2527292005042677,6.199087754333438e-07,8.819544440810624e-07,1.8528804774307067e-11,528.6761990063553,528.6766885486354,528.6764011338511,528.6764865493753
2.080000000000002,9.413413518439599e-09,-2.0000000129767965,1.6496762882576674,-5.262268260792886e-06,-7.5631098652777465e-06,1.1365006597476533e-06,2.0280669961039192e-09,-2.0,1.6386980965712814,-4.289945990914567e-22,4.2570118922823786e-09,4.625366260000731e-08,0.40015209424736115,0.0,0.0,0.0,-0.23352041255677886,5.376071004355347e-07,7.627079090613882e-07,-1.7235968676910744e-07,529.2075462225633,529.2079696433341,529.2071259516784,529.2071992511977
2.1320000000000014,5.088123090772634e-09,-2.00000000744254,1.669815496408446,-9.791286436851214e-07,-1.6557441870120573e-06,2.04217243487035e-06,2.433444264454413e-09,-2.0,1.659418417946287,-4.043921658439097e-22,-8.45013552330719e-08,1.0769009468455689e-07,0.37871315641056646,0.0,0.0,0.0,-0.2146819053824573,-2.528616786412408e-07,-3.5848059057588287e-07,-1.0270030941980628e-07,529.7280001271755,529.7278012516404,529.7275634896636,529.7275291307901
2.184000000000001,8.344934459564833e-11,-2.0000000015588175,1.6888699791455348,4.678962231683895e-06,6.1951692741968205e-06,1.7943947752611419e-06,2.8000067573941976e-09,-2.0,1.6790574616484528,-3.810735959731244e-22,-1.1896369416624383e-07,1.2979452814328374e-07,0.3582409529529849,0.0,0.0,0.0,-0.19630713987633058,-5.340539872135475e-07,-7.546200789560767e-07,-2.00399343054473e-08,530.2349317406915,530.2345129232986,530.234689089911,530.234617406209
2.2360000000000007,-2.371481245012285e-09,-1.9999999976544838,1.7068888306816616,4.011405481016585e-06,5.086924808117395e-06,1.1061577935735554e-06,3.1047244765296834e-09,-2.0,1.697661088634538,-3.5898443611870605e-22,-5.6026915943281406e-08,8.211150599885273e-08,0.3386990153305811,0.0,0.0,0.0,-0.17832280057000877,-4.30537288933917e-08,-5.535142342910319e-08,1.8196081648558625e-08,530.7303958297393,530.7303638780612,530.7304445194446,530.730440526443
2.2880000000000003,-2.6298090234508815e-09,-1.9999999955276089,1.7239201421638322,-5.934370387697348e-07,-1.5537458231063752e-06,5.034394334161835e-07,3.3369153496326585e-09,-2.0,1.7152743609746306,-3.380711814845038e-22,4.9686280276388664e-09,3.472341083713236e-08,0.32007881905256064,0.0,0.0,0.0,-0.16089986406179252,3.938478766923173e-07,5.642778406050304e-07,2.407140328905277e-08,531.2100219894714,531.2103328072807,531.2102325838299,531.2102878716266
2.34,-3.3897366767192276e-09,-1.9999999933062367,1.7400109831799597,-2.046031331773751e-06,-3.649507282242979e-06,1.4661029381510702e-07,3.5016216080595965e-09,-2.0,1.7319414027566353,-3.1828144099474153e-22,-7.641337667870507e-09,3.8503887839655766e-08,0.3023504075784251,0.0,0.0,0.0,-0.14403221472657457,2.0522350718362128e-07,2.9286058778995675e-07,1.7043884745656404e-08,531.6742119302194,531.6743733686016,531.6743370435609,531.6743654483766
2.392000000000003,-5.591829748906256e-09,-1.9999999903348467,1.7552068605166793,8.961511725364258e-07,5.323652896201529e-07,-2.0943902803310967e-09,3.6040933724514937e-09,-2.0,1.7477052865047182,-2.99564072155949e-22,-4.802570132869822e-08,6.169570439710443e-08,0.2854856483738503,0.0,0.0,0.0,-0.12774038155127845,-2.167493700371632e-07,-3.0875507978527594e-07,8.525205076846652e-09,532.122268011642,532.1220978291736,532.1222271030742,532.1221973074029
2.4440000000000026,-7.581241508778538e-09,-1.9999999877738879,1.7695516083193463,3.310644594669899e-06,3.956518235426793e-06,-3.113838083457994e-08,3.641942712142665e-09,-2.0,1.7626079420489433,-2.818692892613047e-22,-4.524134601765148e-08,5.4628709018320915e-08,0.2694506241488431,0.0,0.0,0.0,-0.11200350583883287,-2.595313107364877e-07,-3.6806251253578787e-07,2.6965956040752792e-09,532.554556228021,532.5543531492984,532.5544815036203,532.5544463847638
2.496000000000002,-7.925988474015356e-09,-1.9999999866285192,1.783087794671897,2.0479741225247933e-06,2.1477495146964864e-06,1.0781191846518105e-06,3.613072124184744e-09,-2.0,1.7766900851010856,-2.6514874819669347e-22,-5.359067473855963e-09,2.1503970982500282e-08,0.25422494861309025,0.0,0.0,0.0,-0.09689936693656175,4.929004264297398e-08,7.366048559118503e-08,-1.2793161933782623e-07,532.9692107842048,532.9692505379497,532.9687879631588,532.9687958428906
2.548000000000002,-7.322749978969755e-09,-1.9999999864077278,1.7958560554264316,-4.983992173882369e-07,-1.4557766360793035e-06,1.482762870400855e-06,3.5233379126158784e-09,-2.0,1.7899911630787135,-2.4935561076689736e-22,1.6147950593561042e-08,1.2811463977809047e-09,0.23976391966014057,0.0,0.0,0.0,-0.08231331791592038,2.24913910729227e-07,3.232379231124159e-07,-5.677854106626812e-08,533.3690465494093,533.369223651128,533.368924633265,533.3689564006638
2.6000000000000014,-7.262421114032029e-09,-1.9999999860527873,1.8078953729223224,-7.623038030174197e-07,-1.7640611497411034e-06,1.1267047098500462e-06,3.3843614626615686e-09,-2.0,1.8025493159790233,-2.3444459115235304e-22,1.0441311434878496e-09,6.989687286594047e-09,0.22604330261786232,0.0,0.0,0.0,-0.0682851098087977,6.126125138387658e-08,8.706601991789809e-08,-2.495581284215983e-09,533.7534628951718,533.7535107835431,533.7534741274039,533.7534824586322
2.652000000000001,-7.922651018062093e-09,-1.9999999854139736,1.8192438087446765,9.89893642295864e-07,8.158042316218234e-07,5.914004482963398e-07,3.2051759751971972e-09,-2.0,1.8144013503379948,-2.203719868289491e-22,-1.598720514306657e-08,1.4583057338091147e-08,0.21304691205010742,0.0,0.0,0.0,-0.05492896418067118,-1.464489956900632e-07,-2.1067551712032494e-07,1.7123904207430495e-08,534.1192805333125,534.1191653124195,534.1192918859048,534.1192711641788
2.7040000000000006,-8.26485064783778e-09,-1.999999985190597,1.8299377143665203,1.859753958885019e-06,2.119540482988658e-06,1.8618792989355576e-07,2.9899071606146116e-09,-2.0,1.8255827245216931,-2.0709569603250806e-22,-7.140731922456915e-09,4.634835798190043e-09,0.20073218558400702,0.0,0.0,0.0,-0.04213916981009366,-1.1304359729728555e-07,-1.6151067836133e-07,1.725915317865111e-08,534.4692919868481,534.4692034640213,534.4693145652514,534.4692989383136
2.7560000000000002,-7.729385576030097e-09,-1.9999999857514181,1.840011636619054,7.769517930199587e-07,6.240329353580475e-07,-3.01993621778e-08,2.742681053066734e-09,-2.0,1.8361275437870361,-1.9457522362342702e-22,1.2749706670025224e-08,-1.259581591969537e-08,0.18907041422004986,0.0,0.0,0.0,-0.02990924942458073,6.377521941904485e-08,9.26841170287604e-08,1.0931711033379938e-08,534.8037217335973,534.8037721482557,534.8037796464797,534.8037889615651
2.808,-6.912103993606478e-09,-1.99999998665954,1.8494985313536947,-5.076799265403906e-07,-1.145120454323548e-06,-1.0719232677264773e-07,2.4713881694465153e-09,-2.0,1.8460685637209886,-1.8277167700312122e-22,1.6805693409089742e-08,-1.8362645626888793e-08,0.17803192607952445,0.0,0.0,0.0,-0.01822328087647314,1.1804860603968124e-07,1.696638923743808e-07,4.90179506566821e-09,535.12312688706,535.1232195390508,535.1231816458937,535.1231982675523
2.8599999999999994,-6.554831622403125e-09,-1.9999999873720666,1.8584301581934526,-3.4427128917488823e-07,-8.239939271525479e-07,-1.1205198019805769e-07,2.1854492059654817e-09,-2.0,1.85543720082177,-1.7164775355034558e-22,5.222887696952194e-09,-1.2700931909910579e-08,0.16759404343606996,0.0,0.0,0.0,-0.00711358956053855,4.073179311626638e-09,4.465928517618206e-09,1.2297123274297661e-09,535.4266658332997,535.426668581588,535.4266713423403,535.4266714687457
2.9120000000000026,-6.552625219765572e-09,-1.9999999879329986,1.8668368308098853,6.163157082031285e-07,6.342475870736564e-07,-9.241722520855164e-08,1.8911878610933036e-09,-2.0,1.8642635491248076,-1.6116772088024339e-22,-1.2269859740733857e-09,-1.0021966486524506e-08,0.15772548310817322,0.0,0.0,0.0,0.0034670933338553367,-8.780382394239569e-08,-1.2768311760681154e-07,-3.621057491117164e-10,535.7155813336607,535.7155120171822,535.7155518539606,535.7155390258413
2.964000000000002,-6.307816445970419e-09,-1.9999999887321114,1.874746999675676,8.302136707374438e-07,1.0011084360109777e-06,-7.19151325968197e-08,1.5919145166201547e-09,-2.0,1.872576401901307,-1.5129739108037759e-22,5.739266417909392e-09,-1.6167268077127112e-08,0.14839188566828682,0.0,0.0,0.0,0.013594067031495398,-4.200105972656537e-08,-6.073996461492967e-08,-7.276940092334994e-10,535.9919074497988,535.9918744177543,535.9918914644837,535.9918854397788
3.016000000000002,-5.653124908292604e-09,-1.9999999898655292,1.8821879931540964,9.276198892299469e-08,-8.77836149017729e-09,-5.830948209902765e-08,1.2911130858171834e-09,-2.0,1.88040327756982,-1.420040899444348e-22,1.3998537860246707e-08,-2.28293763382255e-08,0.13957626481142524,0.0,0.0,0.0,0.023218339823394996,5.104663095536628e-08,7.375135549029053e-08,-5.670588958996703e-10,536.2543646232715,536.2544047271621,536.2543790942432,536.2543863904169
3.0680000000000014,-4.997087681585174e-09,-1.9999999910320223,1.889185957412583,-4.831837771172316e-07,-7.815265976931083e-07,-5.147577753253511e-08,9.940023099409768e-10,-2.0,1.887770449062154,-1.3325662210438366e-22,1.2162665655591032e-08,-2.2139075639539758e-08,0.1312543117240935,0.0,0.0,0.0,0.03234715898284179,5.66024285666373e-08,8.105863313594487e-08,-3.0433322659199374e-10,536.5032243669699,536.5032685838958,536.5032415108752,536.5032493662425
3.120000000000001,-4.668898730247186e-09,-1.9999999919846567,1.895765827999367,-2.3277525941822186e-07,-3.6192665804590915e-07,-4.884454057785264e-08,7.054806268966321e-10,-2.0,1.8947029759756415,-1.2502523285423245e-22,4.862345721134377e-09,-1.7284257449270474e-08,0.12340076800196875,0.0,0.0,0.0,0.04100307013826404,-1.3325710939171457e-08,-2.0665243912995494e-08,-1.083917669558895e-10,536.7391152480112,536.7391043348666,536.7391106005226,536.7391082440903
3.1720000000000006,-4.507343741586789e-09,-1.99999999281681,1.9019510857538484,2.683053774493161e-07,4.07590054718077e-07,-4.8071463529544504e-08,4.281615654009787e-10,-2.0,1.9012247389250068,-1.1728156736207315e-22,2.831766819963948e-09,-1.5721927586092566e-08,0.11598823980600867,0.0,0.0,0.0,0.049237525630347875,-4.901587134192845e-08,-7.204090303662149e-08,-5.281723972267691e-12,536.963412347227,536.9633734969425,536.9633965987728,536.9633892094381
3.224,-4.192148019576629e-09,-1.9999999937359225,1.9077639439769398,2.4949103599274934e-07,4.105202333980985e-07,-4.774738640095701e-08,1.630301976862254e-10,-2.0,1.9073584755798574,-1.0999862788068937e-22,7.0296839851819305e-09,-1.8208524418843646e-08,0.10899448037271511,0.0,0.0,0.0,0.05706690888712098,-1.0633438496204825e-08,-1.5714947813292993e-08,3.0320991139455e-11,537.1765605237653,537.1765520712347,537.1765572157462,537.1765555856042
3.276,-3.712000436356831e-09,-1.9999999947404663,1.9132256499155569,-1.9007261028098664e-07,-2.0157205369425852e-07,-4.727138532523021e-08,-8.858910518272695e-11,-2.0,1.9131258179389268,-1.0315072948969698e-22,9.666174366702635e-09,-1.9449260281069478e-08,0.10240144513975472,0.0,0.0,0.0,0.06448292951963899,3.4511177713260806e-08,4.985836263346107e-08,3.134259371142888e-11,537.3783739814255,537.3784010369073,537.3783851550234,537.3783900765327
3.328000000000003,-3.317134392566166e-09,-1.9999999956503534,1.9183563439177034,-4.032032805225054e-07,-4.849242275181087e-07,-4.6523142168354626e-08,-3.2479429253022044e-10,-2.0,1.9185473304503953,-9.671345483308714e-23,6.74851968367e-09,-1.6715030625909984e-08,0.09618754265903177,0.0,0.0,0.0,0.07150671895258423,2.4560421494014835e-08,3.494155269156541e-08,2.1276049740377097e-11,537.5694645357235,537.5694836099336,537.5694724812629,537.5694758090833
3.3800000000000026,-3.130883198032365e-09,-1.999999996373206,1.923175123007931,-1.756512906026229e-07,-1.3207779402506182e-07,-4.55765659945615e-08,-5.441304025694647e-10,-2.0,1.9236425486395679,-9.066360825435573e-23,2.6621825331318033e-09,-1.3030564217609098e-08,0.09033207349078416,0.0,0.0,0.0,0.07816357317747319,-1.5648093208232444e-08,-2.3749729510357144e-08,1.147914603876222e-11,537.750521575598,537.7505089503137,537.7505166000856,537.7505140038644
3.432000000000002,-3.0117789788745498e-09,-1.9999999970003175,1.9277000549217753,7.627973955970088e-08,2.4649015628492676e-07,-4.4538065064555004e-08,-7.464479779198644e-10,-2.0,1.9284300179515177,-8.497916967639031e-23,2.4079820363869443e-09,-1.1874482455681601e-08,0.08481734757932459,0.0,0.0,0.0,0.08445774844776965,-2.559351076514808e-08,-3.787111180659402e-08,5.445508187474899e-12,537.9216470793716,537.9216267481969,537.9216388988806,537.9216349656964
3.4840000000000018,-2.7994893790972163e-09,-1.9999999976389662,1.931948339393711,-1.3308439033610358e-10,1.386752471784272e-07,-4.348413764869079e-08,-9.323130800700946e-10,-2.0,1.93292733255755,-7.963924852431792e-23,4.681928873967718e-09,-1.2414851040476337e-08,0.07962642391992071,0.0,0.0,0.0,0.09039396705244711,1.2652154847425007e-09,1.6872844200947104e-09,2.8195163999505776e-12,538.0829763444013,538.0829772899643,538.0829767591753,538.0829768943464
3.5360000000000014,-2.5327619368053133e-09,-1.9999999982622871,1.9359361403280433,-2.36144456632182e-07,-2.04186499121978e-07,-4.245262497931614e-08,-1.1020155536181187e-09,-2.0,1.9371511739110279,-7.462403794594679e-23,5.0721743567270265e-09,-1.1666387312665913e-08,0.07473818755823194,0.0,0.0,0.0,0.09601855832256592,2.103358098655371e-08,3.053165169869771e-08,2.1765721858892208e-12,538.2357941528049,538.2358106623151,538.2358008944652,538.2358039354385
3.588000000000001,-2.3539421559755756e-09,-1.9999999987747867,1.9396787043986454,-3.763047715418045e-07,-1.733347750907282e-07,-2.3612153434940687e-08,-1.255485171491138e-09,-2.0,1.9411173488706719,-6.991476954577425e-23,2.6055947492683147e-09,-9.183146997994328e-09,0.07013612420052602,0.0,0.0,0.0,0.10134864905671698,9.601851344900376e-08,-7.509102297857133e-08,-1.3353396203817635e-08,538.3806054214408,538.3806121199403,538.380590818311,538.3805360493343
3.6400000000000006,-2.101447012288076e-09,-1.9999999989645159,1.9431904976928807,-3.050822331128591e-06,2.912355740313994e-06,3.228829378564013e-07,-1.3931012483567706e-09,-2.0,1.9448408272383064,-6.549366881425225e-23,7.748848960477168e-09,2.9838437648800234e-10,0.0658078185250993,0.0,0.0,0.0,0.10637068422047338,4.82576591277269e-07,-5.127187757502807e-07,-6.269105705479371e-08,538.5170775413504,538.5170678958442,538.5170191739833,538.5167006790981
3.692,-6.989671916941685e-10,-1.9999999979246026,1.9464852857930202,-1.4217878596236754e-06,1.5637231290676516e-06,6.695297906941421e-07,-1.5146663924922689e-09,-2.0,1.948335778583577,-6.134391140367601e-23,3.497723499372996e-08,2.7925571663677565e-08,0.061737507850503213,0.0,0.0,0.0,0.11110458228552883,-1.997540364491405e-08,-8.930687934411985e-09,-4.022728861413939e-08,538.6455630505852,538.6455538028355,538.6454201492122,538.6454236826818
3.7439999999999998,1.317915174404487e-09,-1.9999999963134172,1.9495759452155628,3.0733166569984407e-06,-3.103700261112327e-06,5.858531110508081e-07,-1.6157773945031238e-09,-2.0,1.9516156082507097,-5.744958037528306e-23,3.682097728242026e-08,2.8777837213632928e-08,0.05790795724866769,0.0,0.0,0.0,0.11558958005574235,-4.1653438843930016e-07,4.2782678090631557e-07,-8.463806610773217e-09,538.767240722878,538.7672443347685,538.7670787783163,538.7673488486481
3.796000000000003,2.0294819889988317e-09,-1.9999999959856938,1.952474597949247,3.780321415371133e-06,-4.075852623489728e-06,3.2675817568066106e-07,-1.6880015090926673e-09,-2.0,1.954692992462252,-5.379562451855334e-23,1.9541591028022947e-09,-4.892081014828091e-09,0.05430721253478811,0.0,0.0,0.0,0.11982405291321714,-1.7366907518790094e-07,2.0149169250926597e-07,6.536178899485817e-09,538.8821253038278,538.8821342010408,538.8820919380231,538.8822119082281
3.8480000000000025,9.964467841222922e-10,-1.9999999972717035,1.9551928025590004,2.239863979910118e-07,-4.6776253541723e-07,9.61183431149923e-08,-1.729711524696562e-09,-2.0,1.9575799124522113,-5.036781782296524e-23,-2.6918069473670527e-08,-3.087602817119335e-08,0.05092344930051133,0.0,0.0,0.0,0.1238149970136791,2.5188683093180575e-07,-2.491400851496308e-07,9.14699659243588e-09,538.9904063866749,538.9904072648623,538.9905179400718,538.9903577521445
3.900000000000002,-2.937221412139854e-10,-1.999999998703439,1.9577414059733214,-2.274321416761582e-06,2.287636003659495e-06,-4.1909671915781206e-08,-1.7488756464922545e-09,-2.0,1.960287687576314,-4.715272016427459e-23,-2.0797183691629612e-08,-2.317124794571296e-08,0.047742779673608,0.0,0.0,0.0,0.127587318313015,2.5314463318119986e-07,-2.7462383436893054e-07,6.6156971285547625e-09,539.0927444263187,539.0927375603089,539.0928477778037,539.0926790721173
3.9520000000000017,-5.762798735136342e-10,-1.9999999991237152,1.9601305968959382,-2.748449788242308e-06,2.850663954859155e-06,3.023882532559475e-08,-1.7557303098750536e-09,-2.0,1.962827007360488,-4.4137639251500304e-23,2.577603372384852e-09,-3.28041509327947e-10,0.044754165697624915,0.0,0.0,0.0,0.13114796014648022,2.8169802406635865e-07,-2.9354263967628705e-07,-1.2269391803886218e-08,539.1893448325588,539.1893410470049,539.1893932695803,539.1892094219244
4.004000000000001,3.3210977875372803e-10,-1.999999998389816,1.962370091219749,2.2262235068138278e-08,-7.700727420848746e-08,6.841286094147077e-08,-1.7546496590175113e-09,-2.0,1.9652079624603465,-4.131059386694721e-23,2.2583323873397054e-08,1.913232405402175e-08,0.041948183258444724,0.0,0.0,0.0,0.13449560661164323,-1.6833127546555487e-07,1.8055237755307128e-07,-5.873732552721386e-09,539.2801075530028,539.2801114582252,539.2800338541882,539.2801453390808
4.056000000000001,1.2127989018173144e-09,-1.999999997657908,1.9644690319183205,3.08973332930347e-06,-3.273087710406774e-06,3.30990921320988e-08,-1.7430187387171579e-09,-2.0,1.9674400745145468,-3.866027841958359e-23,1.073980595899995e-08,8.320319092851088e-09,0.039313401875928015,0.0,0.0,0.0,0.13764727525022227,-3.232822904955796e-07,3.3827325285252804e-07,-3.324001233140916e-10,539.3655468766566,539.3655516662219,539.3654424624831,539.3656538273958
4.1080000000000005,7.250684594014645e-10,-1.9999999982147716,1.9664360050278145,2.215052687028214e-06,-2.315104139939898e-06,1.2505827776797503e-07,-1.717450726496865e-09,-2.0,1.9695323248836827,-3.617602882170296e-23,-1.9246848869898798e-08,-2.0076762849979605e-08,0.036840089072433635,0.0,0.0,0.0,0.14061085540506882,-1.2481922374934608e-08,9.153280832671834e-09,-2.5060751553299555e-08,539.4459289861322,539.4459279228003,539.4458400816492,539.4458469929997
4.16,-7.626351428255926e-10,-1.9999999997254418,1.9682791124812622,-9.119180692694646e-07,9.659751225051835e-07,2.2629140655596097e-07,-1.6812448640597609e-09,-2.0,1.9714931822738495,-3.3847789689865253e-23,-3.009530791013909e-08,-3.050000639660362e-08,0.03451871667161581,0.0,0.0,0.0,0.14339759147889847,2.5250298793113067e-07,-2.6654529172476266e-07,-1.4185647841367126e-08,539.5214447207911,539.5214402356157,539.5214773107404,539.5213115243524
4.212,-1.8762167722280385e-09,-2.000000000880816,1.9700059761598583,-1.9160218816253005e-06,1.9805609707294794e-06,1.6758984213043181e-07,-1.643151860851281e-09,-2.0,1.9733306292505,-3.166608286347019e-23,-1.5256019515992385e-08,-1.6308948685783114e-08,0.0323404092557034,0.0,0.0,0.0,0.14601555087753834,1.273797601112733e-07,-1.316317867776668e-07,-2.0197660897149743e-09,539.5923707990207,539.5923694410828,539.5924046373228,539.5923219187342
4.264000000000003,-2.148444209276332e-09,-2.000000001220177,1.9716237470463607,-1.429367660899804e-07,9.016839553111844e-08,5.5309076094274417e-08,-1.6105732925212187e-09,-2.0,1.9750521876536444,-2.962197722782089e-23,-1.5968881610344056e-09,-2.9019512475989878e-09,0.030295549141157146,0.0,0.0,0.0,0.14848481618093848,-1.372970088012887e-07,1.463717768441933e-07,3.266642936764875e-09,539.6592697231255,539.6592726209074,539.6592369455221,539.6593275274757
4.3160000000000025,-2.3410262325465087e-09,-2.000000001457214,1.9731391281731834,1.2738546570619017e-06,-1.3912017928874439e-06,-3.650773792698774e-08,-1.5855757752390245e-09,-2.0,1.9766649429300844,-2.770705982305989e-23,-6.710146678318073e-09,-7.23630466483657e-09,0.02837700167004386,0.0,0.0,0.0,0.15080744365640741,-1.5754517520778586e-07,1.6504340859860854e-07,3.841939352384959e-09,539.7221979715878,539.7222003656668,539.7221606812212,539.722263679149
4.368000000000002,-3.08710085575863e-09,-2.00000000219721,1.974558463595394,4.090683122513516e-07,-4.6487730182930256e-07,-8.796628808520293e-08,-1.5684396523539955e-09,-2.0,1.9781755674022117,-2.5913408215780575e-23,-1.787084875916851e-08,-1.745479291113646e-08,0.02657733939555077,0.0,0.0,0.0,0.15299207779057414,3.983134961260991e-08,-4.3630628318337364e-08,2.6179032653261724e-09,539.7813853490691,539.7813841361467,539.7814069303804,539.7813802850845
4.420000000000002,-4.024238232895941e-09,-2.0000000031025538,1.975887688572348,-1.1524737308222733e-06,1.1741820897744364e-06,-1.0704837071649718e-07,-1.561605746206051e-09,-2.0,1.9795903424960914,-2.4233564106342098e-23,-1.6233618451243104e-08,-1.560882750212217e-08,0.024888815091083618,0.0,0.0,0.0,0.15505153272328662,1.4427543725544013e-07,-1.5220444155020308e-07,1.2652167594108486e-09,539.8371746525423,539.8371721214637,539.8372249918349,539.8371303502033
4.472000000000001,-4.466894647325505e-09,-2.0000000035206464,1.9771324060967306,-1.1954967476240979e-06,1.200671790408847e-06,-1.0819210707699446e-07,-1.5688377482848148e-09,-2.0,1.9809151799541405,-2.2660508141832682e-23,-3.8403509013683265e-09,-3.4543138284098997e-09,0.02330576868740926,0.0,0.0,0.0,0.1569856643683851,3.4270819493630805e-08,-3.473376791398734e-08,3.771262803936374e-10,539.8895613220636,539.8895611742968,539.889573537679,539.889551512329
4.596,-4.39249214129306e-09,-2.000000003341147,1.9797878509228064,9.211266353796356e-07,-1.009504125656742e-06,-9.264681877323683e-08,-1.665934981930775e-09,-2.0,1.9836175456771616,-1.945183337719888e-23,-4.18783747980025e-09,-2.5939781826243996e-09,0.01984514650450476,0.0,0.0,0.0,0.14703249746869412,-1.5661185905427008e-07,1.6062619593470678e-07,-3.6336775978395863e-10,539.6199240132343,539.6199252951977,539.6198727689665,539.619974077747
4.648,-4.88834305078245e-09,-2.0000000037324672,1.980775697216278,4.4998789507379696e-07,-4.6701763102012936e-07,-8.506833314675044e-08,-1.7188786945663417e-09,-2.0,1.9846708376658755,-1.8201199018130757e-23,-1.2232456974315031e-08,-1.004602984960377e-08,0.01842062545907041,0.0,0.0,0.0,0.1598316167798101,-4.88435294267749e-08,4.039586176774582e-08,-6.196656570592214e-10,539.9666382547259,539.9666355587274,539.9666205690617,539.9666490490272
4.700000000000003,-5.565240893119347e-09,-2.000000004298956,1.981690972671126,-9.264280407246567e-07,9.843719661683863e-07,-8.031211067543269e-08,-1.781461821114037e-09,-2.0,1.9856579319121412,-1.7029165058653042e-23,-1.1900898288160465e-08,-9.921990499857344e-09,0.017072543739881894,0.0,0.0,0.0,0.16312810258610064,1.1120470810025639e-07,-1.216328036554913e-07,-3.2358808013189146e-10,540.0558996188245,540.0558962913398,540.055934007736,540.0558597119774
4.7520000000000024,-5.816715167665024e-09,-2.00000000446396,1.9825416590699794,-1.604330678824917e-06,1.596619850875263e-06,-7.956378286946321e-08,-1.8556955200382337e-09,-2.0,1.9865828547655746,-1.5930950781524088e-23,3.113332237132367e-10,1.8384819212527178e-09,0.015896663966685837,0.0,0.0,0.0,0.16574994530808135,9.588478365582081e-08,-9.243102086144484e-08,-4.1217347475269715e-11,540.1268801003571,540.1268812022681,540.1269105525746,540.126850471075
4.804000000000002,-5.3814625480677745e-09,-2.000000003940184,1.9833355087238451,-6.938172356285017e-07,5.837665406690906e-07,-8.01414771988683e-08,-1.941316704202191e-09,-2.0,1.9874493997591334,-1.4902051906155332e-23,1.220311491744724e-08,1.4133814854927138e-08,0.014855240158673585,0.0,0.0,0.0,0.16783414396738586,-4.677560393906854e-08,5.7153035870275e-08,7.995021546857493e-11,540.183299257356,540.1833025678937,540.1832846058591,540.1833177604653
4.856000000000002,-4.679222206976189e-09,-2.0000000031048306,1.984078645818634,4.6194473188082403e-07,-5.611436622027971e-07,-8.032277752308984e-08,-2.034464639227509e-09,-2.0,1.9882611399470136,-1.3938225939113735e-23,1.2827785345173237e-08,1.5773293289376127e-08,0.013921754359280447,0.0,0.0,0.0,0.1694741988832879,-9.928350775668529e-08,1.0150122005835785e-07,9.280016250656452e-11,540.2276936320967,540.2276943395182,540.2276622759445,540.2277263236559
4.908000000000001,-1.2570458146223665e-08,-1.9999999980674423,1.984775941043277,0.00045394635395639696,0.0008647517714926503,2.62204576488668e-07,1.2720860501449677e-05,-2.000006669106868,1.9890214396988022,-1.303547817024584e-23,-8.94919879568941e-07,4.830540653143513e-07,0.013072722610753757,0.000582854945003559,0.0011122207743552884,3.5704277035911017e-07,0.17077684454716272,0.008937571247487338,0.01705064913966416,-2.480644642314402e-07,536.1026718960934,544.3922720370974,538.9670792342689,541.5548858934328
4.960000000000001,3.0134267831030336e-06,-2.000001583447252,1.9854311399916356,0.07132509887084429,0.1361040507211764,9.48596935914453e-05,0.0002717827076106653,-2.0001424646446915,1.9897334659620824,-1.2190048299935773e-23,0.00017782135273446988,-9.318718894747006e-05,0.012288290495559464,0.04842413578260561,0.09241064532365015,1.0744135476107166e-06,0.17185283063088,0.011706730546028455,0.022324878444134638,-3.3253092820661376e-05,534.8941851790139,545.7479489822276,538.539657027804,541.9266735295498
5.0120000000000005,7.681115100234264e-05,-2.0000402536424895,1.9860471777053494,0.329878671780617,0.6302582848858637,0.0015329437202608127,0.0010056264727261396,-2.000525808642628,1.9904001990069338,-1.1398397681540095e-23,0.0026803909008532986,-0.0014044423887515614,0.011586311521803344,0.10562329179490249,0.20232242592124622,-0.00023907663656412662,0.1728164355681712,-0.006408605616657901,-0.010522484765777022,-0.0002861584787045248,543.4928052188492,538.0976759885277,540.4901160023184,539.1768839246723
5.064,0.00043448255652174235,-2.000227355415307,1.9866246346554641,0.6139693305853279,1.1881895788244792,0.003920442350814808,0.002286058240477477,-2.001179611446551,1.991024442666746,-1.065719716187708e-23,0.010119415263499826,-0.005287106472773494,0.011058486343898052,0.0745346907511774,0.15320740535224367,-0.0011562470730028746,0.17423602330683144,-0.020620054814005893,-0.03366551071697383,-0.0002484048595333899,549.3578682765944,532.0568416690057,542.0140490764888,537.8504415883103
5.116,0.001314095090269574,-2.000683153394185,1.9871623121842534,0.6672806656230411,1.3756029018875477,0.0015518444422227833,0.004099131274721786,-2.0020560207639746,1.99160883409053,-9.963315501749017e-24,0.021384386216531003,-0.011012240437664328,0.010682627401614677,-0.022337793630574997,0.0002994406790054029,-0.0015458086816937959,0.17607912233209513,-0.010742885710810984,-0.01354105639098595,0.00034557551988882447,543.6839081968385,535.9316211317779,541.4360434767159,540.5447218552657
5.168000000000003,0.002796074765272348,-2.0014292728201464,1.987662897640704,0.48724226936038006,1.2137867999025806,-0.002862013078434298,0.006393975322537768,-2.0030888933398843,1.9921558530224535,-9.313808357809554e-24,0.032728023219276606,-0.01621103242941051,0.010217094759022863,-0.07295228245770705,-0.07113605876230497,-0.00040159263637403586,0.17749438127657552,0.013080219758076383,0.01561322319649136,0.0003532854928363406,535.2477262310011,544.4073453285288,540.6383015435351,541.4450810017833
5.220000000000002,0.004808567978943134,-2.002387158536807,1.988132716301808,0.3445521784605341,1.0875552642122528,-0.0030117060622332666,0.009122560642003655,-2.00427323511909,1.9926678306247438,-8.705907806624692e-24,0.04221916884161691,-0.01957833600170714,0.009746664696971611,-0.01831296173019707,-0.011195569699582207,0.0005675802914713264,0.17815570393237495,0.023445309127432964,0.016681836435109208,-2.1953291584687044e-05,534.0646428847383,546.8591328513247,541.502761020445,539.346086749473
5.272000000000002,0.007288070333030793,-2.003492914939506,1.988576253242073,0.4736035814892421,1.1945668565029066,-0.00053189313107925,0.012258200277804162,-2.0056984636638346,1.993146957860323,-8.137012391486884e-24,0.051167774553374915,-0.02239431844414437,0.009563699916565024,0.08456453658589841,0.05977271208938177,0.000468768001300828,0.17854341120572825,0.011430873462408082,-0.003953382546983566,-0.00022102063141032783,539.6541714090266,542.0366692845188,542.5479588971253,537.6393638749773
5.324000000000002,0.010267501563072056,-2.0047988995877954,1.9889939532789012,0.8353213710509597,1.3622915662239359,0.001575728551058079,0.01579416448710804,-2.007516084897117,1.9935952934516614,-7.60467767240732e-24,0.06131863589952726,-0.02718697425062417,0.009655619835010957,0.13605550168661718,0.04170870614959615,-0.00019022193802540645,0.17923144327412288,-0.001892280717121624,-0.012712879402521872,-0.00014918128273207042,543.0661449233233,538.4116937535582,541.9624416307508,538.5108689179475
5.376000000000001,0.01380803578359808,-2.0064598297225786,1.989384462689147,1.259205370177787,1.3850543976177383,0.0006399318668484093,0.019767348622985462,-2.009987621363596,1.9940147714323455,-7.106607259704213e-24,0.0723521927807367,-0.03534910513219239,0.009804427056254433,0.15044206230465257,-0.010785487044555061,-0.0004527298153097126,0.18034479752255173,0.008921909262060955,0.003682528861633033,0.00015221850977599418,538.250464627296,542.270870736516,541.613317356301,539.9437256385726
5.428000000000001,0.017913962939698134,-2.0086650636294996,1.989746950120081,1.8003132496494216,1.3665293005496681,-0.00040030795783189775,0.02425786750056061,-2.0134341406870457,1.9944072083077593,-6.640644311712063e-24,0.08304723590344017,-0.0473584052120232,0.010176960894051979,0.20415299636934683,0.008287932760856586,-3.354261814187251e-05,0.18187971924388835,-0.0009630111878972079,0.012594102903441559,-7.456484829055675e-05,538.8327361573025,542.5397562726233,538.2715137226227,542.5944138741622
5.48,0.022571599627371812,-2.0116507324699304,1.9900794162775735,2.450267729214567,1.5071722212575178,0.004213749813689613,0.029347047435331935,-2.0180488625478614,1.9947743098411146,-6.2047634773375765e-24,0.09378140225945798,-0.06436715938788354,0.011276880418091233,0.2161024760747412,0.07377589119445974,-0.0007120821446001904,0.18436905234399675,-0.011563203573794159,0.009728686408076424,-0.0008084320413428984,542.2872043050376,541.7039259888718,535.8495091942982,542.6536387865466
5.532,0.027832549362195428,-2.0156924499439426,1.990376718669361,2.9801122809451046,1.7977213717528566,0.011525507286840393,0.035136584197846515,-2.023920271705553,1.995117677480823,-5.7970632644688014e-24,0.10612095491368448,-0.08657295957565307,0.01316602318014307,0.14317448689257256,0.10685387431174617,-0.0034501002486606543,0.1883386338491734,-0.020849683367909152,-0.002248015820294225,-0.0009761893315614392,546.0424274588531,538.7037062353926,536.1042234090016,542.0505743771342
5.584,0.033813371433197965,-2.021009899018515,1.9906352935161657,3.2101311180687375,2.0989408630323743,0.012444439902490523,0.041744381337641974,-2.0310083693177226,1.9954388144449176,-5.4157588155917545e-24,0.12094181337509773,-0.11212006262682055,0.015352992097301033,0.031604071834814965,0.09233585912692911,-0.006157407306542444,0.19315679992857657,-0.01363797240756624,-0.0029752577868124653,-0.00022933205091917513,543.8939491509373,538.604547320338,538.7781535372382,542.1778453552816
5.636000000000003,0.0406363678742863,-2.027687691336229,1.9908593007223103,3.1455208232250675,2.3333119410317362,0.006046963449688572,0.049289797851581094,-2.0391758468510552,1.9957391314778827,-5.059175072371519e-24,0.13792908224263742,-0.13816992377513387,0.017304325075809562,-0.04913394827522148,0.07342938328927567,-0.006425113813480475,0.19735837880769933,-0.00017134230750576705,0.005559917478180087,0.0003167902586114983,539.5866731864546,541.3048648557689,540.6041413595099,542.4279889081527
5.688000000000002,0.04839647132581148,-2.0356782545187446,1.9910599283135357,2.9522453622848217,2.5901636947078397,0.002370798574769315,0.05791187867970606,-2.0482526227180387,1.9960199522948876,-4.725740311402444e-24,0.15660459776413957,-0.1626066183276001,0.019201538278273526,-0.06944146732628358,0.0987400099119865,-0.005446367329669969,0.1999981241399164,0.002547031462070087,0.004199344732012714,-8.097965530928965e-05,540.1148678928166,542.263051563754,540.653183422575,541.179578769358
5.740000000000002,0.05719527302218788,-2.044872268378008,1.9912476196186981,2.7353639583028335,2.937356375013088,0.0034955355454587213,0.0677156765733767,-2.0580415054066004,1.9962825187279956,-4.413980033814882e-24,0.17745547654800667,-0.1847897651069183,0.021457534994198585,-0.07842865323500622,0.12646211498718926,-0.005537968123384405,0.20141915419669854,-0.007983180752868066,0.0036777708596300784,-0.000317463915895541,542.3120872113901,540.9422661426338,538.6932442123224,542.4107043473223
5.792000000000002,0.0671701815995311,-2.055145648665014,1.9914274672987076,2.4247305739829694,3.315296280513359,0.0030103472312563123,0.07880528487546559,-2.0683167052156035,1.9965279955885047,-4.122511191937815e-24,0.20113926874489052,-0.20445639729193238,0.023747866673443016,-0.1268105868043689,0.12057961433745853,-0.00608122032758919,0.2022545720783208,-0.009094085477026595,-0.005568702459801927,0.00010090565251075337,543.2742776609048,538.6031874033037,540.7231653141287,541.8455213006864
5.844000000000001,0.07846896376714879,-2.0663341706311344,1.9916018888248503,1.9413942619191684,3.6017101917873995,-0.002854051361105137,0.09122308303386077,-2.0788645805352886,1.9967574752591215,-3.850036736747888e-24,0.22750996666868986,-0.2205095307442379,0.025244377414590596,-0.18258392972159726,0.07580933783276496,-0.005117456566124921,0.20252921486031708,0.00010387541979528774,-0.004349785204838797,0.0007216118971138182,540.5786690915622,539.2234598232486,543.0461740656701,541.6310439224897
5.896000000000001,0.09119803784303489,-2.07820231341394,1.9917741140090715,1.3383973887863896,3.764644989798571,-0.008976515664946793,0.10502130234060555,-2.0894223607643676,1.996971982029204,-3.5953404703826694e-24,0.2554546642204504,-0.23162499632689987,0.025718136331087403,-0.21714047052832203,0.04767998776339139,-0.002578173077854945,0.20199728387435886,-0.006160047335675976,0.008140552782272287,0.000665421826420085,539.6660816725949,540.2981244309098,539.9528154049747,544.4977150443837
5.948,0.10541060946384344,-2.0904603439474014,1.991946857048014,0.6038727946474189,3.954663232178766,-0.009799991527777758,0.12028605097185699,-2.0996638827607454,1.9971724761858543,-3.357282188552235e-24,0.2842002494643144,-0.2368952883507232,0.02565541209671885,-0.26203609951965107,0.07952734152344079,-0.0006527088052721963,0.20096755143471642,0.04026198950597504,-0.004679124511636536,0.00029075049799212355,534.8866006537207,546.2301275691015,548.6737972167091,534.3724613040747
6.0,0.12116583198605574,-2.1027701227675797,1.9921172155536535,0.019717867282498466,4.1564074695786175,-0.00793490017048515,0.13687880646156755,-2.1097808402805427,1.997359857873154,-3.134793098244672e-24,0.31431263818153277,-0.23550197228113343,0.026204146157220738,-0.1025600439012403,0.034772946397659196,0.0009826787631767998,0.20075335765834199,0.08141199763166625,-0.0340726530394742,2.0897342006040377e-05,533.4460891965604,548.5255613447778,559.1957329383438,522.3963491892337
6.052,0.13851439955410275,-2.1148832927148713,1.9922800678329318,0.33052593379378353,3.9643191281094787,-0.002759348347943464,0.15453395716799212,-2.1202155328264913,1.9975349707313743,-2.926871496683646e-24,0.3447347971413052,-0.23126817226431284,0.028283736646700624,0.23796893334263824,-0.13392676672819387,0.0023197096522838087,0.20053409096145947,0.021135434820025494,-0.008721872538160308,-0.0003114932365323757,539.615136980203,543.5649409686836,545.2798367702192,535.7609018267108
6.104000000000003,0.157342704990247,-2.126930309644103,1.9924421657329652,1.2823696782781502,3.403006232553263,-0.0038186700876498263,0.17309753431997002,-2.131213843792034,1.9976986053275094,-2.7325786980566333e-24,0.371527737148467,-0.2324076115358018,0.03046676956863445,0.3172397171105864,-0.19860728139219452,0.0023134246083114877,0.19855667178945138,-0.0566053931119512,0.03050141688280894,0.0006508530987451976,544.0635673089009,535.7316481642686,528.0865649746246,555.7849275438613
6.156000000000002,0.1773819247942579,-2.1393143043814633,1.992611009994445,1.7945433395692632,2.976228341156847,-0.00800405035222844,0.19247822495078362,-2.142817514558342,1.9978515023880241,-2.551035195087754e-24,0.392861487823026,-0.24145096261280216,0.0314319180236114,0.0469776506130843,-0.09174668545239552,0.0026867099595851126,0.1954903099897652,-0.044446417586404316,0.027300524560841997,0.0003048735033152443,543.1428863625546,537.6754063555749,529.9058713825988,552.7457836993552
6.208000000000002,0.19841681954015317,-2.1522585817139657,1.9927871282241358,1.4633014898497978,2.911331957716303,-0.0030610568790422465,0.21260732031151314,-2.1549802466129973,1.9979943558442386,-2.3814170430767622e-24,0.41111166653090914,-0.2522498443776068,0.03098127992355686,-0.18406784937953374,0.011626648228973618,0.0019015234080452547,0.19228873699815086,0.02654572936524545,-0.0041314281719467515,-0.00043724149073981656,538.0054219213904,545.137551044836,544.9774268590694,535.1891973736773
6.260000000000002,0.22038677844404425,-2.165627685542919,1.9929668553062339,0.9929304047319552,2.921886297002048,0.0012121249374868362,0.23343808276276473,-2.167641373950862,1.9981278157003224,-2.2229524545645456e-24,0.42900245751505733,-0.25872599571429367,0.03000465077549088,-0.1008894541853745,-0.018696801440384693,0.0011389351441539678,0.1894362009023927,0.048950078838526284,-0.016946048862354735,-0.00023719759620221273,536.048691335659,546.2402643947166,550.7737846733405,529.755210605331
6.312000000000001,0.2432701686693253,-2.179216246724782,1.9931463746063631,1.0619236753867454,2.7009979744684363,0.0014747994379978992,0.25491960560705085,-2.180733649003351,1.998252490733424,-2.0749185933122363e-24,0.4461034873630368,-0.26227042138465084,0.02945465013750523,0.09711588622318769,-0.10866534704518485,0.0015781781251176159,0.186890491587524,0.004055769006453519,0.0028949440304550525,5.51683961776074e-05,539.4966794417127,541.712320920152,540.9770566669699,540.6071550882504
6.364000000000001,0.2669530640619243,-2.1930388253666346,1.99332268819091,1.4266600887382221,2.3387274351981904,-0.001089584596351703,0.2770197265456358,-2.1941980332030337,1.9983689510350349,-1.9366385567959616e-24,0.46029083144902694,-0.26772253338420804,0.028936984352843635,0.10557016626315456,-0.1141773958183812,0.001854828830694727,0.18474301834957785,-0.03341365691636509,0.020403858398719506,0.0002742445947986361,542.2482141322415,538.0978379535454,532.4656280028422,549.6070556424393
6.416,0.291263077881383,-2.2072388248071153,1.9934927671240994,1.4693565863778522,2.1338226865517305,-0.0014506738780719025,0.29971653434196494,-2.207979995899322,1.9984777304022505,-1.8074785369202587e-24,0.47127074234184796,-0.2757333783459506,0.02798971631401172,-0.05395889405692258,-0.03297580325313973,0.0014075763081143442,0.18304028959017443,-0.011863356613193704,0.018582337603240087,-0.00010352600152320132,539.6981360814591,541.8392592573322,535.543546903023,545.2522675985516
6.468,0.316093913691043,-2.2218304955902863,1.9936543953606563,1.1173150432927847,2.1462322652170513,0.0011953060315396647,0.3229868294389197,-2.2220299593127995,1.998579328587203,-1.6868451491397266e-24,0.4809734852692939,-0.2825717807302345,0.02671150787716305,-0.13802613487320647,0.018303798792450005,0.0004356850505587601,0.1817475122281335,0.02559018679006495,-0.0020028083265176983,-0.00024440140430204567,537.2028656801059,544.7167492490803,544.5301931555989,535.7267705658882
6.52,0.3414329774055819,-2.2366610295641935,1.9938057453211386,0.8249875718148791,2.148164632637019,0.0021102026823927593,0.34679535134135814,-2.23630095664323,1.9986742134125224,-1.5741829206499765e-24,0.4908001732822836,-0.28592917231061227,0.025469776980644898,-0.05487684418581843,-0.020330411858975626,0.000327155747923886,0.18089173294760452,0.02805859527681205,-0.003956839106030391,-8.890287577652772e-05,536.8323927344006,544.5142025646065,545.4671735396013,535.2572091094457
6.572000000000003,0.36726808997504384,-2.251598010436883,1.993945642117312,0.8659092652370897,1.9995593339114512,0.0017156616647635427,0.37112596634550926,-2.2507593445446075,1.99876282276031,-1.468971928764746e-24,0.4999993140312212,-0.2876206785477145,0.024486847362665144,0.049259735241920746,-0.06444137424343148,0.0007242623453467906,0.18037458718767418,-0.0013756581884230845,0.007615995155483928,-8.79301213794326e-06,539.5418817074342,541.5313302735243,539.0725133368767,541.939257339384
6.624000000000002,0.393526299299199,-2.2666482265422574,1.994073719271396,1.0072946833675152,1.8129844601586216,0.0006866564641094182,0.39594044066540296,-2.2653667460917863,1.9988455664417324,-1.3707255810360442e-24,0.5074585483094622,-0.2902660327394031,0.023628570053091477,0.02839184161584346,-0.0538982833763742,0.0005795650348963831,0.18012111212677953,-0.01564884161715908,0.014816316633205826,5.915458558872552e-05,540.5484844059858,540.2830121969007,535.7383016353051,545.4497051364112
6.676000000000002,0.4201179006688425,-2.2818650700543412,1.9941902018809374,0.9308230244710619,1.727792509351042,0.00012018382400150376,0.4212061573148213,-2.2800899516809774,1.9989228279539992,-1.2789885290978635e-24,0.5133669213795345,-0.29359503958852784,0.022518423078673147,-0.0614686450916976,-0.011027396520382201,0.00012687313803825395,0.18004500251292097,0.0009205904514608589,0.009146838015562387,6.897245959651939e-07,538.9053389568468,542.1150390286192,539.2019736846867,541.8246528390029
6.7280000000000015,0.44699632236535924,-2.297214135085913,1.9942956349138572,0.6855302675595334,1.7408255200115577,0.00028826587659009744,0.4469003081581579,-2.2949024710913433,1.9989949661311217,-1.193334708621935e-24,0.5187793799568694,-0.2954753295515416,0.021336574442729794,-0.08182653468522941,0.008354125572912562,-9.069991702202978e-06,0.18012948250652927,0.01914723450723354,-0.0005820789234064821,-4.157291815431354e-05,537.6191127276292,543.5373154659643,543.5820511819232,537.2910896785
