Time_s,X,Y,Z,Roll_deg,Pitch_deg,Yaw_deg,Ref_X,Ref_Y,Ref_Z,Ref_Yaw,vx,vy,vz,p,q,r,T_pert,tau_x,tau_y,tau_z,RPM_0,RPM_1,RPM_2,RPM_3
0.0519999999999996,-1.6667498510713402e-21,-4.0,0.010154991227082397,-8.926862038174725e-18,2.011049194744172e-18,-2.110285594980208e-18,-8.606846759833334e-22,-4.0,0.016315732795559035,-2.4031450504792344e-20,-4.863134822640105e-21,-1.6774440349857348e-22,0.0009999517682266965,0.0,0.0,0.0,1.918868751564299,-4.730250243446965e-19,1.4365701334928467e-18,2.444830848673733e-19,585.6674362097573,585.6674362097574,585.6674362097573,585.6674362097574
0.10400000000000276,-2.1823164740997598e-21,-4.0,0.010353776628921358,-2.7795332589967435e-15,2.2870410382683885e-16,-1.0158101270028953e-17,-8.535075945071457e-22,-4.0,0.03285728861272521,-2.3831056930842845e-20,-3.566963396082699e-20,-4.51882207484158e-19,0.01376777255133084,0.0,0.0,0.0,3.769729398674579,1.3595861229933431e-15,-8.924898236238798e-17,4.0988021351893704e-18,630.1857407475337,630.1857407475343,630.185740747534,630.1857407475338
0.15600000000000236,1.713357846074909e-19,-4.0,0.01532506070505373,-3.2268908235250987e-14,2.3061561981976815e-15,2.1710994933376354e-17,-8.425405870949059e-22,-4.0,0.05813376984799201,-2.3524843629773185e-20,2.3109146033867074e-18,-8.71943768835544e-17,0.16573826559331034,0.0,0.0,0.0,4.390290262660279,4.3249887509046e-15,-5.19230779162676e-16,3.51285646421342e-18,644.4238794529671,644.4238794529682,644.4238794529682,644.423879452967
0.20800000000000196,1.5731794391715727e-18,-4.0,0.03030310303017794,-5.2200286016816785e-14,1.8145764137072864e-15,-2.1206265208792734e-16,-8.283962246498109e-22,-4.0,0.09073333858077527,-2.3129914388546963e-20,2.6385814193114832e-17,-3.293558510788507e-16,0.37327118091506384,0.0,0.0,0.0,4.320796620900863,5.229408053807776e-15,-1.837321484280729e-16,3.4889101359435974e-17,642.8450987984984,642.8450987984997,642.8450987984999,642.8450987984985
0.26000000000000156,4.054177950825028e-18,-4.0,0.056238667286858175,-6.997506244337815e-14,-1.0794351443466718e-15,-5.919784320126844e-16,-8.11616093078092e-22,-4.0,0.12940776131568626,-2.2661390999456817e-20,5.66861833305532e-17,-7.0100104507806465e-16,0.5821995468752743,0.0,0.0,0.0,3.918049383938275,5.72733366086279e-15,1.7634518060723113e-16,6.109838026081358e-17,633.6178895093783,633.61788950938,633.61788950938,633.6178895093786
0.31200000000000117,5.915725277570759e-18,-4.0,0.09251347538959283,-6.641249864571269e-14,-1.3855434511772049e-15,-7.640893703767548e-16,-7.926780373508455e-22,-4.0,0.17305571305208667,-2.2132615523878182e-20,4.633137666316673e-17,-9.074824839461237e-16,0.7724727448931448,0.0,0.0,0.0,3.340290730524376,3.6505704203226e-15,-1.0099134027918352e-16,3.6144391374348833e-17,620.1413515110418,620.141351511043,620.1413515110429,620.141351511042
0.36400000000000077,-3.813537936116428e-09,-4.000000003813747,0.13782600599181394,0.00021492859047468545,-0.00021489510144968765,-1.567452155125054e-05,-7.720027142703361e-22,-4.0,0.22070767463408855,-2.1555333254140785e-20,2.5584274505177093e-06,2.5588129899316727e-06,0.9341162480693409,0.0,0.0,0.0,2.694180103967003,-5.899236568985853e-05,5.898077923241303e-05,2.8448642308091614e-06,604.7105390337149,604.7105357318986,604.7023271046907,604.735945674159
0.41600000000000037,-1.2758622579315023e-07,-4.000000127606488,0.19054185922899589,0.0003346935267965516,-0.00033468125037016007,-3.060741868468266e-05,-7.499595172494695e-22,-4.0,0.27151227746871315,-2.0939858141180134e-20,2.5032408536380562e-06,2.5031120533144332e-06,1.0632553925299764,0.0,0.0,0.0,2.0498868182526446,-3.4436188274522885e-05,3.4449093061505694e-05,1.672773829481338e-06,588.9268714788577,588.9268752549209,588.9219869873848,588.9421432969812
0.46799999999999997,-4.1613066400658905e-07,-4.000000416165412,0.24895676586702647,-0.0002062057492361459,0.00020594234535086675,-2.6420101639106997e-05,-7.268719307732214e-22,-4.0,0.32472396269865006,-2.029522229815763e-20,-8.809795448272678e-06,-8.814430340241699e-06,1.1597937035731702,0.0,0.0,0.0,1.4527797321038787,4.419908336111628e-05,-4.4159582932284524e-05,3.088213779263841e-07,573.912168229343,573.9121800899295,573.926423062225,573.8998921150455
0.5199999999999996,-6.001521331151065e-07,-4.000000600141529,0.3114393857189026,-0.0005816491988079808,0.0005764379750969572,-1.6005505626822146e-05,-7.030223670635691e-22,-4.0,0.37969183377928195,-1.9629311046519987e-20,-1.3686074485810861e-05,-1.3706235627694655e-05,1.2260221954280195,0.0,0.0,0.0,0.9286494083422314,5.122990071983998e-05,-4.564936181139071e-05,6.785018536375404e-07,560.3976735140957,560.3993895601399,560.4156398375825,560.3858490554601
0.5720000000000027,-5.206034378223863e-07,-4.000000486907795,0.3765170997505877,-0.00050299533490846,-3.178836065725905e-05,-2.404471292101125e-05,-6.786565327724942e-22,-4.0,0.4358495922351229,-1.894898483982303e-20,1.9024690496474274e-06,-7.2111577858961746e-06,1.2654241507273514,0.0,0.0,0.0,0.4903892845922857,3.1548409551119e-05,6.566455474675812e-05,1.610397229581645e-06,548.8272099099071,548.8577328426392,548.8424790230662,548.8531907078326
0.6240000000000023,-4.402279261698999e-07,-4.0000001396671285,0.44293004259845575,0.00013127577614358932,-0.00042446065095409476,-2.3246571853941252e-05,-6.539873692421098e-22,-4.0,0.4927064562479598,-1.8260189280987567e-20,9.665938035073633e-06,8.826659335097602e-06,1.2824008616259517,0.0,0.0,0.0,0.13805412679347295,-4.600567468431075e-05,4.9544169602031684e-05,5.375833224774875e-07,539.3751022608775,539.3762327776507,539.3622255134196,539.3927527119447
0.6760000000000019,-5.386962246820436e-07,-3.999999848451557,0.50964390650085,0.000561911161314344,3.8907511492507703e-05,-1.4408960458962029e-05,-6.291986059613556e-22,-4.0,0.5498389707397592,-1.7568054339493618e-20,-2.2903803131065857e-06,1.6185265431434463e-05,1.2811850662877882,0.0,0.0,0.0,-0.13278662395404583,-4.864650516600099e-05,-3.436358714728883e-05,-1.4823190259465261e-07,531.9972118315745,531.9703223579378,531.98094460107,531.9855712736154
0.7280000000000015,-6.228444748050568e-07,-3.999999802842068,0.5758444179988687,0.0002605591995108923,0.0005320446226848475,-5.283523099500865e-06,-6.044479632826757e-22,-4.0,0.6068836258322902,-1.687698377545117e-20,-1.151552669965238e-05,5.97886701627642e-06,1.2659507621133523,0.0,0.0,0.0,-0.3322177008502991,1.4991758825915033e-05,-5.461037787439209e-05,-3.354276967912323e-07,526.4803998562379,526.4674318784101,526.4841423185899,526.4613600767066
0.7800000000000011,-4.848555641643319e-07,-3.9999998775206786,0.64091362918291,-0.00022749817848748816,0.00032262297877349807,7.033114116527591e-07,-5.798700372097294e-22,-4.0,0.6635302080613917,-1.6190735686675048e-20,-3.508756339497483e-06,-5.518458563207052e-06,1.2402594241165024,0.0,0.0,0.0,-0.4709581670838422,4.422651174118712e-05,3.8659000916788886e-06,-2.7421152477256884e-07,522.598289357735,522.614147480261,522.6119136649273,522.5986050227744
0.8320000000000007,-2.0878925017148427e-07,-3.999999866073896,0.7044099479259615,-0.0002291994286277848,-0.00020965757167868996,3.505300632236841e-06,-5.555788961015304e-22,-4.0,0.7195158155589632,-1.551249501208691e-20,8.874661703467842e-06,-4.008175923381905e-06,1.2073060545916465,0.0,0.0,0.0,-0.5616277094421696,7.938617075219897e-06,4.4569317243886725e-05,-1.5440378283374728e-07,520.0542236591691,520.0716224403155,520.0563115033335,520.0684492918173
0.8840000000000003,-1.5775121098803458e-08,-3.9999997604905153,0.7660367503510224,0.00010233487073869007,-0.0003597393713757011,2.028265497449728e-06,-5.316704164344975e-22,-4.0,0.7746194746476823,-1.4844938749270095e-20,9.941654567015032e-06,3.6780575080681303e-06,1.1696022450421046,0.0,0.0,0.0,-0.6153996433171922,-2.417906105322776e-05,2.4398906106546283e-05,2.4020889886143127e-07,518.5481124023622,518.5481854619799,518.5409238266599,518.5570673871057
0.9359999999999999,2.8099385831422804e-08,-3.9999996939967457,0.8256063215405653,0.0002485690933843014,-3.129596088619328e-05,7.141536977151033e-07,-5.082243822990597e-22,-4.0,0.828657300974344,-1.4190294575181932e-20,1.4727882069981304e-06,5.3944003966197475e-06,1.1290110274620249,0.0,0.0,0.0,-0.6414206886722095,-1.7489099454153078e-05,-2.3933860886101636e-05,1.3681754179928597e-07,517.820948129008,517.8071628016733,517.8156108656021,517.8134660873843
0.9879999999999995,5.237607711380199e-08,-3.999999728929382,0.8830157629097302,8.075443658882101e-05,0.0002475113564257156,9.86001734381863e-07,-4.853063710609196e-22,-4.0,0.8814781534854832,-1.3550393496301436e-20,-3.459915515859389e-06,6.606932282955124e-07,1.086989195709681,0.0,0.0,0.0,-0.6478513200848668,1.0176275898064154e-05,-2.962186583516426e-05,2.5689435942159607e-08,517.6358650591105,517.6293914083838,517.639343535446,517.626094298737
1.0400000000000027,1.7155475478916274e-07,-3.9999997999155155,0.9382239823268065,-0.000114642994493706,0.0001077302413460266,1.8381493775630096e-06,-4.62969445569847e-22,-4.0,0.9329597342673592,-1.292671709732911e-20,5.798428969359828e-07,-3.0856034598885804e-06,1.0445612906137094,0.0,0.0,0.0,-0.6410770635263441,1.818732769576526e-05,5.855940564733609e-06,-2.5030420223213915e-08,517.8200438781963,517.8280451877777,517.8260080573391,517.821904319787
1.0920000000000023,3.337066206170982e-07,-3.9999998269459116,0.9912325911645649,-8.493138256012216e-05,-0.00018169057635308004,2.674799028479253e-06,-4.412556714336071e-22,-4.0,0.9830050915713899,-1.232043990547471e-20,5.6909650784498134e-06,-1.7665230325307693e-06,1.0024234822304208,0.0,0.0,0.0,-0.6259658733442324,-4.843171765260246e-08,2.5464379702810784e-05,-8.570316553619338e-08,518.2464599572912,518.2549111151196,518.2461415726532,518.2546249438752
1.144000000000002,4.2364276967998305e-07,-3.9999998196069217,1.0420713062313993,8.655028243467121e-05,-0.00019064611819828885,4.2740791242920014e-06,-4.201974761754021e-22,-4.0,1.0315394872624652,-1.1732467339924346e-20,4.32757463124593e-06,1.31742755434645e-06,0.9610187457671916,0.0,0.0,0.0,-0.6060437999248256,-1.704303927511068e-05,4.029547369311033e-06,-1.659967393344217e-07,518.8147799841864,518.8104575031135,518.808534220469,518.815533568551
1.1960000000000015,4.3337083470880943e-07,-3.9999998447721827,1.0907872221026436,0.00011717760899423112,1.0196930011196326e-05,4.783113785119137e-06,-3.9981886554564625e-22,-4.0,1.07850759349434,-1.1163469672868293e-20,3.163358280674028e-08,1.0457276969453488e-06,0.9206127903006145,0.0,0.0,0.0,-0.5837887856572787,-6.610584326498904e-06,-1.6584930274793175e-05,-7.269217965651998e-08,519.4431629225716,519.4354677390961,519.4407140523282,519.4374050306817
1.248000000000001,4.422801361873378e-07,-3.999999916344686,1.1374361095337324,-2.2398764782552437e-05,9.367488405445459e-05,4.306122803424251e-06,-3.8013651084955586e-22,-4.0,1.1238709866645098,-1.061391238912037e-20,-9.996850326124203e-07,-1.6519551869580585e-06,0.8813195260884212,0.0,0.0,0.0,-0.5606215376778394,1.0649608592523815e-05,-1.024950169390739e-05,-4.807890314908437e-09,520.0908831423557,520.0910157127438,520.0943948472232,520.0874701896821
1.3000000000000007,4.864173481199047e-07,-3.9999999795504695,1.1820781308841706,-0.0001130168417826711,-2.1740356341690627e-05,3.5898397437005134e-06,-3.6116071986899887e-22,-4.0,1.1676059096580962,-1.0084083295535613e-20,1.103123465296172e-06,-2.5234506055116917e-06,0.8432003065217561,0.0,0.0,0.0,-0.5375383817179459,9.933224230582244e-06,8.417071806889388e-06,2.03728165690602e-08,520.7364454490832,520.7425180166125,520.73980411993,520.7393023876041
1.3520000000000003,5.216560460861194e-07,-3.9999999967545823,1.2247746020925938,-4.703307694713636e-05,-0.00013177112490769433,3.103146075779107e-06,-3.4289630278911284e-22,-4.0,1.2097012760820847,-9.574116698822712e-21,2.1235983289112505e-06,-8.227001118988712e-07,0.8062633907779793,0.0,0.0,0.0,-0.515074627902698,-3.949156249663619e-06,1.1274190133556737e-05,-3.718490886471045e-08,521.3687704265966,521.3711915303473,521.3673347604171,521.3723664518504
1.404,5.040005127965334e-07,-3.999999993618217,1.2655860459401553,6.400902783927309e-05,-7.265965702901527e-05,3.5707598431199927e-06,-3.2534334347731183e-22,-4.0,1.2501568926409805,-9.084014940670411e-21,3.785614188887045e-07,7.467510543658999e-07,0.7704712456038046,0.0,0.0,0.0,-0.4932748944824553,-1.1268218604449493e-05,-3.367216768401338e-06,-7.419166848746097e-08,521.9834975920203,521.978665884158,521.9795177261337,521.9821261454066
1.456000000000003,4.550847571828689e-07,-4.0000000143989585,1.304570934649639,5.306214975566178e-05,3.3613835405483626e-05,3.590241405241826e-06,-3.0849788549521064e-22,-4.0,1.288981878033882,-8.613667552104541e-21,-1.2957643914264265e-06,1.055036241169315e-07,0.7357927984014929,0.0,0.0,0.0,-0.47213248667608104,-1.3514988004744405e-06,-9.435733674808962e-06,-2.8161636767461833e-08,522.5747087491545,522.5711515112292,522.5741645700252,522.5714986821454
1.5080000000000027,4.1815283218444267e-07,-4.0000000562132625,1.3417860532235792,-4.3509845153704826e-05,3.5595701571107145e-05,3.214544602358974e-06,-2.9235254134426284e-22,-4.0,1.3261932587805478,-8.16286826442923e-21,-1.022746740470192e-06,-1.225420633412166e-06,0.7021904202453121,0.0,0.0,0.0,-0.4514800465291667,8.23413845206255e-06,-1.5120062258455465e-06,2.864482932635116e-09,523.149333391742,523.1515476600295,523.1520557215888,523.1488453445915
1.5600000000000023,3.9576396683230826e-07,-4.000000080699482,1.3772865618910684,-7.297758785525943e-05,-3.3604984669638916e-05,3.1560158632425496e-06,-2.7689703264580397e-22,-4.0,1.3618147242280956,-7.731330091765639e-21,-1.1397060387875028e-07,-1.0860119439111068e-06,0.6696412411085756,0.0,0.0,0.0,-0.4311956475099357,3.247957830182002e-06,5.05778465320671e-06,-7.44129566397065e-08,523.7158609301498,523.7185938782632,523.716669932795,523.7172654443057
1.6120000000000019,3.6108431395649504e-07,-4.0000000753586935,1.4111267880770497,-3.501978122586344e-06,-5.221090701362639e-05,3.4149080535920608e-06,-2.621186682287538e-22,-4.0,1.3958755246665644,-7.318698679890701e-21,-2.5149390833547235e-07,1.1397684930680515e-07,0.638131677633186,0.0,0.0,0.0,-0.41118552715849305,-5.580122909967291e-06,2.629179459171207e-06,-5.0228852553954676e-08,524.276059940414,524.2750899866193,524.2740506694914,524.2767490087783
1.6640000000000015,3.0554606914861443e-07,-4.000000067066304,1.4433602928014342,4.296107726735807e-05,-9.85271004687586e-06,3.5463641141050894e-06,-2.480027664368975e-22,-4.0,1.4284094980057744,-6.924564097613006e-21,-1.010948703575756e-06,4.86095642394491e-07,0.6076453623703156,0.0,0.0,0.0,-0.39130151723942336,-6.449502615563983e-06,-4.215744766381242e-06,-1.5119469069806334e-07,524.831783839539,524.8282819532578,524.8291395931295,524.8298730382654
1.716000000000001,2.4700745209124986e-07,-4.0000000764137935,1.4740399604687395,2.9095482368746737e-05,4.5600075737170506e-05,4.44549528701741e-06,-2.3453302736671785e-22,-4.0,1.45945421185099,-6.548471230143667e-21,-1.453488461923552e-06,3.5986880961043204e-09,0.578171790248685,0.0,0.0,0.0,-0.37142587820821127,-1.187899236412682e-06,-6.539404721045239e-06,-1.3167478648033265e-07,525.3847303997286,525.3821958467036,525.3838826546294,525.382127361151
1.7680000000000007,2.0726069912332253e-07,-4.000000097558248,1.5032183703170179,-2.50609347029063e-05,2.888370152388792e-05,4.839887649291963e-06,-2.2169186020071385e-22,-4.0,1.4890502090733655,-6.1899289186739936e-21,-9.212099805528171e-07,-5.917592579048273e-07,0.5497097511165483,0.0,0.0,0.0,-0.3515284301584548,3.441506682800081e-06,-7.178764736630833e-07,-1.1954042454631632e-07,525.9364839617642,525.9373763714187,525.9371961259619,525.9358332843378
1.8200000000000003,1.8010352190137754e-07,-4.000000108438323,1.530948150515111,-4.915679101562983e-05,-2.9069859056339758e-05,4.296265742755368e-06,5.432833935501412e-10,-4.0,1.5172403461142214,-5.848417976524239e-21,-3.1281354591417153e-07,-4.981566445347897e-07,0.5222626347598206,0.0,0.0,0.0,-0.3316369382671354,2.9485780561113853e-06,5.2027627022565375e-06,-2.344317160054565e-08,526.4881701963532,526.4908382165669,526.4890539078034,526.4897917264408
1.8719999999999999,1.4225603104670953e-07,-4.0000000987944055,1.5572820228208122,-2.3842063349073698e-05,-4.485123530801045e-05,3.28140338347731e-06,2.048883451521771e-09,-4.0,1.544069214300143,-5.5233981996530995e-21,-4.850332001313375e-07,8.300931624113561e-08,0.49582399747050515,0.0,0.0,0.0,-0.3117157533110809,-1.2302124991151425e-06,2.863468134640716e-06,2.5292871121265692e-08,527.0421378325198,527.0426718535878,527.0418233137242,527.0431618129107
1.9239999999999995,8.688319005980578e-08,-4.000000078711707,1.5822722215373413,1.110259135764745e-05,-3.21276003748254e-07,2.4069631972593134e-06,4.183169603662752e-09,-4.0,1.569582635388183,-5.214314477902752e-21,-1.0941880818470638e-06,4.60882536558185e-07,0.4703928927132542,0.0,0.0,0.0,-0.291821892198214,-2.952204118250763e-06,-2.968398966419788e-06,3.308343740012926e-08,527.5950066138984,527.5930727947731,527.5941569699017,527.5941516802549
1.9760000000000026,3.17316664888003e-08,-4.0000000627261265,1.6059719151311105,1.2520180706194437e-05,3.76945709478287e-05,1.8742492905628776e-06,6.535436455843341e-09,-4.0,1.5938272234155177,-4.920602102994889e-21,-1.2401495623755848e-06,3.547951838117837e-07,0.44598732565256183,0.0,0.0,0.0,-0.2721928307341422,-4.187703845346792e-07,-3.6199766835784755e-06,2.3387946067517168e-08,528.1384562197871,528.137138420736,528.1384005253913,528.1373560069043
2.0280000000000022,-7.304634202092431e-09,-4.00000005203529,1.6284335519875512,-9.232365340487125e-06,2.4654293596951277e-05,1.6298303973348525e-06,8.745714227436798e-09,-4.0,1.6168500057037045,-4.641691359895191e-21,-8.228656084022832e-07,1.4896463149961642e-07,0.4225836930378367,0.0,0.0,0.0,-0.252782888416228,2.0278221724454125e-06,5.60975411723207e-07,1.1677880500733817e-08,528.6745167818091,528.6753606199585,528.6752181419845,528.6747400122268
2.080000000000002,-3.494497788079873e-08,-4.000000038063665,1.6497087509364345,-1.5972471519102364e-05,-7.4634275875347605e-06,1.5518653784280035e-06,1.0584206784769423e-08,-4.0,1.6386980965712814,-4.377011479639701e-21,-4.746405196894212e-07,2.0927341425145795e-07,0.40016225643840836,0.0,0.0,0.0,-0.23356966031050302,1.16301437202806e-06,3.0277685592046906e-06,3.5644431493848286e-09,529.2054110418885,529.2067756882291,529.2058020667315,529.2064092873775
2.1320000000000014,-6.428579962372238e-08,-4.000000017901656,1.6698484863665135,9.552120813049053e-07,-9.690723035151455e-06,1.5407277632831802e-06,1.1933145585989776e-08,-4.0,1.659418417946287,-4.1259940239895766e-21,-5.348517103110837e-07,4.056954748205546e-07,0.3787237724581383,0.0,0.0,0.0,-0.2147543889169913,-1.1163584126209572e-06,8.532008638245858e-07,-3.0901497017146613e-10,529.7257660377807,529.7256804297405,529.7254018077399,529.7260425269995
2.184000000000001,-9.670091900642388e-08,-3.999999998300972,1.6889034193269223,1.5865952611853256e-05,1.5527429056869097e-05,1.554752234579346e-06,1.269025311191299e-08,-4.0,1.6790574616484528,-3.888075765276374e-21,-6.8698760723992e-07,4.2881551865206597e-07,0.35824878081870853,0.0,0.0,0.0,-0.19637582060870382,-1.4440357163444032e-06,-2.0294487880975875e-06,-1.8074342512113675e-08,530.2333893690619,530.2322604870824,530.2328577497758,530.2326674905867
2.2360000000000007,-1.2217493858877936e-07,-3.999999985482137,1.7069226851554902,1.3964605624420678e-05,3.185602195216368e-05,3.154118378745518e-06,1.276207969563831e-08,-4.0,1.697661088634538,-3.662701118455299e-21,-5.751913611280893e-07,2.7467065960670346e-07,0.33870654596338967,0.0,0.0,0.0,-0.17840291536665281,-1.1009214679870204e-06,-2.9137952175916333e-06,-2.643123810418526e-07,530.7293108587484,530.7280072953805,530.728043073649,530.7274544393695
2.2880000000000003,-1.330876401603542e-07,-3.999999979711355,1.7239542894302917,1.6386834284945614e-05,3.716637976518467e-05,4.961341517514913e-06,1.2089479675016026e-08,-4.0,1.7152743609746306,-3.449324176637398e-21,-2.863563462943182e-07,1.442647720231893e-07,0.32008189288500094,0.0,0.0,0.0,-0.16095131405207797,-9.440503394782544e-07,-3.2374513684982092e-06,-2.641974320262163e-07,531.2099353725101,531.2085788830351,531.2087200194456,531.2079760332178
2.34,-1.279144246797685e-07,-3.999999980354366,1.7400450965319183,-6.7821486684635225e-06,1.4621171131832417e-05,6.514049557000247e-06,1.070684354092549e-08,-4.0,1.7319414027566353,-3.2474103961697004e-21,1.0284387194335073e-07,-4.978828313361831e-08,0.3023482374607555,0.0,0.0,0.0,-0.14404640679137853,1.5817648146189718e-06,-3.811438474138103e-08,-3.171297076138852e-07,531.6742266120322,531.6747269378692,531.6736490052641,531.6731239711876
2.392000000000003,-1.1602880305645366e-07,-3.999999978977645,1.7552408981681746,-9.010766598645401e-06,-1.3519222553304804e-05,6.4082073719997255e-06,8.734185264350994e-09,-4.0,1.7477052865047182,-3.0564379726250867e-21,2.744495212320335e-07,1.6550282564350527e-08,0.2854851125624578,0.0,0.0,0.0,-0.12776953581682834,1.2799824093658318e-07,1.937081281714389e-06,-1.215311456681654e-07,532.1212707763494,532.1219395446392,532.1208947571661,532.1214806224109
2.4440000000000026,-1.0971028571725757e-07,-3.9999999738762275,1.7695856930715812,1.4731557073585474e-06,-2.3074730021621373e-05,4.674419216280442e-06,6.329475090240993e-09,-4.0,1.7626079420489433,-2.8758989448060457e-21,1.5134224294051215e-07,1.1071658867299876e-07,0.2694520821537022,0.0,0.0,0.0,-0.11204891995105229,-8.412580596318252e-07,1.3666091572426824e-06,2.103449786074255e-08,532.5530912867866,532.5532612819046,532.5528912660793,532.5536056961032
2.496000000000002,-1.1314828013548285e-07,-3.9999999692494193,1.7831218828690985,5.6899276647483374e-06,-7.633366787959623e-06,2.7985682320514832e-06,3.61031613949415e-09,-4.0,1.7766900851010856,-2.705300060016851e-21,-7.984715329936192e-08,9.519665602461055e-08,0.25422453049484806,0.0,0.0,0.0,-0.09693316143570255,-4.335016564019682e-07,-8.301550501434672e-07,6.475548655852362e-08,532.9681773561683,532.9677687755335,532.9682592789366,532.9681310282598
2.548000000000002,-1.2008101935976024e-07,-3.9999999669912705,1.7958901226763588,6.026834341611827e-07,9.587343708372693e-06,1.510986673118851e-06,6.282585482860148e-10,-4.0,1.7899911630787135,-2.5441634303806163e-21,-1.5451347726020538e-07,3.641365019280393e-08,0.23976379119912217,0.0,0.0,0.0,-0.08235100335480847,4.4089563257134217e-07,-1.4862801837519758e-06,5.5899258488730387e-08,533.368077752574,533.3677399997566,533.3684117714972,533.3677891213663
2.6000000000000014,-1.2322106818408516e-07,-3.9999999651335125,1.8079294528976197,-3.536291366849359e-06,8.33153053154096e-06,8.666442928603689e-07,-2.5967711920955658e-09,-4.0,1.8025493159790233,-2.3920270068353876e-21,-5.6558589310754605e-08,3.099670316520241e-08,0.2260432940901241,0.0,0.0,0.0,-0.0683246441768909,5.104984078498871e-07,-6.341662435024659e-08,3.25019150046641e-08,533.75227168641,533.7524160298212,533.7525478102115,533.7523625178575
2.652000000000001,-1.227856336941458e-07,-3.9999999619514264,1.8192778611594624,-3.468272813079278e-07,-3.2848747510531747e-06,6.515341970896995e-07,-6.033082477833924e-09,-4.0,1.8144013503379948,-2.2484448946073615e-21,2.22280932558378e-08,6.618999382706098e-08,0.2130457800587851,0.0,0.0,0.0,-0.054959497703664734,-1.3790880922051435e-07,1.0692734095343207e-06,1.3288631675296707e-08,534.1182433383472,534.1185438296991,534.1182443210685,534.1186338009627
2.7040000000000006,-1.2347711691938021e-07,-3.999999958690793,1.8299716258850314,4.998530736302325e-06,-5.9405775195829745e-06,6.422243607381995e-07,-9.632246901827342e-09,-4.0,1.8255827245216931,-2.112987531400166e-21,-1.450965468597483e-08,6.767786936040134e-08,0.200728383798985,0.0,0.0,0.0,-0.04214592899547562,-4.811695934138463e-07,4.910262215154014e-07,2.310094137947512e-09,534.469086777706,534.4690899557183,534.4689395376511,534.4692529967879
2.7560000000000002,-1.2652209523679298e-07,-3.9999999575577334,1.8400453689178142,5.241438136140461e-06,2.71116624139782e-06,6.932450172563379e-07,-1.3352816430502217e-08,-4.0,1.8361275437870361,-1.985241747231501e-21,-6.948311543569217e-08,1.874912256346698e-08,0.1890671278136105,0.0,0.0,0.0,-0.029916725295314098,-1.2063010593531294e-07,-6.355688182177113e-07,-1.9655914190987108e-09,534.803686412373,534.8034427482737,534.8036408245549,534.8034748998556
2.808,-1.2844107618984008e-07,-3.999999958703012,1.849532093388967,1.2206799140542537e-06,9.096433566324646e-06,7.372284068915478e-07,-1.7169994905783777e-08,-4.0,1.8460685637209886,-1.8648107227688208e-21,-3.7616560124429395e-08,-2.7606456987943197e-08,0.17802835056168465,0.0,0.0,0.0,-0.018225463796243707,3.136315631841506e-07,-6.933082010849267e-07,-2.5884016530015303e-09,535.1231874906707,535.1230652234785,535.1232796478387,535.122955383221
2.8599999999999994,-1.2654424608538327e-07,-3.9999999604734517,1.8584635245883094,-8.627172895945492e-07,5.232676889587123e-06,7.559635747419577e-07,-2.1060139864187117e-08,-4.0,1.85543720082177,-1.7513138611427093e-21,4.692198060790406e-08,-3.442469091630375e-08,0.1675891596171482,0.0,0.0,0.0,-0.007098486010576624,2.259506946941484e-07,1.7365576387116949e-07,-1.8352427311582834e-09,535.427020605484,535.427149217619,535.4270870617315,535.4270702307655
2.9120000000000026,-1.2234824561467322e-07,-3.9999999619445092,1.8668698873458114,1.0828517159933358e-06,-1.6736580936431632e-06,7.534085637226223e-07,-2.4984039058740537e-08,-4.0,1.8642635491248076,-1.6443865865308977e-21,8.632232159976862e-08,-2.5629656636190914e-08,0.15771957254804148,0.0,0.0,0.0,0.003495232712836846,-1.4500086410227592e-07,6.079041840437469e-07,-9.389494820820511e-10,535.7162412691947,535.7163901727979,535.7161914225557,535.716433611951
2.964000000000002,-1.1874743050285842e-07,-3.99999996385927,1.8747798319020823,3.240197482349634e-06,-2.11247945632586e-06,7.388667432356468e-07,-2.889314985351786e-08,-4.0,1.872576401901307,-1.5436800812897164e-21,6.458794157087954e-08,-3.764632247230364e-08,0.14838841818547416,0.0,0.0,0.0,0.013609297225588485,-2.429813132591959e-07,1.3183567951215198e-07,-3.282354756085784e-10,535.9923236121241,535.9922878779595,535.9922443724082,535.9923648789164
3.016000000000002,-1.1603859401358663e-07,-3.9999999671012922,1.882220687601406,2.3063487073754834e-06,2.6126361128479277e-06,7.198647221883918e-07,-3.274686074363898e-08,-4.0,1.88040327756982,-1.4488609720470415e-21,4.820342533895984e-08,-6.667212360945411e-08,0.13957391048223192,0.0,0.0,0.0,0.023228069041240106,6.8965734743052954e-09,-4.1784754682504624e-07,-3.663132261841975e-11,536.2547150921042,536.2545830328843,536.2547171834578,536.2545806918059
3.0680000000000014,-1.1232308296700031e-07,-3.9999999712973313,1.8892185003413535,-2.020605997536353e-07,4.575815103378858e-06,7.005529491315351e-07,-3.651417082849876e-08,-4.0,1.887770449062154,-1.3596109739473671e-21,7.612259539593695e-08,-8.291576238298373e-08,0.13125068201052625,0.0,0.0,0.0,0.032370385466171846,1.9648569024752962e-07,-2.8908840101091436e-07,4.731814352512984e-11,536.5038937822059,536.5038640381206,536.5039570548194,536.5038010879251
3.120000000000001,-1.0676019968802695e-07,-3.999999975394525,1.8957981847231522,-9.682045582788673e-07,1.2580759440212913e-06,6.824786484615877e-07,-4.0165303740096934e-08,-4.0,1.8947029759756415,-1.27562650114142e-21,1.1339687063716394e-07,-7.690615171024154e-08,0.12339757769530754,0.0,0.0,0.0,0.041026079556856415,8.505002942692833e-08,1.9845417167610156e-07,3.5681345433138776e-11,536.7396908773387,536.7397818991631,536.7397183050066,536.7397547145266
3.1720000000000006,-1.0069868062125949e-07,-3.9999999790336993,1.9019832861322776,2.8982996114639367e-07,-2.2333290761281577e-06,6.657903548725912e-07,-4.366856104927906e-08,-4.0,1.9012247389250068,-1.196618250628585e-21,1.1575656746069935e-07,-6.791783566452736e-08,0.11598549063820016,0.0,0.0,0.0,0.04925978806655304,-1.1204616013255037e-07,3.1935146459053144e-07,-5.685254409456596e-13,536.9639658881481,536.9640324177662,536.9639299277072,536.9640683743296
3.224,-9.562330266590606e-08,-3.999999982709001,1.9077960842997357,1.1166947996713635e-06,-1.6415046013093353e-06,6.501467122859369e-07,-4.6992376462760366e-08,-4.0,1.9073584755798574,-1.1223107656787756e-21,9.189721243117431e-08,-7.146959052104555e-08,0.10899435466147207,0.0,0.0,0.0,0.05706821258257458,-1.1213247552676793e-07,-6.092654372046082e-09,-3.0331164910124714e-11,537.1766108514073,537.1765729249303,537.1765747762364,537.1766087936815
3.276,-9.134679716278222e-08,-3.999999986767704,1.913257836468601,2.0791111946559212e-07,9.771020120798994e-07,6.351802576069703e-07,-5.011345011711454e-08,-4.0,1.9131258179389268,-1.0524419842716009e-21,8.002648073780135e-08,-7.953029585848377e-08,0.10240269711479115,0.0,0.0,0.0,0.06447129141303842,4.2018945703729676e-08,-2.4650677836291737e-07,-4.6574534959309966e-11,537.3781037508153,537.3780381759638,537.3781170669639,537.3780245429673
3.328000000000003,-8.67987694181559e-08,-3.999999990839388,1.918388558909686,-5.414781147608453e-07,1.9440785542361867e-06,6.816221279099184e-07,-5.3019901520317674e-08,-4.0,1.9185473304503953,-9.86762777285668e-22,8.927168794153168e-08,-7.633161724484563e-08,0.09618774630524482,0.0,0.0,0.0,0.07150036527003281,-1.9633133330157383e-07,-4.0928020467006947e-07,-2.4617493946074468e-08,537.5694402057493,537.5692460682499,537.5692935625498,537.5692252987119
3.3800000000000026,-8.131102504178198e-08,-3.999999994844602,1.9232073757619057,5.688206234902591e-06,6.131533621558412e-06,1.0971188239397996e-06,-5.5699813233344665e-08,-4.0,1.9236425486395679,-9.250364805414961e-22,1.1072568434467178e-07,-7.786335060900246e-08,0.0903329884697182,0.0,0.0,0.0,0.07814903781679747,-1.231986370284039e-06,-1.1003401142981278e-06,-5.506919105616102e-08,537.7505873406147,537.749839931247,537.7500053548835,537.7500475418071
3.432000000000002,-7.344917659170868e-08,-4.00000000103285,1.9277323160749897,4.081563790111042e-06,2.2239751502421422e-06,1.2400079405814523e-06,-5.814218062320766e-08,-4.0,1.9284300179515177,-8.670384242401927e-22,1.648713925327508e-07,-1.3444218732045678e-07,0.0848170078536307,0.0,0.0,0.0,0.08445181220816826,-2.0803537246222635e-07,2.162630360293981e-08,-2.43297978875721e-08,537.9215467538231,537.9214870368337,537.9213974347757,537.9214710079452
3.4840000000000018,-6.486116026637722e-08,-4.000000008725067,1.9319805448498366,-7.071200150411644e-06,-8.369276588307856e-06,1.0618672131705873e-06,-6.032568520625298e-08,-4.0,1.93292733255755,-8.125554628404646e-22,1.5936852515399088e-07,-1.4696687983828324e-07,0.07962533714670239,0.0,0.0,0.0,0.09039396397413697,9.701473057619629e-07,9.727694905725419e-07,-9.97268328246471e-10,538.0826673143936,538.0832895498197,538.0829746245536,538.0829754643304
3.5360000000000014,-5.990100866008681e-08,-4.000000013365466,1.9359682850818307,-1.1000303630019056e-05,-1.0217715955825822e-05,8.098670391291943e-07,-6.2228486342273e-08,-4.0,1.9371511739110279,-7.6138550797196265e-22,6.907217352538058e-08,-6.395868537445354e-08,0.07473704700153813,0.0,0.0,0.0,0.09601947379705897,6.087327265820775e-07,4.3083153275732893e-07,7.60990015283955e-09,538.2356479428269,538.2359807774766,538.2358686830112,538.2358117248405
3.588000000000001,-5.940522765546298e-08,-4.00000001325442,1.9397107626658365,-3.149207720398702e-06,-1.8276105610709563e-06,6.168821180730747e-07,-6.384724604590592e-08,-4.0,1.9411173488706719,-7.133370665885194e-22,-8.190770379455398e-09,2.304960514280755e-08,0.07013444420025604,0.0,0.0,0.0,0.10135473177339427,-5.051019708087149e-07,-5.881938435812258e-07,7.641430861273323e-09,538.3809133074383,538.3805633639181,538.3807775776262,538.3807509814748
3.6400000000000006,-5.990446995165024e-08,-4.000000011612144,1.9432224501815445,4.362265583666623e-06,4.32102203708009e-06,5.08425292992407e-07,-6.520603311812434e-08,-4.0,1.9448408272383064,-6.6822878621506425e-22,-4.2969368120420284e-09,2.824943591380822e-08,0.06580560226427751,0.0,0.0,0.0,0.10638262953709648,-7.10822091768707e-07,-6.103225355522651e-07,4.821340456241621e-09,538.517493873449,538.5170711070118,538.5172827753861,538.5173149352551
3.692,-5.872824251339758e-08,-4.000000011661457,1.9465171107702761,2.347445232093256e-06,1.273330680855219e-06,4.6801010747570316e-07,-6.633657629250808e-08,-4.0,1.948335778583577,-6.258890088325997e-22,3.277070571451196e-08,-1.3074927164495302e-08,0.061734979017271166,0.0,0.0,0.0,0.11112109795319647,5.344934400283295e-08,1.631438096039993e-07,-4.700485959485408e-09,538.645911841723,538.6459811350021,538.6459129904115,538.6459480842699
3.7439999999999998,-5.689767533471847e-08,-4.00000001282325,1.9496076692197688,-1.298761892009883e-06,-1.7880599167997545e-06,6.20440851875569e-07,-6.726107931132381e-08,-4.0,1.9516156082507097,-5.861553346723823e-22,3.317048881752945e-08,-2.3010967108567802e-08,0.057906719954024834,0.0,0.0,0.0,0.11559577690731647,1.2617145051285848e-07,9.806974412954109e-08,-1.835724865580858e-08,538.7673916341726,538.7674633580652,538.7673697093264,538.7673607209513
3.796000000000003,-5.5839626742121077e-08,-4.000000013443535,1.952506309755566,-2.8690047149592804e-06,-2.3041602060500094e-06,6.667613814869248e-07,-6.799476667726451e-08,-4.0,1.954692992462252,-5.488741969497298e-22,1.421464574094046e-08,-5.653842563070702e-09,0.054307163704491554,0.0,0.0,0.0,0.11982151233775835,1.6145046786598412e-07,6.427183013438098e-08,-8.081659520532242e-09,538.882049515814,538.8821216980783,538.8820737320472,538.8820426559215
3.8480000000000025,-5.581624146980414e-08,-4.000000012818516,1.9552244872094577,-2.071362397710042e-06,-1.491192465220385e-06,6.053195741212735e-07,-6.855421258650326e-08,-4.0,1.9575799124522113,-5.139004483562742e-22,-5.037302846443345e-09,1.94553654517449e-08,0.05092278566643055,0.0,0.0,0.0,0.12381654311353521,-7.013291602849741e-10,-2.2464571827786812e-08,-4.101037005780851e-10,538.9904686788855,538.9904612723026,538.9904670638665,538.9904601057402
3.900000000000002,-5.647614729221725e-08,-4.000000011279092,1.9577730548796877,-1.8576866386837277e-07,-4.267355967823195e-07,5.1866830257095e-07,-6.896031280886191e-08,-4.0,1.960287687576314,-4.810969599439374e-22,-1.511650501964689e-08,3.2474280336502725e-08,0.04774220302927767,0.0,0.0,0.0,0.1275867439234385,-1.29766466965464e-07,-6.312416000887291e-08,2.416139417199566e-09,539.0927633628402,539.0927017037046,539.0927300742164,539.0927513769985
3.9520000000000017,-5.734698079474925e-08,-4.000000009634858,1.9601622585136034,5.755067176740774e-07,-5.630164751737699e-08,4.5070438700248166e-07,-6.923616246482817e-08,-4.0,1.962827007360488,-4.503342328718372e-22,-1.6962644825886032e-08,3.013917079179981e-08,0.04475465931454952,0.0,0.0,0.0,0.13113744132431826,-6.510662540098973e-08,-1.81614904668617e-08,2.436149860377415e-09,539.1890460590002,539.1890194463901,539.1890335095368,539.1890485132695
4.004000000000001,-5.824463835479287e-08,-4.000000008241,1.9624017949331607,-8.347838312503808e-08,-2.610420764496477e-07,4.0999481826587156e-07,-6.940375003301411e-08,-4.0,1.9652079624603465,-4.2149002334598896e-22,-1.750762966108097e-08,2.560399286980242e-08,0.04194912646744439,0.0,0.0,0.0,0.13447866633764277,6.454560211841781e-08,3.380763860327241e-08,1.5317747826750382e-09,539.2796219135796,539.2796533421363,539.2796477309263,539.2796379086793
4.056000000000001,-5.9236609865190555e-08,-4.00000000684781,1.9645007652290627,-6.045425011176503e-07,-2.8975103305148515e-07,3.8945177188202203e-07,-6.948296315432586e-08,-4.0,1.9674400745145468,-3.944489809591036e-22,-1.9915585138482804e-08,2.7971325428870854e-08,0.03931374541918981,0.0,0.0,0.0,0.13763251927693726,7.341955825026831e-08,2.3137671174179087e-08,6.664669212533972e-10,539.365132116368,539.3651629661218,539.3651578323321,539.3651417674158
4.1080000000000005,-6.033030670813582e-08,-4.000000005238913,1.9664677452759425,-5.654484887481283e-08,1.0633772279094211e-07,3.7946517775905473e-07,-6.949169669053439e-08,-4.0,1.9695323248836827,-3.691023005317921e-22,-2.123158637767615e-08,3.202085164421658e-08,0.03684003371855487,0.0,0.0,0.0,0.1405976283839427,-2.31734543298331e-08,-2.1103761779230708e-08,1.397280587383124e-10,539.4455342973389,539.4455201530053,539.445527368053,539.4455280292153
4.16,-6.136075451644897e-08,-4.000000003635013,1.968310821837745,9.030598056836584e-07,5.943299514554017e-07,3.895568070852038e-07,-6.944607821154053e-08,-4.0,1.9714931822738495,-3.4534738746532836e-22,-1.8775059560129107e-08,2.944028272428925e-08,0.03451781893322125,0.0,0.0,0.0,0.14339004578160153,-1.5814657723627973e-07,-1.172713821764554e-07,-8.628542096094497e-09,539.5212725430706,539.5211845732913,539.521192797004,539.5212058527325
4.212,-6.204010774399074e-08,-4.000000002519258,1.9700376304160494,2.430828045770151e-06,2.019013472067136e-06,4.801510669927074e-07,-6.936008365286351e-08,-4.0,1.9733306292505,-3.230875365381521e-22,-8.395761471684345e-09,1.5404992976360415e-08,0.03233905621839917,0.0,0.0,0.0,0.14601217175782333,-2.6791860084493e-07,-2.509873203808892e-07,-1.0488030669306023e-08,539.5923757527416,539.5922100336008,539.5922546610265,539.5922600682445
4.264000000000003,-6.188049486874512e-08,-4.00000000242724,1.9716553279389368,8.260883648444372e-07,7.27419860469451e-07,4.952265017699136e-07,-6.924430459889132e-08,-4.0,1.9750521876536444,-3.022316240120231e-22,8.353722232966887e-09,-4.376464033773969e-09,0.030294197835312404,0.0,0.0,0.0,0.1484816874480043,7.721688432121178e-08,5.359851224960759e-08,-1.0988532403884907e-08,539.6591896533351,539.6592314256992,539.6591770910703,539.6591695491805
4.3160000000000025,-6.140594042729703e-08,-4.00000000270628,1.973170642174093,-1.2654794200108747e-06,-1.1487885592843735e-06,6.64737555108297e-07,-6.910382265739087e-08,-4.0,1.9766649429300844,-2.826938128578695e-22,6.881638300429983e-09,-2.961156408622045e-09,0.028375739270880357,0.0,0.0,0.0,0.15080428367402912,7.62488058831356e-08,5.341640142605425e-08,-2.9408723974076818e-08,539.7221491626237,539.722190562876,539.7220739087477,539.7220666186852
4.368000000000002,-6.132281294549838e-08,-4.000000002555786,1.9745899133383453,8.18984580333552e-07,7.959353228728743e-07,8.036112579484134e-07,-6.894072597764457e-08,-4.0,1.9781755674022117,-2.6439327086465415e-22,5.549957410538832e-10,4.1481589033871585e-09,0.0265760884483823,0.0,0.0,0.0,0.1529890444961116,-3.2374927708921586e-07,-3.1555079171539715e-07,-2.3019142939502596e-08,539.7814480291648,539.7812439321449,539.7812667211971,539.7812693385699
4.420000000000002,-6.096240018210962e-08,-4.0000000026978615,1.9759190791499768,1.2525440679788441e-06,1.011659587860351e-06,7.226694443949193e-07,-6.875815227135592e-08,-4.0,1.9795903424960914,-2.4725390135606556e-22,1.1384165458056268e-08,-7.717975300594821e-09,0.024887809884499984,0.0,0.0,0.0,0.15504678446052025,-1.0939488764792538e-07,-8.764562665371768e-08,-4.568794193812909e-09,539.8370860994511,539.8370232006127,539.837035708737,539.8370426514883
4.472000000000001,-6.021557321386228e-08,-4.000000003331882,1.977163746035808,-6.766576517253187e-07,-8.921097278997001e-07,5.944314287088167e-07,-6.855815471711117e-08,-4.0,1.9809151799541405,-2.3120408620837983e-22,1.3700025595697855e-08,-1.2386108567050747e-08,0.023304809272972328,0.0,0.0,0.0,0.1569803888186485,5.268606484870943e-08,5.6454242044964084e-08,-4.33928926170298e-09,539.8894089317661,539.8894437679147,539.8894110570723,539.8894122598248
4.600000000000001,-6.046536688468524e-08,-4.00000000304409,1.9798976816754044,-6.161495524588918e-07,-5.042019182004443e-07,3.1447514308065443e-07,-6.796576081845304e-08,-4.0,1.983689914952657,-1.975894087704564e-22,-1.4380402342745792e-08,1.5168569463731358e-08,0.01973468999938479,0.0,0.0,0.0,0.14632248584038196,-3.003502630037838e-08,-5.053677414439192e-08,7.755565425814033e-09,539.6006839371722,539.6006582059525,539.6007006170757,539.6006940696864
4.652000000000001,-6.124025566531384e-08,-4.0000000022028965,1.980879795970416,1.3379235679417657e-06,1.6692936212174182e-06,2.1239906239127867e-07,-6.771142644995385e-08,-4.0,1.9847372486498427,-1.849014279652358e-22,-1.3337511859947594e-08,1.455831446656455e-08,0.018311792564395458,0.0,0.0,0.0,0.15960509681893137,-2.688988235448687e-07,-4.809254763853957e-07,1.956720191356723e-09,539.9606179954809,539.9603786929424,539.9605388017594,539.9604711345531
4.704000000000001,-6.121731867033867e-08,-4.000000001845071,1.9817895683735585,1.0923497253990705e-07,3.603047621997264e-06,2.6714369032464797e-07,-6.745459592819807e-08,-4.0,1.9857188740276783,-1.7300947415398218e-22,1.181650969768269e-08,3.247911094974363e-09,0.01696477989223754,0.0,0.0,0.0,0.16297833656913754,1.147641384863748e-07,-4.3475430603215533e-07,-1.0339429151470414e-08,540.0519109452969,540.0518088393701,540.0519125701373,540.0517372238315
4.756,-5.966827490263062e-08,-4.00000000162693,1.9826344182000304,-2.262759407799746e-07,8.080603554278231e-07,4.1355097068799634e-07,-6.719949404118115e-08,-4.0,1.9866387773117853,-1.6186525599049242e-22,3.8130452915059874e-08,5.378651973880889e-09,0.01578196932199377,0.0,0.0,0.0,0.16574399804133305,-7.455612982938375e-08,1.259973628708333e-08,-1.6196215026022534e-08,540.1267568661202,540.1267370991445,540.1266782683274,540.1267060751118
4.808,-5.782122117807955e-08,-4.000000001310606,1.98342226687716,2.9581637583481885e-08,-4.121975874484045e-06,4.529941388738804e-07,-6.694082291586245e-08,-4.0,1.9875007151952064,-1.514232628134071e-22,2.8019394018626897e-08,6.218294084753127e-09,0.014740391713206461,0.0,0.0,0.0,0.16792963090032018,-9.42119157171905e-08,4.073959990888202e-07,-1.2600200627728184e-08,540.1858571570181,540.1859570663875,540.1857844656291,540.1859444844073
4.859999999999999,-5.767287939671483e-08,-4.000000001049079,1.984159561161282,2.5009711961548254e-07,-3.35745924343999e-06,4.944716572678335e-07,-6.667053952165707e-08,-4.0,1.9883082269078796,-1.4164061842993379e-22,-1.2630186582300247e-08,3.4237030080314243e-09,0.013811654776719454,0.0,0.0,0.0,0.16963550440606645,1.0625760965732023e-09,-1.0569018093253951e-07,-1.494540987478617e-08,540.2321021436891,540.2320687691181,540.2320519145356,540.2320178620711
4.912000000000003,-2.708284279878679e-07,-4.000000000858861,1.9848508776291576,-1.3047100712569381e-06,0.023150779861942215,5.210080601271484e-07,0.00024902392842781186,-4.0,1.989064645764278,-1.3247694122134045e-22,-2.2748429683510052e-05,4.861125831103483e-09,0.012922807648727557,-1.06669951872808e-06,0.03944212908555695,-6.870168585415218e-10,0.17157475209579684,4.95878697129557e-07,0.22834483375895712,-1.1826620449530867e-08,502.5511599990827,575.5494397796301,502.55128702071045,575.5492537481309
4.964000000000002,5.1089194359473e-05,-3.999999997265377,1.9854812638140265,-0.0002269538981865985,1.958454090177448,-2.5664053439999932e-06,0.0038356642820361843,-4.0,1.9897731101996297,-1.238942104440528e-22,0.0029023987450366054,2.0740234831435893e-07,0.011695598056754594,-0.00018208144195110444,1.2660359955410425,3.2672102173619726e-07,0.1775591939800843,7.302450423804434e-05,0.2736586794438687,1.2596842063767955e-06,494.88293875018564,582.4526419558279,494.91301878918114,582.4349897267464
5.016000000000002,0.0011036590416043457,-3.9999998599931463,1.9860331814990781,-0.001681105105209487,8.475992918397784,-8.819450296603754e-05,0.013616627560693852,-4.0,1.99043657430652,-1.1585663858342533e-22,0.03743449030539726,5.414428980726913e-06,0.014643650089382367,-0.0006990623404532529,2.6316196528140017,1.2902485013504324e-05,0.194128717391834,0.0003724377910911702,-0.14767095599557845,1.9099687581646016e-05,563.8398409431469,516.8643505728982,564.0155596027699,516.8077204123433
5.068000000000001,0.0059520184010492545,-3.999998951814874,1.9862441242956475,-0.0023799689464313305,15.651892668958935,-0.0002085623125288539,0.030587781285852992,-3.9999999993290944,1.9910578178847866,-1.0833054960376564e-22,0.13420108611461634,2.65582641175446e-05,0.035359074190073586,0.0007785900801611362,1.960954170351629,0.00011692217586777273,0.28911629287225327,0.00016107016448031273,-0.4265162685577768,-2.209147999421109e-06,607.3061834254884,471.03818809155615,607.345237330468,470.97068430482295
5.120000000000001,0.017647612431743523,-3.9999970720948235,1.9856730233768596,-0.000913168683932806,18.08491096338499,9.924362355201858e-05,0.054629711374722625,-3.9999999940106075,1.991639456018494,-1.0128426292751042e-22,0.278144447847251,3.775477214070754e-05,0.07220820000569653,-0.0003033542075986507,0.03158514941308946,0.0001003978665285319,0.45385264291993443,0.0004071133759160888,-0.16993871846756445,-3.0048006135370028e-05,573.9617241973096,520.5792847256872,573.988261446959,520.3389577028182
5.172000000000001,0.037313138463981724,-3.999994562766322,1.9843995143968853,-0.006450268128820999,16.12236825411001,0.0003059416610121848,0.0850957348136614,-3.9999999759855145,1.9921839481944683,-9.46879829682949e-23,0.42778801308172304,4.880207258398088e-05,0.09698283614329015,-0.0025427502007496884,-0.8843374573164382,-1.42039096878366e-05,0.577619498317417,0.001627125789692489,0.17267119884687593,-3.31643560798752e-05,523.2653010444703,577.8223775442568,523.6851389665442,577.2319012443049
5.224,0.06417738585458656,-3.9999890769918847,1.9830192053523787,-0.011672732792678034,14.362049640565063,0.00043505906759446877,0.12118934604405253,-3.999999935253736,1.992693606977337,-8.851369403666602e-23,0.5555917936824796,0.0001155281491768965,0.11736369376734486,-0.000798617876313212,-0.25480108776361365,-7.074913960465213e-05,0.6073356369272991,0.0021551584696425357,0.17147784143170236,-9.688875260299374e-06,524.1634807218406,578.4377012916242,524.8377960157725,577.7646372221983
5.276,0.09740606059189656,-3.999978339040098,1.981963210479938,-0.008968314666768912,15.050527810471873,0.00015926700414051887,0.16215408468156228,-3.9999998501342025,1.993170606256388,-8.273506043309653e-23,0.6691984063691181,0.00021778652572547577,0.16044933065485784,0.001926174947825732,0.4540610688464752,-1.280255674062867e-05,0.5939300084462346,0.0018693396280452359,-0.08054884708223298,1.4545449181395035e-05,563.7294715822258,539.1418471862003,564.3477315514069,538.5933866245605
5.328000000000003,0.13712210481442616,-3.9999635675804552,1.9812238309079753,-0.002101122913205206,16.00284946074095,0.0001905935319877797,0.20730690749158534,-3.9999996772386313,1.9936169890797386,-7.732733154050902e-23,0.7881275751121828,0.0002881366188463463,0.2129342329447152,0.00214112541764522,0.08189396904930889,7.233422560718621e-05,0.588886275131687,0.0016633335593563086,-0.1848255439998175,-2.7973562474970007e-05,579.4188285168993,522.1102425258786,579.8251320426855,521.4629138137608
5.380000000000003,0.18357737053965853,-3.999947873218421,1.9807241289812854,0.0011469712992322528,14.657248395345155,0.00039517418925417584,0.2560376317337305,-3.9999993619972245,1.9940346750914035,-7.226725172749018e-23,0.914256292620775,0.00029601625705758916,0.2350874451221598,0.00024789208294719137,-0.7883021758290583,6.438562117366693e-05,0.5727651064900117,0.0021302893138625285,-0.021475826564752082,-2.9842219050398063e-05,554.1013729342408,548.0518853947916,554.6651619386926,547.2819803159418
5.432000000000002,0.2360598269412422,-3.9999328213148866,1.980605330458739,-0.0005103983585582652,11.750773987411828,0.0005697389927742629,0.3078092051972339,-3.999998856481159,1.9944254675868405,-6.753297487355814e-23,1.0262781531883387,0.00027457745381258216,0.21977854550136686,-0.0008527110539533065,-0.9634474974307595,7.13604082143947e-05,0.5118025467293602,0.0028413317261087806,0.1588835751656493,-4.562969482625883e-05,523.5181852048971,574.2908423321522,524.2935693046547,573.2921519162354
5.484000000000002,0.2931578086118158,-3.99991779687629,1.9810359117056764,-0.0016243118679750224,9.867083520081382,0.0008412158272187958,0.3622062429608066,-3.9999981148713353,1.9947910602024252,-6.310398332908675e-23,1.1087992472666497,0.00027098985542797755,0.20745086178627048,0.00025828213024684947,-0.3596471303545566,7.51439309563094e-05,0.41913010644714965,0.0030675416730343258,0.10549461188455861,-5.8671203320138796e-05,529.6661789316954,563.8814913949278,530.4611243224739,562.7527129079591
5.536000000000001,0.35387170148384123,-3.9999023849767052,1.9819715678956449,0.0019784745038162466,9.686288378070048,0.001056606349771526,0.41886003701036584,-3.9999971069788214,1.9951330432541716,-5.896101112458984e-23,1.173341832009606,0.00027867289587805885,0.221309143265536,0.00156524861587369,0.052111699967032674,6.140535088914254e-05,0.33259874111222787,0.0028257380575093883,-0.05403952968868081,-6.164010111548847e-05,552.7699299320255,536.5665860742422,553.4466073906024,535.4479107508914
5.588000000000001,0.4179476551251777,-3.9998881109365607,1.9832093946193117,0.006546625392768981,9.475047926729317,0.0011507988975507754,0.47744735696546875,-3.999995810927005,1.9954529097407394,-5.508597124693092e-23,1.2363750318600224,0.0002553336127521388,0.2333351854215795,0.0011775900181362705,-0.23043956863484727,3.098107880563036e-05,0.2687735430112268,0.0027398971426328385,-0.07736169189239278,-5.153318504075079e-05,554.7101723679629,531.0224901932492,555.3911149233251,529.9548874064448
5.640000000000001,0.48516528439688306,-3.999876927535356,1.9845837313106873,0.00731234224079928,7.974310621804562,0.0010828164709199629,0.5377101624785082,-3.9999942111107547,1.9957520610255124,-5.146188680349278e-23,1.2971820648601389,0.000189159271214507,0.2129499228658361,-0.0003190001499072103,-0.6471482593350923,5.956607669650172e-05,0.2178630993917077,0.0031304259941214627,0.03859442702444689,-4.3781065740144326e-05,534.9306902717636,548.2074092633949,535.7888528319137,547.0762331867038
5.692,0.5547902150634102,-3.9998692068759056,1.9860209866761325,0.005336879989331482,6.077788478405621,0.001164677840044562,0.5994668633401663,-3.9999923053483806,1.9960318122121854,-4.807282589932434e-23,1.342124131958022,0.00011499327796514263,0.17425539056213388,-0.0006818485505755472,-0.5519453228600593,0.00012195765363758008,0.17252147391894998,0.0034943774792705763,0.1046578803141659,-7.296603107821713e-05,522.9063486386592,557.409951129385,523.802103460954,556.0888104071208
5.744,0.6259290542772099,-3.9998640988507534,1.9874635198729502,0.0047002630328368674,5.172838153418649,0.0014718086351693724,0.6625535764450335,-3.9999901147908523,1.996293397227947,-4.4903840056674634e-23,1.368669533447618,5.890986737351777e-05,0.15220033333886593,0.00015730204303585256,-0.13380046566992332,0.00012180209025820061,0.13704795978816295,0.003490100854488798,0.04896778397982477,-9.61348789401344e-05,531.0683155930822,547.8259104619336,531.8693222874509,546.4054479259429
5.796000000000003,0.6981143406660313,-3.999861253984897,1.988832993345125,0.00642755545434371,5.158546483793812,0.0017372101077422172,0.7268116667002381,-3.9999876735028357,1.99653797362794,-4.1940906011046304e-23,1.387863065094525,9.40362319724688e-06,0.15067282238168833,0.0007253284241995747,0.021484969512483458,6.247258272039903e-05,0.11603035908930312,0.0032978001039893567,-0.03243531508935885,-9.553602932972307e-05,543.5796033179561,534.2625814877717,544.303332602953,532.8702067743875
5.8480000000000025,0.7712750997970296,-3.999861312807802,1.9900596027553892,0.008040675298241302,4.896007777814167,0.0017867924131443173,0.7921115420592975,-3.999985021666232,1.9967666271342968,-3.917087072287631e-23,1.4070521694989322,-5.177152224889875e-05,0.14415558165732675,0.00031006354178934566,-0.1893359194300312,1.1074394171419598e-05,0.10743012278682781,0.003245154684046492,-0.020524743589134142,-7.855340645895802e-05,541.435876179439,535.9079931889673,542.2029887893431,534.5949470068354
5.900000000000002,0.8452631759361136,-3.999864904859297,1.9911120551932495,0.007459139065699722,3.9751065197919906,0.0016789617917805184,0.8583530219925036,-3.9999822080745444,1.9969803759225826,-3.6581399449110925e-23,1.4226367725835518,-0.00012279464821301833,0.12004875594841932,-0.0005160009718854751,-0.3550958910434538,1.0871008149805478e-05,0.10616297120936337,0.0034140243862525164,0.04372765232053819,-7.171895156936654e-05,531.0384403824193,546.122019389155,531.8987540474508,544.8031060223117
5.952000000000002,0.9196666091466686,-3.9998717468160825,1.9919880779398969,0.0052973745215702615,3.0952007623121047,0.001653446651077796,0.9254403432804021,-3.9999792906236467,1.9971801746680877,-3.4160926724244026e-23,1.4288730946349582,-0.0001847117059742211,0.09415404050181744,-0.000748401536885254,-0.21908860946987407,3.314281976016355e-05,0.1095052454630671,0.0035856212165351104,0.06909446415036335,-8.487554383995059e-05,526.994018962074,550.2471933713225,527.8713848646837,548.8405046310453
6.004000000000001,0.994090101754272,-3.999880873501069,1.9926956897578236,0.003782037969493596,2.852502326354792,0.0017308389304808288,0.9932635200513339,-3.9999763319292962,1.9973669183639227,-3.189861010575811e-23,1.4280194160939748,-0.00022638155752661006,0.08349376443603704,-0.0002391994187332834,-0.0003312690516398532,2.2342195220668794e-05,0.11626409487276608,0.0035685336188628655,0.026456491115203463,-9.290343461590959e-05,534.1213240121128,543.7221250044396,534.9540674662828,542.276881351936
6.056000000000001,1.068408481548689,-3.9998915635243995,1.9932489075539528,0.0036878259260238887,2.9879951013546835,0.001779543480333796,1.0617846512833098,-3.9999734030081,1.9975414459224548,-2.978428654432948e-23,1.4261403679696412,-0.000255517142662513,0.08368341203744939,9.47014434628267e-05,0.04825235355329895,4.022487452095503e-06,0.12504148242938337,0.0034298087845864135,-0.00967345577765024,-9.114755233203746e-05,540.1750558916083,538.1795338469245,540.9602240173368,536.7698839039158
6.1080000000000005,1.142667970520978,-3.999903704933279,1.9936679123183343,0.003935240153677536,2.9428274632534737,0.00175365641143131,1.1309423951795259,-3.9999705676194304,1.9977045435711633,-2.780843124457931e-23,1.4254660789561013,-0.00028365818653066445,0.08088314459313205,-4.711541664073522e-05,-0.0677347034221269,-1.660957294166714e-05,0.1343364061147462,0.003350091854672697,0.005648823548767335,-8.40447787945878e-05,537.9788572644553,540.8537119695519,538.7658261380813,539.5005801890496
6.16,1.2168483459139776,-3.9999173310672065,1.9939769375769167,0.002808754790815924,2.580301886980578,0.001661788299280619,1.2006579677889997,-3.9999678827722978,1.9978569480535417,-2.5962118887546295e-23,1.4235969960163803,-0.00031003677068252525,0.0702654814557477,-0.000580579277767448,-0.14087418653476663,-2.5077847384195376e-05,0.14316876622646188,0.003456108447752636,0.0356721118548233,-7.94812618127468e-05,533.3658762493724,545.8614710461239,534.2094574438526,544.502551215925
6.212,1.2907981270437916,-3.9999319356352676,1.9941987655746654,0.0008024465888037037,2.2560372881323247,0.0015880666848340002,1.2708592973667212,-3.999965403467032,1.9979993496452477,-2.4236987091396415e-23,1.4182504242446248,-0.00032273357846070627,0.0599686251322755,-0.0006444514333930172,-0.06821528345311748,-1.738973693405956e-05,0.15124157455583823,0.0035552460561453624,0.045805137605674576,-8.161233627199485e-05,531.9359697512067,547.6933364591068,532.806568617135,546.3005719307364
6.264000000000003,1.3643820036442478,-3.9999466408772264,1.9943542519230526,-0.00041733156280640153,2.3014096815420544,0.0015482890695658596,1.3415225212530713,-3.999963185891811,1.998132394995251,-2.2625201992148768e-23,1.4108690755169158,-0.0003187345396899646,0.058836918750586886,-0.00022296467090286628,0.0651833659523905,-1.1203273402997325e-05,0.15809000175340548,0.0035078933912760396,0.012043080966852592,-8.300187804413115e-05,537.5731783288077,542.5353295879403,538.4147896410137,541.1396753564702
6.3160000000000025,1.4376192198239937,-3.9999608870459276,1.9944629334800028,-0.00048081271997771016,2.541295088989515,0.001511708003605562,1.4125769169701028,-3.999961269561896,1.998256689801321,-2.111942583136526e-23,1.404793937311946,-0.00030741574673637164,0.06374107938269186,6.148073244398924e-05,0.06871700818701226,-1.2686796768435465e-05,0.16339580988052554,0.003397757789118763,-0.008336330449589886,-8.238795259472944e-05,540.9896852952623,539.4142699814992,541.7930317446858,538.047880575141
6.368000000000002,1.5106142235335018,-3.999974611742678,1.99454136417309,-0.0004183382969595077,2.589531254789692,0.0014669608967763845,1.483985664932363,-3.999959688333931,1.9983728013287614,-1.9712786442807453e-23,1.4006724994613964,-0.0002967002354783008,0.06482544919635541,-4.6397404603371e-05,-0.01960375572754163,-1.6548576953655415e-05,0.16725688600941596,0.0033512454754468066,0.003984540728918966,-8.106260582302867e-05,539.1337000636527,541.4733917536067,539.929449870638,540.1315365716916
6.420000000000002,1.5833965409802933,-3.9999878314837622,1.9946015165539872,-0.0010780394878517016,2.44630087565505,0.0014094695805242868,1.555695412693305,-3.9999584625457483,1.9984812607808977,-1.839884853500217e-23,1.3964629553429058,-0.00028507353964384323,0.06104150228169351,-0.000326788277614464,-0.05248593590474426,-2.1285608368593136e-05,0.17001641477197532,0.00340789270046037,0.03685884182090535,-7.90560893184478e-05,533.9169738858991,546.7589166235105,534.7456013825325,545.4188918288644
6.472000000000001,1.6559140829162888,-4.000000272449259,1.9946514252765404,-0.0021620139941738877,2.3886955283632263,0.0013496291339294413,1.6276732372600726,-3.9999576073208667,1.998582565529439,-1.717158667145474e-23,1.3910472549943838,-0.0002660554673497335,0.0588503143892297,-0.00033705896043788704,0.011065772919888061,-1.9022994894844177e-05,0.17191259546816906,0.0034605642140480165,0.03512178146970869,-7.815450900611923e-05,534.2390882500629,546.5426375897574,535.0872600623003,545.188455520484
6.524000000000001,1.7281478771867491,-4.000011483116821,1.9946969217567871,-0.0027268388839939727,2.5458113060830403,0.001297879517213877,1.6998943697420983,-3.999957130037126,1.9986771812124238,-1.6025359854911435e-23,1.3857563792279182,-0.0002388528393356914,0.06201744774880561,-7.168184911241721e-05,0.07249363368924175,-1.1670097111465076e-05,0.17302203752378797,0.0034303943301027626,0.012149386823499171,-7.863450058134465e-05,537.9671519704801,542.9348457117862,538.7981776506049,541.5796223674715
6.5760000000000005,1.8001690213013755,-4.000021234373225,1.9947420651513719,-0.0024009347970313216,2.75604641756677,0.0012712037084712865,1.7723314317040133,-3.9999570268863995,1.9987655437071212,-1.4954887626585187e-23,1.3822401721918354,-0.0002101378943580599,0.06707751900458478,0.00016346494009885222,0.056848220158729146,-5.518391222130048e-06,0.17352390481706076,0.0033355950108756717,0.0002871965914887052,-8.020305401080766e-05,539.8950786821922,541.0501782793872,540.6876257629448,539.715179067032
6.628,1.8720719671126638,-4.000029661496183,1.9947892992538936,-0.0021759016069119296,2.810260853074496,0.0012398041025100265,1.8449392581100252,-3.99995728509448,1.998848060984868,-1.3955227595620691e-23,1.380376759554507,-0.00018529066647391846,0.06874243431651347,-1.2456052708079065e-05,-0.006750976153316257,-1.2923768842619396e-05,0.17357622542388296,0.0033376299872248175,0.012087346757286467,-7.878389055559464e-05,538.0072615171102,542.9254552979041,538.8080508017298,541.5992207262707
6.68,1.9438869881536147,-4.000036883210112,1.9948393363512171,-0.002529167402228553,2.751076203934965,0.0011972413064426997,1.9176927418524066,-3.9999578877224087,1.9989251148544933,-1.3021754318283465e-23,1.3786467061145875,-0.00016103498033279541,0.06735229290629817,-0.00015428941174730474,-0.02019518630298145,-1.524601182556394e-05,0.17341473156747683,0.00338776982776838,0.024069003325419176,-7.777980419489296e-05,536.0707684601123,544.8255484950846,536.8939582710269,543.4914296743598
6.732000000000003,2.0155942560620113,-4.000042784173574,1.9948918986605684,-0.0028920963854317475,2.7593861816272063,0.0011539885142904385,1.9905657786096285,-3.9999588121914127,1.9989970626006401,-1.2150139450410026e-23,1.3764545242109438,-0.00013363710546417435,0.06721725936388485,-7.226022098120262e-05,0.02295177078776846,-1.3239235834932383e-05,0.1731268129987418,0.003406723664332329,0.017697687413970944,-7.70830279827938e-05,537.0817904832782,543.8110977410521,537.9118729093324,542.470810879104
