Time_s,X,Y,Z,Roll_deg,Pitch_deg,Yaw_deg,Ref_X,Ref_Y,Ref_Z,Ref_Yaw,vx,vy,vz,p,q,r,T_pert,tau_x,tau_y,tau_z,RPM_0,RPM_1,RPM_2,RPM_3
0.0519999999999996,2.628716127156049e-22,-2.0,0.010054998081413505,9.486271024247976e-18,-1.2952009157006583e-18,-2.8353717744299015e-19,-1.6983726495051768e-23,-2.0,0.016216050707931907,2.7401889711054185e-22,-8.277095396328896e-21,1.6400457373838196e-22,0.0009999903020294076,0.0,0.0,0.0,1.9189653337285697,-7.380823562368686e-19,3.2612629956095177e-18,-5.610014390182237e-20,585.6698475638821,585.6698475638822,585.6698475638821,585.6698475638822
0.1039999999999992,-4.259141050077375e-21,-2.0,0.011058709137179745,3.7980565270271694e-16,1.9932125630903263e-16,1.6134891861132778e-17,-1.6842102515648395e-23,-2.0,0.032758437754563774,2.7173390702595564e-22,-3.7804623995157596e-19,2.449693505206945e-19,0.050733771057178204,0.0,0.0,0.0,3.4323678015072394,-1.384276930325289e-16,-1.026299582229701e-16,2.8709339983880342e-18,622.3086493770418,622.3086493770419,622.3086493770418,622.3086493770418
0.1559999999999988,3.107269819640338e-19,-2.0,0.018210472473115833,5.536705054476471e-15,4.720987577525111e-15,-3.1425112436012334e-16,-1.6625692650855717e-23,-2.0,0.05803618915790014,2.6824230625791405e-22,2.0871770641259156e-18,1.760139647790846e-17,0.2044085871340029,0.0,0.0,0.0,3.9935537540788553,-9.910535345173547e-16,-1.0786081657782461e-15,5.0643998602470016e-17,635.3579516715329,635.3579516715325,635.3579516715329,635.3579516715329
0.2079999999999984,3.540633573199489e-18,-2.0,0.03464903751868941,1.0395047442882585e-14,8.455767988680746e-15,-6.475197017637499e-16,-1.6346584645429788e-23,-2.0,0.09063739605111035,2.6373912093849547e-22,4.275854597306055e-17,7.122575816327024e-17,0.3940037586646402,0.0,0.0,0.0,4.021624808990352,-7.367441992522887e-16,-1.2482801658027435e-15,3.635478360387734e-17,636.0036589302705,636.00365893027,636.0036589302704,636.0036589302703
0.259999999999998,1.1774699332222516e-17,-2.0,0.061171167882783685,7.333344644120794e-15,3.4145322750799805e-15,-8.031486905831451e-16,-1.6015465510725254e-23,-2.0,0.12931376221384347,2.583967774822246e-22,1.4631516778500954e-16,8.035717829815432e-17,0.5877563703390285,0.0,0.0,0.0,3.7190032603022303,-2.2619724053329454e-18,-1.890812599110717e-16,5.4801021125614316e-17,629.0076319444241,629.0076319444241,629.0076319444242,629.0076319444242
0.3119999999999976,2.1615368534683672e-17,-2.0,0.09739443830563874,1.7209184586361512e-15,-9.837852869926786e-15,-1.1404494629527212e-05,-1.564176447038533e-23,-2.0,0.17296390730279548,2.52367408900904e-22,2.834491623371787e-16,2.9357769488934015e-17,0.76758051993807,0.0,0.0,0.0,3.2242780306071683,3.52097688270084e-16,1.258607471054526e-15,3.853581611194589e-06,617.3941239299091,617.3941239299097,617.4055329204015,617.4055329204018
0.36400000000000077,2.5573134063234154e-17,-2.0,0.14224540095631857,-5.921419641579285e-15,-1.7885940152645856e-14,-4.478440718921641e-05,-1.5233782264828986e-23,-2.0,0.2206182634427897,2.457849410285058e-22,2.8518822042388113e-16,-8.46578141166468e-17,0.9231432811137334,0.0,0.0,0.0,2.639372271516695,1.08388272914428e-15,1.9771290873955647e-15,3.4983106093935475e-06,603.3828015398889,603.3828015398899,603.3933992195508,603.3933992195512
0.41600000000000037,1.9835964017630216e-17,-2.0,0.19428887175166631,-1.8320388613071265e-14,-1.8623350148722885e-15,-4.6478614228612475e-05,-1.4798808063793965e-23,-2.0,0.27142541925873054,2.387669788119168e-22,-8.839740343583617e-17,-3.2123315311246827e-16,1.0493424686327413,0.0,0.0,0.0,2.038771941975634,2.094526575495377e-15,-1.5922113607446469e-15,1.0699661045874447e-06,588.6517762398233,588.6517762398236,588.6550986978054,588.6550986978043
0.46799999999999997,1.272727519813794e-17,-2.0,0.25195158849118615,-1.1487219469479837e-14,1.4676988684547827e-14,-3.0384665823357023e-05,-1.434322512490236e-23,-2.0,0.3246397784282443,2.3141651102772182e-22,-3.726223121994822e-16,-2.5640369256618796e-16,1.1452242159724793,0.0,0.0,0.0,1.4699880079966081,-2.817633832500999e-16,-1.8185473196303355e-15,-2.777458951852144e-07,574.3513779641216,574.3513779641211,574.3504940308569,574.3504940308566
0.5199999999999996,1.2951495892357091e-17,-2.0,0.31368923960315775,3.954293818319833e-15,8.01758205208328e-15,-1.3478461115189427e-05,-1.3872606234647023e-23,-2.0,0.37961041169852133,2.238234501464879e-22,-1.3916158728992007e-16,6.559280827616819e-17,1.2120636562101386,0.0,0.0,0.0,0.9640963390488693,-7.742553248502988e-16,2.9519757449779516e-17,-6.198247354509287e-07,561.3247896458678,561.3247896458676,561.3227712580139,561.3227712580142
0.5719999999999992,1.7151273262466394e-17,-2.0,0.3780920619411047,6.963901595083475e-15,-7.395507421412062e-15,-2.4082083091850806e-06,-1.3391799875511437e-23,-2.0,0.4357709921370155,2.160660225705989e-22,2.1431244387197565e-16,1.501774503118139e-16,1.2531679621511862,0.0,0.0,0.0,0.5335334281282078,-3.4700859666071436e-16,9.181591023427799e-16,-5.010237127312848e-07,549.9942293084276,549.9942293084279,549.9925641714422,549.9925641714427
0.6239999999999988,1.8056900637609388e-17,-2.0,0.4439270126257407,1.2184224364312614e-14,-1.2607404691121263e-14,2.7754149544295283e-06,-1.2905007978370856e-23,-2.0,0.4926307132632521,2.0821202310730832e-22,2.485516713468387e-16,2.576352352755802e-16,1.2721317660140454,0.0,0.0,0.0,0.18357638725157455,-1.2567836940101922e-15,1.2538849350517884e-15,-2.7906726666609205e-07,540.609734286713,540.6097342867131,540.608790715727,540.6087907157279
0.6759999999999984,1.3054039841569552e-17,-2.0,0.5101745845105096,1.449614425725306e-14,-8.821507333543196e-15,4.208798465050142e-06,-1.241585604217551e-23,-2.0,0.549766098720159,2.0031994629396663e-22,7.517864508720265e-17,3.300676789349926e-16,1.2730982628812781,0.0,0.0,0.0,-0.08976127484711305,-5.933233087276135e-16,2.498059682479092e-16,-1.0772648346517578e-07,533.1649976428154,533.1649976428154,533.1646283165746,533.1646283165749
0.727999999999998,4.304354803138574e-18,-2.0,0.5760188497373555,1.9005140103168005e-15,8.218346567874411e-15,3.93903671315782e-06,-1.1927456332547596e-23,-2.0,0.6068136203627762,1.92440006057038e-22,-3.115400652397509e-16,7.439020111681121e-17,1.2599241427110663,0.0,0.0,0.0,-0.29419658711016106,1.2429319268805566e-15,-1.8409506257312567e-15,-1.5193011440681182e-08,527.5283043768295,527.5283043768295,527.5282517330237,527.5282517330228
0.7799999999999976,-9.071218411390844e-19,-2.0,0.6408356278531137,-8.04730912728599e-15,1.7501428108219567e-14,3.2253486143288303e-06,-1.1442464806746798e-23,-2.0,0.6634630491384107,1.8461505415107008e-22,-4.1954616868523204e-16,-1.6840047659563334e-16,1.2361520616315012,0.0,0.0,0.0,-0.44001458746421607,7.149179027440177e-16,-1.7222541129410091e-15,1.903761529127938e-08,523.4707794040113,523.4707794040111,523.4708458806786,523.4708458806778
0.8319999999999972,7.859461647046337e-13,-1.999999999999214,0.7041694341691286,7.655326369684181e-08,-7.65532572090946e-08,2.551094493304845e-06,-1.0963132353937621e-23,-2.0,0.7194514699678843,1.768814068795877e-22,2.391683221448959e-10,2.391776765239179e-10,1.2047860370365873,0.0,0.0,0.0,-0.5379071127022046,-8.023407525184113e-08,8.023515895964137e-08,1.0210448048365157e-07,520.7289842610934,520.7289842614522,520.7293161207356,520.7293692250144
0.8840000000000003,-2.0038710652418016e-09,-2.00000000200405,0.7657037375914872,4.319117393382747e-05,-4.318627779315749e-05,-7.522099539499907e-07,-1.0491350886336258e-23,-2.0,0.7745578980697334,1.6926958873902922e-22,6.912811822816805e-07,6.913639161945533e-07,1.168287792842218,0.0,0.0,0.0,-0.59814341562246,-7.942835565426888e-06,7.942119211793148e-06,3.5029772122844515e-07,519.0343278910971,519.0343276532592,519.0329244184901,519.03819840061
0.9359999999999999,-2.0790062488060698e-08,-2.000000020791643,0.8252342057573386,2.8995261455688964e-05,-2.9014811837160957e-05,-1.829528400249936e-06,-1.0028694768176633e-23,-2.0,0.8285984398503752,1.6180500084211028e-22,1.4576939987141337e-07,1.4544271216236113e-07,1.128595399094028,0.0,0.0,0.0,-0.6298525144308045,-8.526838599993514e-07,8.580299095412922e-07,1.4957064379184212e-07,518.1405974713294,518.1405992493434,518.1408415341158,518.141410490626
0.9879999999999995,-5.076125393210836e-08,-2.0000000507558546,0.8826417849405354,-4.232764480135813e-05,4.2290293415504075e-05,-8.767213848062944e-07,-9.576458025104153e-24,-2.0,0.8814219466613622,1.5450852126174907e-22,-1.223784950459213e-06,-1.224262116603254e-06,1.0871768631536576,0.0,0.0,0.0,-0.6408372893588065,6.249795942390795e-06,-6.2469345237144946e-06,5.617245798119394e-09,517.8307606777705,517.8307616300038,517.8328603314872,517.8287016244694
1.0399999999999991,-6.363248153890892e-08,-2.000000063606897,0.9378721948425217,-6.419553665961082e-05,6.424690726793645e-05,5.338560439858097e-07,-9.135687736209117e-24,-2.0,0.9329061144433597,1.473970437849243e-22,-1.2188047714870693e-06,-1.2176865419176785e-06,1.0451235226828561,0.0,0.0,0.0,-0.6375836578567741,3.528863492727149e-06,-3.5419277468607265e-06,-4.6822012642742654e-08,517.9227225450221,517.9227181982243,517.9237314362218,517.9213788097729
1.0919999999999987,-5.008895668222004e-08,-2.000000050065079,0.9909167271789742,-1.4243672965501229e-05,1.4375526260770846e-05,1.5860576352413444e-06,-8.707213974103505e-24,-2.0,0.9829539865758713,1.4048396097196258e-22,4.7919023415354396e-08,4.978332518439048e-08,1.0031795408380655,0.0,0.0,0.0,-0.6250086752820823,-3.245727242855823e-06,3.230554777151539e-06,-4.7065671200724233e-08,518.2776263382459,518.2776212934515,518.2763811497398,518.2785344927617
1.1439999999999984,-2.98281093248587e-08,-2.000000029858068,1.041797280622297,3.0708437315606956e-05,-3.0682946201735286e-05,2.1270339273952447e-06,-8.291676624915617e-24,-2.0,1.0314908211681189,1.337795968757863e-22,8.098848903468128e-07,8.092346208165304e-07,0.9618405812498457,0.0,0.0,0.0,-0.6068165119466049,-4.211845964703651e-06,4.218496879914784e-06,-3.0087642806176964e-08,518.790599498484,518.7906017077047,518.7890944465809,518.7918947365919
1.195999999999998,-2.1487238296521696e-08,-2.0000000215801523,1.0905552486251437,1.7454419898286235e-05,-1.7616609987264735e-05,2.291328901051637e-06,-7.889549389538152e-24,-2.0,1.0784612875935782,1.2729159428293077e-22,3.8910489518098847e-07,3.8580947149854456e-07,0.9214038281365633,0.0,0.0,0.0,-0.5855542458231555,5.124172170825053e-07,-4.905138788441329e-07,-1.376039802941587e-08,519.3895076086453,519.3895148758422,519.3896291939892,519.3892964365704
1.2479999999999976,-2.0624808488807705e-08,-2.0000000207151345,1.1372431021609348,-1.8901946721656742e-05,1.8743371330130317e-05,2.2590621833946625e-06,-7.501161239656103e-24,-2.0,1.1238269603189213,1.2102526088946204e-22,-2.1704563041689226e-07,-2.1893789029995046e-07,0.8820341220626163,0.0,0.0,0.0,-0.5629289285257592,3.382491822506766e-06,-3.3757728689422337e-06,-3.610109392803986e-09,520.0260700710547,520.0260722975734,520.0271782663222,520.0249387209004
1.3000000000000007,-1.2766875434979735e-08,-2.000000012790035,1.1819191511823572,-2.2286237626346002e-05,2.2329881969667295e-05,2.1596997206327015e-06,-7.126715576762351e-24,-2.0,1.167564081035454,1.1498387841643025e-22,-1.0880359282566824e-07,-1.0698766663958102e-07,0.8438118533393812,0.0,0.0,0.0,-0.5400341573777012,1.0747412545390645e-06,-1.091254136460337e-06,8.343776427385634e-10,520.6694329282054,520.6694274629485,520.66979156364,520.6690746856768
1.3520000000000003,3.942258756316122e-09,-1.9999999960298944,1.2246435487236598,5.989018649439433e-06,-5.829622907720773e-06,2.0587885719495585e-06,-6.766307319322499e-24,-2.0,1.2096615627930534,1.0916897829766224e-22,3.885221665805163e-07,3.912527094352511e-07,0.8067489657240152,0.0,0.0,0.0,-0.5173918914902935,-2.1438421434224033e-06,2.1300458421957044e-06,1.8710527326103194e-09,521.3049208998073,521.3049163392216,521.3042187789727,521.305631580293
1.404,1.8379448321404682e-08,-1.9999999816055742,1.2654766878931276,2.2532216010494296e-05,-2.2495053097691514e-05,1.977879520916487e-06,-6.419938122276203e-24,-2.0,1.250119212286515,1.0358058723429097e-22,5.090397622054069e-07,5.091379231680376e-07,0.7708442998841971,0.0,0.0,0.0,-0.4953328084013786,-1.8000363348568882e-06,1.8093724256692177e-06,1.4494595566638799e-09,521.9232960016066,521.9232990841427,521.9227067520756,521.9238984856237
1.4559999999999995,2.356305810905607e-08,-1.9999999764512242,1.3044775630034964,9.167566455595958e-06,-9.29413981782918e-06,1.9167777586206753e-06,-6.087529913979703e-24,-2.0,1.2889461486731593,9.821744560253918e-23,1.8209681374927214e-07,1.802736932192709e-07,0.7360574757792072,0.0,0.0,0.0,-0.4737883193472482,8.193993823582866e-07,-8.00922227245002e-07,7.262095958414661e-10,522.5265420223902,522.5265481160267,522.5268147949008,522.5262804241873
1.5079999999999991,2.452206033709062e-08,-1.9999999754718627,1.3417039903332486,-8.823461642223384e-06,8.730269759725443e-06,1.86840944308175e-06,-5.76893691833365e-24,-2.0,1.3261593993283471,9.307720142117473e-23,-6.725662594902881e-08,-6.768299435998083e-08,0.7023797110056578,0.0,0.0,0.0,-0.45285679138647433,1.6995566853262188e-06,-1.6976319354320666e-06,1.8506238206150783e-10,523.1119627815942,523.1119634156529,523.1125233025771,523.1114041873815
1.5599999999999987,2.8617408386888064e-08,-1.9999999713184118,1.377212387948499,-6.465214548277351e-06,6.539380339023678e-06,1.8262483455056392e-06,-5.463956314052969e-24,-2.0,1.3617826547896077,8.815658233033817e-23,2.5176737379032388e-08,2.6980680061661635e-08,0.6697689281169832,0.0,0.0,0.0,-0.4322903322829393,1.239133407276264e-07,-1.3837095965033318e-07,-1.0391589386830877e-10,523.6865353445513,523.6865305870914,523.6865757570718,523.686489449147
1.6119999999999983,3.5252349745878326e-08,-1.999999964654609,1.411057647749785,8.065885518792362e-06,-7.934860359857273e-06,1.7863323417773362e-06,-5.172337668680168e-24,-2.0,1.395845166816836,8.345154780183192e-23,1.9555786895818207e-07,1.9714581409477346e-07,0.6382082028152223,0.0,0.0,0.0,-0.4119908960907155,-1.2395582461094946e-06,1.2313604564352721e-06,-2.047314750884823e-10,524.2530264738409,524.2530237791709,524.2526183084902,524.2534305165534
1.663999999999998,3.866791096209792e-08,-1.9999999612637023,1.4432937739745464,1.2517577112443087e-05,-1.25021747626807e-05,1.7469411004490217e-06,-4.893791271894382e-24,-2.0,1.4283807750202402,7.89574235904232e-23,1.5680130949896528e-07,1.563700019864843e-07,0.6076791574721787,0.0,0.0,0.0,-0.39180802086657057,-6.576351456916936e-07,6.663844714920883e-07,-2.0920575120994917e-10,524.8156566199335,524.8156594928143,524.8154399537697,524.815874701598
1.7159999999999975,3.6887294499395425e-08,-1.999999963076833,1.4739741673509836,3.0208295811935585e-06,-3.1111733729772485e-06,1.7076841147072303e-06,-4.627995480809478e-24,-2.0,1.4594270488928942,7.466902024437722e-23,-1.9649036684819803e-08,-2.0930154515874288e-08,0.5781755065545293,0.0,0.0,0.0,-0.3716842909234277,6.589830822556663e-07,-6.475380894261779e-07,-1.8011458045219673e-10,525.376040387195,525.3760441412019,525.3762559097737,525.3758273652278
1.7680000000000007,3.362672459094433e-08,-1.9999999663342556,1.5031523001742535,-5.076293846450116e-06,5.0317699344688635e-06,1.6687206095467254e-06,1.217757414902812e-12,-2.0,1.489024533343274,7.058073731959918e-23,-9.789716929280932e-08,-9.806980014361407e-08,0.5497021065683826,0.0,0.0,0.0,-0.35165877926997885,7.969983653990703e-07,-7.846202817229022e-07,-1.5039434381724976e-10,525.933096636985,525.9331006927492,525.933357256216,525.9328390279962
1.8200000000000003,3.229013589704462e-08,-1.9999999676498725,1.5308816184035163,-1.9293818757053613e-06,2.0539399830278803e-06,1.6561329363642053e-06,1.198842407911566e-10,-2.0,1.517216086966273,6.668665478386558e-23,-3.387485667474668e-08,-3.264738077864041e-08,0.5222523490846044,0.0,0.0,0.0,-0.33169426179120254,-9.039656999048333e-08,8.747527188464093e-08,-3.0278911290204225e-08,526.4879244910156,526.487923534841,526.487789779366,526.4878479988913
1.8719999999999999,3.233395487079727e-08,-1.9999999676405433,1.5572150013733506,-5.423406215790812e-06,5.76553904107162e-06,2.3408206250758093e-06,4.045847025904957e-10,-2.0,1.5440463033292375,6.298061295423974e-23,-3.3489563355501714e-08,-3.222048456961587e-08,0.49581762146868413,0.0,0.0,0.0,-0.31176097171154254,1.2462936314332945e-06,-1.261723150157729e-06,-8.181692860020363e-08,527.0413385600525,527.0413335150954,527.0414623003378,527.0406422589382
1.9239999999999995,3.4601553228404784e-08,-1.999999965552382,1.5822053577438349,-1.2582992051849963e-06,1.6605914785741304e-06,2.5155018011512127e-06,8.291411186567107e-10,-2.0,1.5695610064918089,5.945628218061616e-23,4.0272628097043843e-08,3.8775334709019896e-08,0.4704022421932169,0.0,0.0,0.0,-0.29196083301077747,-2.4181139625702283e-08,1.806240312692045e-08,-3.4444921993291866e-08,527.5903069137587,527.59030491521,527.5901796778425,527.5901934757557
1.975999999999999,3.7413581032797846e-08,-1.9999999630907643,1.6059053598970523,1.0314470689888548e-05,-1.00047189125226e-05,2.223173704831955e-06,1.3813310379023025e-09,-2.0,1.5938068128335625,5.610722337020786e-23,1.0611149858366999e-07,1.0067267975694539e-07,0.44599006821295395,0.0,0.0,0.0,-0.27225355064565904,-1.1133529476519288e-06,1.1221716331635567e-06,-4.0059421057729524e-10,528.1361559208627,528.1361587983124,528.1357912582408,528.1365206877588
2.0279999999999987,3.610358652588202e-08,-1.9999999648841997,1.6283671108909337,1.1990899996385049e-05,-1.1741571129511888e-05,1.8335531356404798e-06,2.0541705698034185e-09,-2.0,1.6168307520392282,5.292694034063293e-23,1.9985676119078645e-08,1.1696526541848793e-08,0.42258653370482885,0.0,0.0,0.0,-0.2528203870282093,-4.960864440237354e-07,5.034035741566138e-07,1.1524041936385693e-08,528.6739006212225,528.6739030063012,528.6737787620557,528.6741045539998
2.0799999999999983,2.9902962160563686e-08,-1.9999999716737198,1.649642784726044,2.0351543490313723e-06,-1.7318708880553622e-06,1.5377037591443339e-06,2.8226665131422963e-09,-2.0,1.6386799407948835,4.9908924892064937e-23,-1.2202337530073732e-07,-1.32138975901851e-07,0.4001758948580041,0.0,0.0,0.0,-0.23368338523854265,6.502979108138881e-07,-6.57212642322069e-07,1.1169186197886847e-08,529.2029390540997,529.2029368024395,529.2031893908504,529.2027636231527
2.131999999999998,2.2874268664748442e-08,-1.9999999794144845,1.6697834366231314,-5.460951535413763e-06,5.806339756091259e-06,1.367240346983875e-06,3.63985778535247e-09,-2.0,1.6594013033864405,4.704669540079787e-23,-1.574478943043143e-07,-1.6993637988139108e-07,0.3787424500504903,0.0,0.0,0.0,-0.21490751849469045,6.930615395999591e-07,-7.055262095862144e-07,6.9477688671679735e-09,529.7214858037722,529.7214817488459,529.7217352404009,529.721280260829
2.1839999999999975,1.8227965807842475e-08,-1.9999999849094618,1.6888393787273803,-2.627075038374007e-06,2.871751753095765e-06,1.2873013546281105e-06,4.452888025916409e-09,-2.0,1.6790413339698904,4.433382965671589e-23,-9.208244833150523e-08,-1.0772555677818103e-07,0.35826644023718796,0.0,0.0,0.0,-0.19652391856467413,-1.6784378036732812e-07,1.659789445904321e-07,3.025809576554501e-09,530.2287047258964,530.2287041198203,530.2286606073033,530.2287691004833
2.2360000000000007,1.4902233846063847e-08,-1.9999999891575049,1.7068597335697846,6.492881511941841e-06,4.37109896199428e-08,1.5356257909135603e-06,5.229215273970168e-09,-2.0,1.6976458958065503,4.1763992594809156e-23,-6.374827550659854e-08,-5.4776797599860785e-08,0.33873039421568746,0.0,0.0,0.0,-0.17861646728688366,-1.8056157468403861e-06,-6.30373632661383e-07,-7.387826907553668e-08,530.7228429342132,530.7220519683907,530.7220022030544,530.7223838043861
2.2880000000000003,1.2066727661685403e-08,-1.9999999961854922,1.723892543037006,1.3602366372012624e-05,7.80947042214317e-06,2.0522048461548914e-06,5.950852917749031e-09,-2.0,1.715260053230921,3.9330959505354093e-23,-7.69629499498499e-08,-1.0321313396981259e-07,0.32010376604261703,0.0,0.0,0.0,-0.16116062370685258,-1.4390838786254966e-06,-1.2023683140505738e-06,-5.7062823414641586e-08,531.2035676160859,531.202710712606,531.202904413549,531.2029812055753
2.34,1.2479188503832034e-08,-2.000000008296823,1.7399844142254468,-1.3677884024980533e-05,1.3130638030058985e-05,2.8440066267784537e-06,6.60556355330047e-09,-2.0,1.731927932548186,3.702863524805863e-23,-2.4205662821431112e-08,-2.938144048036266e-07,0.3023672527521889,0.0,0.0,0.0,-0.14424204493993256,3.987513611097617e-06,-2.6269746823247637e-06,-1.633849075438643e-07,531.6686114549008,531.6690524355738,531.6693421757932,531.6671982719923
2.3919999999999995,1.8440643169466482e-08,-2.0000000145095846,1.7551809947871972,-3.635968361761373e-05,9.135491082362073e-06,3.303723670079506e-06,7.199359815790983e-09,-2.0,1.747692608446948,3.485106994180367e-23,1.1157436191258474e-07,-1.8379475592489875e-07,0.28549664228539845,0.0,0.0,0.0,-0.12790763581493025,3.358091156098646e-06,-6.215735659161494e-07,-8.335152744186659e-08,532.1173015757731,532.1181877932023,532.1181027668302,532.1168139572318
2.443999999999999,2.785654785634927e-08,-2.0000000059571437,1.7695261921490515,-4.949079380945432e-06,-1.5871267918918846e-05,2.7765605819695485e-06,7.765041661519894e-09,-2.0,1.7625960128642875,3.2792471553058155e-23,2.265495843145262e-07,2.0108852204993402e-07,0.26945745994634124,0.0,0.0,0.0,-0.11213193277842111,-2.0174449488164342e-06,2.1929824017506584e-06,-6.9744301012031176e-09,532.5509166636022,532.5509734649207,532.5502399093575,532.551602341317
2.4959999999999987,3.0641131650591344e-08,-1.9999999950838705,1.783062443204834,3.0473514136264786e-05,-2.5388321118055843e-05,1.9753912332187903e-06,8.351800000288383e-09,-2.0,1.7766788635579829,3.0847215762156087e-23,7.905307251305422e-08,2.663738845971519e-07,0.25422395415752813,0.0,0.0,0.0,-0.0969523874057696,-3.5595164833664876e-06,1.5066125583990278e-06,2.354329093888626e-08,532.9678481454663,532.9671843753907,532.9667779835228,532.9684160262523
2.5479999999999983,2.2766231402248586e-08,-1.9999999965930002,1.79583058290577,2.448331478489001e-05,-3.928111449411177e-06,1.6122155428037862e-06,8.975365432473916e-09,-2.0,1.7899806099278754,2.9009853446958936e-23,-1.799627258507079e-07,-2.8366871553947306e-08,0.23976086715732867,0.0,0.0,0.0,-0.08233147793174395,-1.107421127385023e-06,-2.183972561076879e-06,-3.790495683022594e-08,533.3691366093531,533.3680731958567,533.3686489113338,533.3683010891917
2.599999999999998,1.3161803984376018e-08,-2.0000000086830996,1.8078699073051538,-2.9058259845218833e-06,2.0476759477075026e-05,1.672195446730213e-06,9.593348892319298e-09,-2.0,1.8025393938877343,2.727511608760176e-23,-2.1156872646505573e-07,-2.657907909220744e-07,0.22604555261518958,0.0,0.0,0.0,-0.0683316102891722,1.7619664571127416e-06,-2.7262452925997356e-06,-2.819189788553181e-08,533.7524126072101,533.7521012831435,533.7528849239943,533.7514358736412
2.6519999999999975,1.1718606828093829e-08,-2.000000019742602,1.8192183445566967,-2.131737646996593e-05,7.4784246743479745e-06,1.483893449197046e-06,1.0152715377582327e-08,-2.0,1.8143920238231022,2.563791936368034e-23,-4.076581000530566e-09,-2.2905172248415133e-07,0.2130442853153666,0.0,0.0,0.0,-0.05491982921496945,1.9135721911492466e-06,7.098944600144459e-07,-3.6715060550688836e-09,534.1190853784884,534.1199318003888,534.1196901990152,534.1193018505618
2.7040000000000006,1.3538048009364206e-08,-2.0000000218998792,1.829912140291321,-1.1269394378559991e-05,-1.7197467518037394e-05,1.1989834848302925e-06,1.0641186983833667e-08,-2.0,1.8255739598818634,2.4093365186056369e-23,5.963092850642691e-08,-2.1873968217647813e-08,0.20073094520004736,0.0,0.0,0.0,-0.04212450787051242,-4.463794551552967e-07,2.4328170119212904e-06,7.492135544182784e-09,534.4693453193133,534.469985793515,534.4692270190948,534.4701553397276
2.7560000000000002,8.506649524580715e-09,-2.000000019032133,1.8399860346683679,7.48044280338028e-06,-1.5880186337662074e-05,9.66499826959353e-07,1.107188099909445e-08,-2.0,1.8361193090347574,2.2636742379145972e-23,-1.1102088800539239e-07,7.292725082670925e-08,0.18907175208212756,0.0,0.0,0.0,-0.029904724086717585,-1.6709401126672167e-06,5.048938975289674e-07,8.604432239628533e-09,534.8040625102459,534.8036867844587,534.803553505223,534.8042546068526
2.808,-3.1030107411613806e-09,-2.000000018939427,1.8494731450512871,8.618343405694422e-06,5.821511649530454e-06,8.266027860908393e-07,1.1427747880941188e-08,-2.0,1.84606082851475,2.12635262058411e-23,-2.466482856912207e-07,-7.450584529257223e-09,0.17803632387448445,0.0,0.0,0.0,-0.01823359068371269,-3.9485614373752065e-07,-1.7001751056916463e-06,5.807838193436485e-09,535.1232272799846,535.1225526171892,535.1231199630995,535.1226996113232
2.8599999999999994,-1.2395945765763668e-08,-2.0000000223656413,1.8584048962168807,-4.810217058457802e-06,1.6089788968808523e-05,7.602340934277339e-07,1.1661183355374034e-08,-2.0,1.8554299363987703,1.9969376905860528e-23,-1.7257085459718593e-07,-8.004684428417835e-08,0.16759512328960774,0.0,0.0,0.0,-0.007088830557911374,1.1249350022977847e-06,-1.1977463963563124e-06,2.770358831075422e-09,535.4273524538233,535.4273290197069,535.4277239681353,535.4269764204953
2.911999999999999,-1.4894644956905453e-08,-2.00000002389376,1.8668116313429457,-1.09563894739579e-05,4.77446639114581e-06,7.345715816492983e-07,1.1733622980440572e-08,-2.0,1.8642567282345002,1.8750137399101672e-23,-2.522348409007961e-08,-2.3077483377550435e-08,0.15772721372939386,0.0,0.0,0.0,0.003492195693105618,7.917385713362412e-07,7.516709198898704e-07,7.881492384588218e-10,535.7159816425947,535.7164781161806,535.7162390129895,535.7162261242969
2.9639999999999986,-1.508699433926456e-08,-2.00000002086934,1.8747219486031284,-2.682040511434121e-06,-7.878537140759185e-06,7.247395987039445e-07,1.1646629561938357e-08,-2.0,1.8725699987400373,1.7601830288278604e-23,9.444724472517231e-10,7.382587131841384e-08,0.1483957364361527,0.0,0.0,0.0,0.013607210562770415,-5.348903040765702e-07,1.2695099340773965e-06,-1.5009524618463435e-10,535.9921304224855,535.9923666082972,535.9919579392415,535.992538067675
3.0159999999999982,-1.829276463800119e-08,-2.0000000166029595,1.8821632685796743,6.121995973524044e-06,-4.516984966657716e-06,7.17202874937854e-07,1.1420233107532076e-08,-2.0,1.880397267716759,1.6520654279593627e-23,-7.595115822624051e-08,8.30691729477298e-08,0.13958411963610484,0.0,0.0,0.0,0.023199837603609344,-8.498554804466534e-07,-3.1393687566366144e-08,-4.035395061069236e-10,536.254021482211,536.2537382921174,536.2537470049917,536.2540100183152
3.067999999999998,-2.3322899103641367e-08,-2.000000014814467,1.8891616324258842,3.947999720606124e-06,6.924300749287664e-06,7.070560478815978e-07,1.1061220906654129e-08,-2.0,1.8877648094167152,1.5502980126237227e-23,-1.0135740686026765e-07,2.2614738148229793e-08,0.13126029658970778,0.0,0.0,0.0,0.03234284425142343,3.826738125816618e-08,-1.0194786743861194e-06,-3.518790132716095e-10,536.503286542322,536.5029713758114,536.5032976349928,536.5029578854031
3.1199999999999974,-2.547973623992144e-08,-2.000000014742352,1.8957416509784484,-3.58367353508276e-06,9.304551460440649e-06,1.0527331125619813e-06,1.0565287504339472e-08,-2.0,1.8946976846965065,1.4545346186991374e-23,-2.644176694245803e-08,-2.899759155980165e-09,0.12340134887322836,0.0,0.0,0.0,0.041044800449316486,6.863622528999542e-07,-4.364992380271288e-07,-7.715453266681498e-08,536.7403377245946,536.7404179454878,536.7402953355206,536.739934830002
3.1720000000000006,-2.3672352606033603e-08,-2.0000000132859364,1.9019269355995776,-3.5295434792814226e-06,2.4948547255828514e-06,1.6273051358767403e-06,9.939686711672873e-09,-2.0,1.9012197753708817,1.3644453680987847e-23,4.6689604852939595e-08,3.874694555945336e-08,0.11598840884179958,0.0,0.0,0.0,0.04928825923820431,-2.750196357008761e-07,6.213923796929745e-08,-8.483558780693924e-08,536.964953016979,536.9648846982869,536.9645759666798,536.9646841695297
3.224,-2.051795254413729e-08,-2.0000000105467026,1.9077399229205836,4.174844650117824e-06,1.6073151859219117e-06,1.9125839703861557e-06,9.21323953402872e-09,-2.0,1.9073538202520386,1.2797161709621227e-23,6.09988809878534e-08,5.1967729403797344e-08,0.10899855364527673,0.0,0.0,0.0,0.05708905005564899,-5.10145377379599e-07,-5.443321333117579e-07,-7.102726997327139e-08,537.1774490281821,537.1771107535188,537.1770436854845,537.177032718424
3.276,-1.6589820051326247e-08,-2.000000009285886,1.9132019805814988,-3.2919326153923856e-07,3.380846968631612e-06,1.8224449797158205e-06,8.421628766653052e-09,-2.0,1.9131214524257403,1.2000482107620769e-23,8.080986548878511e-08,1.6204180298280682e-08,0.10240956397563013,0.0,0.0,0.0,0.06447033200678123,4.7596414485527736e-07,-4.6792451623138367e-07,-2.529641366923329e-08,537.3780865119639,537.3780890901,537.3781530979236,537.3778504130839
3.3279999999999994,-1.1428460574846464e-08,-2.00000000797636,1.918333164682164,-3.4584040953458884e-06,-9.833572148126436e-07,1.4708025793255498e-06,7.601118269824707e-09,-2.0,1.9185432373735498,1.1251574177248859e-23,1.0264703176505535e-07,3.141465435018777e-08,0.09619791755486426,0.0,0.0,0.0,0.07146718997279497,8.387739425355008e-08,-2.4570741312616914e-08,-2.092943114015548e-08,537.568424965862,537.568443977496,537.5683806879672,537.5683459232923
3.379999999999999,-6.624394098079361e-09,-2.000000005470168,1.9231525216435645,3.0823001986536792e-06,-2.555151315906441e-06,1.2419522524212654e-06,6.788496254063023e-09,-2.0,1.9236387116024525,1.0547739352414496e-23,8.834160343059329e-08,5.098100002833915e-08,0.09034286154305207,0.0,0.0,0.0,0.07811140827414777,-7.399800914808176e-07,-3.2332294846027396e-09,-7.716121371754935e-09,537.7492290301217,537.7489908620342,537.7489656699382,537.7492017658137
3.4319999999999986,-3.066354776302995e-09,-2.000000004180398,1.927677925442333,4.22133098950001e-06,-3.7991022599959685e-06,9.42726613249878e-07,6.013993760739909e-09,-2.0,1.9284264214894493,9.886415833092635e-24,6.150315602491233e-08,1.3753991611224992e-08,0.08482482199278588,0.0,0.0,0.0,0.08442396467123944,-2.5593835807458006e-07,1.6074316984114065e-07,6.049975482851866e-09,537.9207235476697,537.9206930514143,537.9206621147054,537.9207956007156
3.483999999999998,-1.2536614827482008e-09,-2.0000000046423034,1.9319264674165475,-1.6852802479682982e-06,-3.5715019560469908e-06,6.78396522498587e-07,5.2975067066313014e-09,-2.0,1.9329239620899683,9.265173224741025e-24,2.5671668896376372e-08,-1.4157480099380256e-08,0.07962997001791197,0.0,0.0,0.0,0.09038863204248183,4.912843834428398e-07,8.892635473875379e-08,9.428102904836457e-09,538.0827229214661,538.0829087388856,538.0829122870609,538.0827834284909
3.535999999999998,-1.0547485734704629e-09,-2.000000004464812,1.935914446366134,-4.977145066108768e-06,-1.4996665155215986e-06,5.095708659795712e-07,4.6461060750168515e-09,-2.0,1.9371480156956333,8.681707212339194e-24,-2.8080095815622264e-09,1.2776744343995588e-08,0.07474150481861103,0.0,0.0,0.0,0.09601449712274651,4.1571219200113785e-07,-9.764117201472941e-08,7.2133557290076515e-09,538.235628913638,538.2357307496545,538.2357865082437,538.2356221491669
3.5879999999999974,-1.571164844321715e-09,-2.000000002237817,1.939657196024679,-1.3818289075630622e-06,2.971031938308797e-07,4.2758793104990664e-07,4.0569138518140925e-09,-2.0,1.9411143899594738,8.133834294175303e-24,-1.1072852065164208e-08,5.261765569691463e-08,0.07014022379752297,0.0,0.0,0.0,0.10133714949157044,-2.0534821550789203e-07,-1.2892512407723675e-07,3.874818315866544e-09,538.380320695776,538.3802137010451,538.3802681232238,538.3802925848453
3.6400000000000006,-2.0062909068204346e-09,-1.9999999994057445,1.943169192419134,3.1571161478732893e-06,3.1801812228855475e-07,3.989901151884199e-07,3.521984649762922e-09,-2.0,1.9448380554355629,7.619486596518717e-24,-6.924527788267072e-09,5.1416227141370624e-08,0.06581165621750448,0.0,0.0,0.0,0.10636033745843085,-4.2095817064001763e-07,4.751500172908205e-09,1.3981796150354204e-09,538.5167495978926,538.5166164115606,538.5166196369171,538.5167558642127
3.692,-2.307249502821491e-09,-1.9999999978859766,1.9464641256373634,2.6583693238847586e-06,-4.647069281803452e-07,3.9766039161953495e-07,3.033831922165997e-09,-2.0,1.9483331824055796,7.136706786788329e-24,-5.897839097148333e-09,1.956825997137058e-08,0.06173962402995416,0.0,0.0,0.0,0.1111086207672553,-3.6881276714367464e-08,8.728336661822046e-08,-4.285943696693843e-09,538.6455990114827,538.645615136315,538.6455726679911,538.6456123912271
3.7439999999999998,-2.670320422281123e-09,-1.9999999976541283,1.9495548738556956,7.801188831058826e-07,2.776632435905021e-06,6.32117548185513e-07,2.586496534257453e-09,-2.0,1.9516131768873832,6.683643099710381e-24,-6.5660696666410745e-09,-1.2067955976446854e-09,0.05790975319448481,0.0,0.0,0.0,0.1155964034096181,1.556047633936047e-07,-7.186863517428341e-07,-3.800525114249753e-08,538.7675678808935,538.7673877783943,538.7674887102127,538.7672090668078
3.7959999999999994,-1.8214868867082433e-09,-1.999999997698364,1.9524536684348603,-3.0359912616880933e-06,4.770017624910182e-06,8.201251096801953e-07,2.174980267228285e-09,-2.0,1.9546907157405122,6.258544488215849e-24,2.942266939918483e-08,2.6818148493800333e-09,0.0543104720351269,0.0,0.0,0.0,0.11981979688992848,4.5002305701197077e-07,-4.5106035232746746e-07,-2.3066500132520935e-08,538.8820646391977,538.8820643074879,538.8821303076488,538.881842155998
3.847999999999999,9.379564668093077e-10,-1.9999999965320092,1.9551720251106346,-2.0336659051582393e-06,-1.5117067031943931e-06,7.533335642205643e-07,1.7999413642523138e-09,-2.0,1.9575777808010437,5.859755908413354e-24,5.935967438094042e-08,3.1396775186271026e-08,0.05092622142810521,0.0,0.0,0.0,0.12381443165330402,2.2441331470807268e-08,4.784875837946971e-07,-4.496927419293254e-09,538.9903345451793,538.9904947017807,538.9903264696059,538.9904722763615
3.8999999999999986,-3.186724035202503e-08,-1.999999976220544,1.9577207900838975,0.002293971128612319,0.004366148742457595,2.0059758796338388e-06,3.22545496687011e-05,-2.000016906335489,1.9602856919935125,5.4857137458591425e-24,-4.797003341567783e-06,2.5666605234063937e-06,0.04774592286405765,0.0035622657067291784,0.006793381483160462,1.8702261007184099e-06,0.1275843960809167,0.015512401327320603,0.029594863329695867,-8.334813198658744e-07,531.8357804343433,546.2559562307318,536.8357457209798,541.337376455607
3.951999999999998,7.051580313005053e-06,-2.0000036878399436,1.9601099522087297,0.11994293614880243,0.22878991643527408,0.0002502227930530199,0.0004226863929003217,-2.000221564948627,1.9628251393810066,5.134941388496503e-24,0.00027377514755531245,-0.0001434791869008596,0.04475303126630097,0.07239737509670982,0.13808803188961316,-9.911766762421473e-06,0.13119586063693725,0.012203330227596574,0.023288935808875304,-8.016042827377886e-05,533.6261090449062,544.9672246302321,537.2798788645955,540.8237562921422
4.003999999999998,0.00012744773979393796,-2.0000667999711115,1.962348838791723,0.45174205298447473,0.8619975288976782,0.0027555777382311793,0.0013764926678294523,-2.0007213731121136,1.965206214126203,4.8060449500263315e-24,0.0037403832877598935,-0.0019606871728105072,0.04199408795929117,0.12527039722221817,0.23921878022016702,-0.00048347444602267996,0.13478347228627507,-0.013485717152310672,-0.02549343818342898,-0.0004456559193488653,546.2262889298548,533.7873607633152,540.449880781802,536.6074899908601
4.055999999999997,0.0006307903842046442,-2.000330560844567,1.9644432255177073,0.742774503061788,1.4201883465663123,0.004938577530578357,0.002910118680629189,-2.0015226026317925,1.9674384383462322,4.497709146072421e-24,0.013070258917295324,-0.006847096609079455,0.039591076619111584,0.06482582377835286,0.12558670629975865,-0.0017357695434352277,0.13904353425845556,-0.021300666426930376,-0.039141713903305876,-0.00012309616177601603,549.1782980825972,529.8728761479163,542.0382749672161,536.3362315891591
4.1080000000000005,0.0017537884068995258,-2.0009182164851227,1.966398341586862,0.7520037995342822,1.4539471516803337,-0.00015241442151125021,0.004982745278110643,-2.0025947461208355,1.969530793853009,4.208693324296674e-24,0.02585184207497876,-0.013513918408845823,0.0374194961051658,-0.034056136452910946,-0.05657552808548618,-0.001597770510477397,0.1434601233210183,-0.0032445526471356415,-0.004159174356955484,0.0006085365104875174,539.6746295962521,537.3053159235063,540.6987496963206,540.407172846533
4.16,0.0035117880254214666,-2.0018338795380592,1.968225438314027,0.5873686654869302,1.185306298538548,-0.0049037584855438346,0.007537238195947319,-2.003891112017548,1.9714917497781905,3.9378276485801326e-24,0.037461579945396645,-0.019457856930617592,0.03521184685093374,-0.056012941744528345,-0.08662569869753146,0.00021900391829419476,0.14695090062859245,0.012108406837173787,0.02472457105693192,0.00033684900511438934,533.1268983001034,544.9025777997673,538.1718218322426,542.1965379869346
4.212,0.0057857321064229235,-2.003004460346022,1.969938141035874,0.5007809520049019,1.0977522019845254,-0.0032036937351846806,0.010514389470984176,-2.005363341191556,1.973329289088361,3.684009436496202e-24,0.046686841816533244,-0.023895398521079785,0.03320807441538999,-0.007220539408559922,0.014865593884094547,0.0010433655161997959,0.14943933191630063,0.006195634658230529,0.011134929426056615,-0.0001846971707662784,537.2254229355143,542.7560727939399,538.5826557405986,540.1607268914945
4.263999999999999,0.008525202282424751,-2.0043857488641037,1.9715458985333167,0.5406911793113593,1.2572368286910172,0.00044144304213702404,0.013858167087294192,-2.006966275908841,1.9750509340015103,3.446199648547541e-24,0.05582362883044421,-0.027913415917597773,0.03160869745929194,0.01897375377608054,0.06277923139296444,0.000420357122537433,0.15166234617922125,-0.007520715587630541,-0.01581398752009717,-0.00026246120463710215,543.8988659673265,536.4546982221582,540.6241341181877,537.9741335456475
4.315999999999999,0.011783031917331935,-2.0059863506815767,1.9730538421966157,0.546694044355825,1.337787156143528,0.0011021788790619887,0.01751747258603263,-2.0086591763601067,1.9766637703204906,3.223419527000253e-24,0.06625617259267966,-0.03225443654854588,0.030116895821885405,-0.015501942163798016,-0.00845060123951261,-0.0002560119418754692,0.15395245646324535,-0.0085665869984589,-0.01673275152780055,5.915811093490814e-05,543.7312049712267,535.6530371162569,541.2092085906745,538.6027563557668
4.3679999999999986,0.01558240550161365,-2.0078027091152113,1.9744676613418768,0.4195506320715989,1.1536316335648187,-0.0009646167447414924,0.02144452770782046,-2.010406045205204,1.978174470702985,3.014747381617019e-24,0.07643486008425279,-0.03618408395926445,0.028343755525537213,-0.056866586769840466,-0.08919132703436818,-6.349170213087714e-07,0.15593645363330477,0.002533410505850135,0.004603947120563775,0.00020551508065002897,538.3720346389966,540.651779308058,539.8786039432225,540.5391011762887
4.419999999999998,0.019836580302412123,-2.0097764019226454,1.9757949724909807,0.24741126646292072,0.8872839118109267,-0.001504960282741441,0.025598946677777713,-2.0121759548322045,1.979589316890707,2.819315519150917e-24,0.08431144211894978,-0.038666202447269586,0.02640112513169478,-0.05144959516758365,-0.07600769566559247,0.0005227172308600144,0.15737930697733268,0.00868209459763557,0.015841559441669928,6.165351371823218e-06,535.9616853369705,543.789513191109,538.7668897505533,541.0520118786594
4.471999999999998,0.02442215356192571,-2.0118294064384328,1.977042496994878,0.15573182763409743,0.7779588427614252,-0.0002681932721677126,0.029944799537011863,-2.013945163723618,1.9809142209231427,2.6363073131036008e-24,0.09003565466761847,-0.03975331414305046,0.024733323404538685,-0.0164120998083468,-0.010702674964553668,0.0004897802571970753,0.15852782928175332,0.0036180300552397324,0.004479272317376314,-0.00010474240808518063,538.8152965802108,541.3988074552689,539.6165006516065,539.8914668195725
4.523999999999997,0.0292801826500473,-2.0139172567454953,1.9782145223224386,0.14170991763844987,0.7960612937395867,0.0006746343186089558,0.03445316953402183,-2.015699071389471,1.9821547453632269,2.46495440996516e-24,0.09519568905774187,-0.040297751882827894,0.023389576860932747,-0.0017493665421586767,0.007137050454053606,0.0001696540660627589,0.1597010424002453,-0.003127374529917759,-0.008424670737927999,-6.973277942619336e-05,541.920959082922,538.234985637218,540.6898791084235,538.9989108867837
4.5760000000000005,0.034407477586220384,-2.016029633322155,1.9793142210841705,0.1133997559353415,0.753661427699048,0.0006819150675955878,0.03910480496967926,-2.0174313507205017,1.9833161225639442,2.3045340679296898e-24,0.10036941537578585,-0.04073396094072303,0.022023371266980916,-0.016838533094846724,-0.03223302920801089,-2.872463925663523e-05,0.16094688729398465,-0.0016930736663619593,-0.005091004564085096,-7.330971871008535e-07,541.079470905854,538.914513825489,540.5375046638015,539.4531425678523
4.628,0.03977897893592865,-2.018152562580263,1.98034512053983,0.0408772440980659,0.5989583357361263,0.0003497431048232985,0.043884815311380866,-2.019147685584216,1.9844032730060808,2.1543666239124673e-24,0.10468492140538983,-0.040754837687882975,0.02046572923625267,-0.025991872582513054,-0.058956073306397364,-3.539833633574224e-05,0.1621798206579677,0.004797210021335121,0.006498293330869053,5.913158572366781e-06,538.2149452302428,541.8194680173125,539.7687547145615,540.3115665523227
4.68,0.04532375780059766,-2.020254973672498,1.9813110432708871,-0.00849475371657337,0.45483611863428847,0.00025744733453562674,0.048782096362269996,-2.0208658272983704,1.9854208227382177,2.0138130845742928e-24,0.10745816908333819,-0.0401343632479313,0.018953290408610043,-0.00697846784988181,-0.03555612014496214,-1.4319005972174394e-05,0.16337975062841886,0.006594108343904781,0.009694032595721316,-8.349514939297455e-06,537.4719807345281,542.6691968460918,539.5537725053324,540.542936316742
4.731999999999999,0.05097495123870201,-2.0223158398115912,1.9822155652229443,0.01993605130515307,0.4187158979409141,0.0002132681665967593,0.05379167771473174,-2.0226111232073385,1.9863731199506143,1.8822728369805542e-24,0.10921314495198553,-0.03931582335017345,0.017740978498546885,0.019522978767665393,0.0016104873881381183,-1.8433405987331096e-05,0.16458258506751014,0.0015627404258456092,0.0013076229948451486,-4.672826906071585e-06,539.6450800577493,540.5608999867432,540.128068131487,540.046667851667
4.783999999999999,0.056711517428684674,-2.024347392390656,1.98306198264746,0.0973951617062506,0.44073589423253245,0.00016973565856336388,0.058909679056413054,-2.0244137932201176,1.9872642507149523,1.7591814744799525e-24,0.11088333449587906,-0.03896587657296544,0.01675331242701069,0.027044693246238732,0.005766512215979773,-2.558840901849423e-05,0.16580661870720245,-0.0014053096593343853,-0.0034803099037173536,-2.9351182452952097e-06,540.9121803724928,539.3534576574839,540.4543598739587,539.7923339643806
4.8359999999999985,0.06253875241295133,-2.0263835613364485,1.9838534955776286,0.16421022540595062,0.42275441454880885,4.0864465109154404e-05,0.06413829472849998,-2.026308258470611,1.9880980539219766,1.6440087333769955e-24,0.11264573149410921,-0.039308003455738316,0.015758857763349,0.019089213328788594,-0.014429794444766945,-2.2729391668756617e-05,0.16703300143858196,0.0010018824002729547,0.00020988104046778259,1.4256066196422847e-05,539.9441575734048,540.3307588945003,540.3120489048462,540.0593911616755
4.887999999999998,0.06844725807124641,-2.028455070528889,1.9845933837094154,0.2193431840812496,0.3639218893248287,-0.0001386676124488456,0.06948085608141602,-2.028332839678205,1.9888781354489644,1.5362565359878153e-24,0.11404480479903112,-0.040171922360846844,0.014727956240803147,0.019728457587844604,-0.019904410773670923,3.0082213657291174e-05,0.16822760463687808,0.003221449719333141,0.005625527040675869,1.52734065241245e-05,538.7550712184905,541.5774624347837,539.8362152881541,540.6030960347239
4.939999999999998,0.0744107259050471,-2.030587363047565,1.9852848590076786,0.292558131879725,0.33207376457649707,-9.96366179546405e-05,0.07494378782257245,-2.030517273800479,1.989607881588678,1.4354571357072006e-24,0.11492410323177407,-0.04154444429094654,0.013810102281760505,0.028357565245785706,-0.0018469958117924758,6.817998052709203e-05,0.16938331297794068,0.0027171599400273028,0.006862636314256141,-1.3582447348408201e-05,538.7181885566068,541.7739148804783,539.5406423495496,540.8630585514481
4.991999999999997,0.08041437383778556,-2.0328127413761847,1.9859310011231102,0.38897501603497175,0.3689313093741813,0.0002437771633256472,0.08054371353582807,-2.032888085068818,1.9902904717710292,1.3411713597721755e-24,0.11571778181144673,-0.04362051818595217,0.013111646840538435,0.03374759463584381,0.020180171874166285,2.4243999977357327e-06,0.1705015861662108,-0.0008669078032867751,0.00044549918469706604,-4.573602759576745e-05,540.400061823142,540.2656641294884,539.968744932085,540.3874241056512
5.0440000000000005,0.08647251870428804,-2.0351726234785863,1.9865346083282696,0.48417392234220513,0.4351616574699531,0.0005096941393449676,0.08630453173667794,-2.0354947759159017,1.9909288906081726,1.2529869454810362e-24,0.11697165149887134,-0.04652386787320016,0.01255428984527202,0.030753957048394686,0.02068850871053737,-0.00013325865848133354,0.17161220548518386,0.05887248051800181,0.02708090587278145,-3.216467287243246e-05,526.4554223270566,553.8765642812597,545.2780899173271,535.1366100005077
5.096,0.09261593302751697,-2.037714477822622,1.9870966748527223,0.9654282466596541,0.6699950955756021,0.0032105669632625,0.0926237262453634,-2.0391374847293986,1.9915259392930844,1.1705169657136574e-24,0.11893335835346294,-0.05059519082374374,0.012566151631347788,0.3187454254109544,0.15244302749282174,-0.00010039537029495204,0.17323347299273198,0.11190761764517085,0.058203474232328536,-0.0007945511745797737,513.9005295214837,568.0869160699616,547.5017345576704,530.3290982936926
5.148,0.09896461720917203,-2.040682230789514,1.9876158989208514,2.794509157937687,1.5676875232061576,0.027356723013000635,0.10002143680893535,-2.0447957912134775,1.9920842463810164,1.0933983396965622e-24,0.12480515689483787,-0.0627496044999809,0.015652841465010274,0.7756887304864899,0.38865963224282196,-0.004234107626138595,0.1761985053509756,-0.03325929586940096,-0.0058106861871051255,-0.0047355049258146235,554.464907326426,542.1861467354549,527.8792940597485,536.7650743506222
5.199999999999999,0.10590839628709882,-2.044864785222165,1.9880636284530395,5.001624680486502,2.7503405130275116,0.06990224703161178,0.10868670196796205,-2.052650303065638,1.9926062779823963,1.0212904250629878e-24,0.14005369200131026,-0.09338027755967664,0.022259881415176982,0.6063921727295345,0.3537111641544848,-0.020246704279017664,0.18864426093542022,-0.15326650229105146,-0.0540228715479016,-0.005034818607178837,580.8019652908462,515.6436694650622,515.8500649486892,548.0015737017094
5.251999999999999,0.11395103435138128,-2.0511919048789817,1.9883867550138337,5.580759714589343,3.376879403186788,0.044307433899101877,0.1187373265405193,-2.062360843891205,1.9930943473949676,9.538736873714194e-25,0.16422502483903015,-0.1388378406181008,0.02852448904245434,-0.10770182474604764,0.10883949984913106,-0.030974048691855743,0.20965417219750462,-0.08839391587016546,-0.02199921237902732,0.003585367078127622,552.7123374707215,517.1496931792395,536.7803518057996,557.68822790449
5.3039999999999985,0.1233652098307352,-2.0599029984658,1.988601629267859,4.292862114119758,3.4494869401190678,-0.02346808000162534,0.13025713114518248,-2.0733780190447773,1.993550624202074,8.908484433648649e-25,0.19148017302974116,-0.18227526831926605,0.02941496734304941,-0.565668743494244,-0.003664250459979088,-0.018371914025095828,0.2241125446803554,0.051885735534879227,0.032112683707300235,0.005343275919114392,518.8466645875199,546.0329810232091,553.7311105046491,547.5430000748739
5.355999999999998,0.13418250673493626,-2.070430634932141,1.9887938014248323,2.819814723774256,3.6039646931877187,-0.0395388353464719,0.14329484787152055,-2.0851796947944656,1.9939771428631214,8.31933674375592e-25,0.2184280458411755,-0.21158719780282764,0.028330520684694667,-0.37274529953062874,0.10679424216649673,-0.0028596761635491263,0.2250423265248813,0.09248706950381104,0.024206549309675307,0.0006432549428366039,521.7144203630052,558.9315976144644,553.5461214155487,531.8649698071899
5.407999999999998,0.146456119636913,-2.082099594038667,1.9890208977789428,2.4566891729169495,4.111224830334326,-0.017949632353180752,0.157830597070636,-2.0974522968817046,1.9943758108213354,7.768659064051191e-25,0.24725587330727405,-0.23030866538505812,0.03210511602801737,0.02786569845767651,0.19060893036947862,-3.224071659392637e-05,0.22046242538625346,0.009442417744407669,-0.02599302733857656,-0.0013926903805107054,546.5664334638544,541.32308183267,544.8833338807209,533.5587870922382
5.459999999999997,0.16037567488595267,-2.094695378769395,1.9892770082369646,2.7332509759002943,4.5167398781465975,-0.004866427913271801,0.1737863132965867,-2.110036928458109,1.9947484161530291,7.253981535357764e-25,0.2801614474289666,-0.2482018952880518,0.03889135635714277,0.07349430503257934,0.0771766709736024,-0.0028935518633340022,0.21793606801078078,-0.05824135308151604,-0.03170504861889803,9.681881515878786e-05,555.5054490760298,526.8644699722474,537.4637661842138,545.9057325476883
5.5120000000000005,0.1760867222709024,-2.10829017158537,1.9895420655054366,2.4996542795715047,4.440116266320707,-0.016394620016341267,0.19107657038363857,-2.1228428952085614,1.9950966347816597,6.772989214572593e-25,0.3147683708840018,-0.26745202227850123,0.04168805583730663,-0.1929700619426267,-0.08621461701588654,-0.0016525406394829628,0.21621334121989289,-0.022138166494641186,0.0009526125048215095,0.0020401248041107037,541.4189941784887,534.6334266567719,541.2603938497625,548.5627387751887
5.564,0.19353079551556426,-2.1227607416358394,1.989820030432629,1.626102659587889,4.095861205079645,-0.02424080923039165,0.20959564356471758,-2.1358185195207975,1.9954220372790439,6.323512680184463e-25,0.3469222226429369,-0.28221361651091903,0.03897428822205633,-0.31762768669085284,-0.1137247270930036,0.0037503744958169135,0.21158912601347982,0.0450023375545,0.023079107853785114,0.0007586942379653363,529.1111550557961,550.8384204729721,546.1156809921748,539.1534752338001
5.616,0.21253034053531233,-2.137717344167161,1.9901228766874313,0.9415966597809698,3.9014304317758994,-0.012736493819057945,0.2292613153456522,-2.14893562724667,1.995726095275197,5.903519178406056e-25,0.375511643521513,-0.28887100907312613,0.03661652532405503,-0.1426396701719743,-0.026376889102559503,0.005702027525348269,0.20466226466260332,0.047141850490204126,0.01365442474239363,-0.0008630371031756285,532.8938005131771,552.2040484564212,545.0396592360149,534.3470305534435
5.667999999999999,0.23296625020779357,-2.152844806096094,1.9904474014179354,0.9034512848344719,3.932542186874371,0.0013559216561165952,0.24999996760078327,-2.162165012483194,1.9960101874973404,5.511104281526352e-25,0.40259709471809213,-0.2911677328781492,0.03851788513749216,0.053055865687101224,0.02029252563904242,0.00346042216110138,0.19833639338445125,-0.0048540803423290264,-0.00914973581798801,-0.0009889205501068348,544.8952887641806,540.4483729610861,540.0209650024547,538.6484381094466
5.719999999999999,0.25481429305917735,-2.1681026403600874,1.9907782844162671,1.0618314468261485,3.900619778147305,0.005705137177994626,0.27174140857425305,-2.175478228311759,1.9962756054577542,5.144484031312723e-25,0.42957028550560883,-0.29413089015749466,0.04117224951293659,0.021462992099974425,-0.04172317518412507,0.0005826787078009388,0.19383187826761603,-0.030796035476324087,-0.012791479061550547,-0.00013966205382499522,548.0189990852499,534.1369999125835,537.7735215164623,543.5123293986231
5.7719999999999985,0.2780286125906184,-2.183544318082057,1.9911043376516622,0.8511331470734474,3.634039498985538,0.0008412404702436265,0.29441944160009176,-2.188847323809362,1.9965235588092773,4.801987541492955e-25,0.455155121635381,-0.29764611014614184,0.039978753388030516,-0.13120547660420165,-0.11500323387236074,-0.0001746679087654445,0.1901132086593362,0.000921976731503989,0.01190441430848447,0.0004475225607793002,537.9788153784051,542.0718003273646,539.7916327872604,543.2864042004395
5.823999999999998,0.30246731442706715,-2.199076418300468,1.9914224509749665,0.36897495174265843,3.311339031082243,-0.0016339540721205157,0.31800992314514837,-2.202256056237929,1.9967551803864023,4.482050034520057e-25,0.4774814720993013,-0.2981539337738931,0.03599525472222643,-0.1551544468447104,-0.08827135530289029,0.0007403169952655692,0.1865238524196792,0.03328721709715721,0.024604296065083728,-2.633462186387632e-06,531.3879905267668,549.8414092108113,542.0664609316739,539.299053415561
5.875999999999998,0.32796625927911194,-2.2144919955874562,1.9917301730055095,0.11093076675867213,3.195996796141838,0.0007873562160676876,0.34248823380048293,-2.21568065080411,1.996971530949093,4.183206288965676e-25,0.4969878049361573,-0.2946967531450581,0.03419482072009251,-0.0320344179470861,-0.00818720773768456,0.0010097493263020248,0.1835406189311574,0.022547718833485855,0.006707978716329973,-0.0003001267242475059,536.4367816576327,545.7540028637502,542.6217133430551,537.5677990140312
5.928000000000001,0.35444704657954434,-2.2296750277210045,1.9920219266144426,0.19033513831773588,3.1983760365954845,0.0030483831974133157,0.3677942316254461,-2.2290971571404588,1.9971736036456418,3.9040844749986885e-25,0.5156455742823957,-0.29010822239022155,0.03519876725741509,0.04947035942157238,-0.006648064261288484,0.0005105608044365184,0.18171752840266625,-0.007593883285622358,-0.010258162292577398,-0.00025234395541630443,543.8213249582791,538.1346529971281,540.5570094790492,539.7069886253881
5.98,0.38188413295267254,-2.2446540542157516,1.9922928776898468,0.27824888284409316,3.0751763463965838,0.002651011409905189,0.393884163558896,-2.242486912056123,1.9973623282101156,3.6434003564828417e-25,0.5337637283735734,-0.28662260029983955,0.03528287389394681,0.0020466579685321485,-0.06641044391632392,-0.00022916938159961417,0.18070884289568628,-0.012196567408857361,0.0015182557880575576,2.9600453830180997e-05,542.1812930941962,538.7766344150369,538.3913127587347,542.7633331083877
6.032,0.41020403292247115,-2.2594672765262946,1.9925425634521172,0.1380181085662682,2.819729005017936,0.00045410568811349663,0.42071764749853013,-2.255829233916134,1.9975385749091648,3.3999518392691065e-25,0.5499812971657625,-0.28336845992177767,0.0327365984224174,-0.0738135496831685,-0.08919559924445411,-0.0004135305504269763,0.17993224957135118,0.00790054816704757,0.01674480105442716,0.00012597822406001434,536.3529667670459,544.2137023783403,539.3125123681903,542.1311356716283
6.084,0.43927917154271356,-2.2740600197550833,1.9927724241091476,-0.08737336395723505,2.6246808453670236,-0.0003763658527515172,0.4482704647661481,-2.269104460680503,1.9977031582522629,3.17261384626553e-25,0.5636363513968983,-0.27847533199898544,0.029870477047322902,-0.0633139127571049,-0.043770480193344244,-8.926164076549578e-05,0.1793582070250694,0.02072842211532848,0.015865906933129562,-2.924486880406266e-07,534.6301625214368,546.2981691999244,541.2692646608936,539.7189502237441
6.135999999999999,0.4690072653774746,-2.2883404466624895,1.9929828375899117,-0.15370907215583376,2.5796793638115374,9.433043005370189e-05,0.4765066954289919,-2.282292671351126,1.9978568404787265,2.960333500836918e-25,0.5757607739263341,-0.2720248830705521,0.029102861008930097,0.0063204332744185646,-0.0021053243138074475,0.0002443444479117738,0.17918444541986014,0.010949343481888935,0.004586934776750104,-8.893959100215551e-05,538.1590908742172,543.1112260439567,541.3536445111096,539.3245374581563
6.187999999999999,0.4993502398084356,-2.3022821142552257,1.9931737712275839,-0.06625599135135773,2.5615520851441334,0.0008924416961985062,0.5053905202653726,-2.295376015417492,1.998000334834198,2.762125601020846e-25,0.5874693505014497,-0.2656791381689302,0.029505119784345623,0.03463697609383942,-0.015538483472224567,0.00019783779855760817,0.17935867628935986,-0.003551177322791181,0.00200162002353457,-0.00010724966319026653,540.923375257573,540.4294969146642,539.4275670098398,541.1985571435346
6.239999999999998,0.5302848466062865,-2.315924842282821,1.9933464164552523,-0.019291879667666233,2.453777741245945,0.000866267812092607,0.5348889661500902,-2.3083365797004265,1.9981343086486136,2.5770683679436004e-25,0.598576819512269,-0.2602548946643271,0.02889340473128078,-0.0025137719031358948,-0.04890521855858106,-0.00018666182172277893,0.17961694519544708,-0.003015703099071582,0.006435612764092187,-5.544064772177896e-06,539.96608992269,541.0564242262577,538.9839930556847,541.9973727002547
6.291999999999998,0.5617524716702401,-2.3292942090832836,1.9935030664117814,-0.09810607917561197,2.296307800107417,7.740090596189087e-05,0.5649665935233357,-2.321158421518438,1.9982593862270763,2.404299452680724e-25,0.6082927551905883,-0.2549521811275629,0.027032134955011028,-0.03705731964431982,-0.04909141033400747,-0.0003382112686237652,0.17982978980307943,0.009051533249407787,0.016413795149562246,4.33555044436859e-05,536.3592360491248,544.4794631477638,539.4064790539276,541.753414348448
6.343999999999998,0.5936745070459102,-2.3423637364583727,1.9936456900903707,-0.19032961868634943,2.208875577925839,-0.0003990460696152452,0.5956063526054616,-2.333828057738116,1.9983761515644256,2.2430121866320023e-25,0.6165571005733106,-0.24888930996689865,0.02565546945148626,-0.020624561403748902,-0.01458707345841724,-0.00012557094076402192,0.1800702849293869,0.012684864795720592,0.013405071776524698,1.415010548612477e-05,536.3152165066747,544.6337660302116,540.4235327486568,540.6531373628865
6.395999999999997,0.6260019630667943,-2.3550998156471152,1.9937754984161262,-0.18658105375545048,2.212390743805902,-0.00028339612099652145,0.6267855731648302,-2.3463290246732056,1.9984851508937587,2.0924520612705566e-25,0.6241991583231229,-0.24238492318173632,0.025692879012379977,0.014445350229900128,0.00664093585246355,0.0001375069140179151,0.18039425079024662,0.005195066015981856,0.005792961891618488,-3.958365179253794e-05,538.8359214965745,542.3386277696445,540.3609230382607,540.5515633783792
6.448,0.6587254283629016,-2.36750839130949,1.9938935913375013,-0.1262925730477332,2.22089046344161,0.00013148262189410326,0.6584863792699096,-2.3586457744346023,1.9985868950785755,1.951913423880902e-25,0.6318122895354891,-0.23629112773007072,0.02616214118683093,0.018418585782637477,-0.0032560664475641482,0.00010957657644109564,0.18074371933016428,-0.0017991281888444666,-0.001553092583819895,-5.281517487555166e-05,541.1559368279408,540.0874013446431,540.404104382835,540.4825552202982
6.5,0.6918394527745334,-2.379620006003018,1.9940013954433229,-0.11355326083338374,2.1665463404277507,0.00020619413348735071,0.6906745859320981,-2.3707647311961666,1.9986818618577324,1.82073637662216e-25,0.6391993227812753,-0.23076515521840962,0.025811704061419298,-0.00636451537624865,-0.02657168538982258,-9.224853882641051e-05,0.18103913970191707,0.0014206293794974774,0.006105095404148948,-1.5098998331578118e-05,539.3652733633326,541.7643843039109,539.7678401051775,541.2613305917934
6.552,0.7253135145295603,-2.391446438693556,1.994100419666025,-0.16135006341686,2.0892873131614795,-6.757621340216092e-05,0.7233373693616344,-2.382675401159167,1.998770497951863,1.6983038669406313e-25,0.6458224597177601,-0.22523539689713923,0.024846916516176595,-0.018772228151543568,-0.020945862347681567,-0.00016155955278340247,0.18126822192924938,0.0075295077916261305,0.01126601893862632,1.0140170878420339e-05,537.5252439533297,543.5175144467454,539.9680655859755,541.1592232049306
6.603999999999999,0.7591075709070357,-2.402973798812111,1.9941917993429914,-0.1969710628629138,2.066672876247521,-0.00026662292811036156,0.7564523404013407,-2.394366920200388,1.9988532210394638,1.5840389580123223e-25,0.6517636429478847,-0.21936367485914648,0.02446662292627844,-0.004874089576236985,0.001555516919746683,-2.4393707256537236e-05,0.18146110995254594,0.007829798226766747,0.009243441706086649,-2.4074980705797282e-06,537.8278150408814,543.2707161844116,540.3225949651782,540.773261667917
