Time_s,X,Y,Z,Roll_deg,Pitch_deg,Yaw_deg,Ref_X,Ref_Y,Ref_Z,Ref_Yaw,vx,vy,vz,p,q,r,T_pert,tau_x,tau_y,tau_z,RPM_0,RPM_1,RPM_2,RPM_3
0.0519999999999996,8.098278062814876e-22,6.0,0.010054998130183691,-4.234280127810012e-18,3.0721848886449317e-18,-7.009700056314329e-19,2.3039331761647e-22,6.0,0.016216050707931907,1.786090570947644e-22,5.369955032984228e-21,-7.348834826829129e-23,0.0009999909697697498,0.0,0.0,0.0,1.918965327492956,2.633690072097898e-19,-6.007397599278377e-19,1.135601194289301e-19,585.6698474081986,585.6698474081987,585.6698474081986,585.6698474081987
0.1039999999999992,4.672052229785627e-20,6.0,0.011090727480757063,1.1969965867519125e-15,1.6977848450697764e-15,-4.5062406203404664e-17,2.2847211272199083e-22,6.0,0.032758437754563774,1.7711967103861146e-22,2.1323644765907282e-18,9.062732257814493e-19,0.051792772092704165,0.0,0.0,0.0,3.422621694535833,-2.8819040171108913e-16,-4.330632958122218e-16,1.2715391520541995e-17,622.079604121986,622.0796041219859,622.079604121986,622.079604121986
0.1559999999999988,1.0933696302961048e-18,6.0,0.018300144882405275,3.951181650927261e-15,4.679552578069553e-15,-1.8328301220135863e-16,2.2553639736358323e-22,6.0,0.05803618915790014,1.7484380055118419e-22,2.0488926219572665e-17,1.3152040082682406e-17,0.20540383070765317,0.0,0.0,0.0,3.982969086846968,-5.595554391078454e-16,-9.10458840934534e-16,1.8696086356628812e-17,635.1143063642828,635.1143063642826,635.1143063642827,635.1143063642827
0.2079999999999984,5.056791875783829e-18,6.0,0.0347753169737167,7.558107081439292e-15,8.388631002606893e-15,-2.6312218898143613e-16,2.217501482525811e-22,6.0,0.09063739605111035,1.7190856618484832e-22,5.396845677272974e-17,4.9847329146880783e-17,0.39451246045771116,0.0,0.0,0.0,4.013746414652875,-8.345378586895865e-16,-1.6668216704470986e-15,1.9422417459680027e-17,635.8225015676848,635.8225015676842,635.8225015676845,635.8225015676844
0.259999999999998,1.4115620401312603e-17,6.0,0.06130945165926152,8.26167920123585e-15,3.385868732842266e-15,-5.807957190493179e-16,2.1725834040386783e-22,6.0,0.12931376221384347,1.6842635770410984e-22,1.6626873877915937e-16,8.769395143171092e-17,0.587819879776813,0.0,0.0,0.0,3.714285030860653,-2.712908295399331e-16,1.7127392797551096e-16,4.7590978220673503e-17,628.8979394167953,628.8979394167955,628.8979394167955,628.8979394167956
0.3119999999999976,2.460899125208757e-17,6.0,0.09752176384992986,5.0268541291266324e-15,-1.5002509229453118e-14,-7.290749347267036e-16,2.1218888627048163e-22,6.0,0.17296390730279548,1.644963373714171e-22,3.4548723647433663e-16,6.776119842611572e-17,0.7672240493987028,0.0,0.0,0.0,3.2231556482364088,-3.1987052368853123e-16,1.814762689333685e-15,2.693481159619206e-17,617.3732457132912,617.3732457132918,617.3732457132912,617.3732457132918
0.36400000000000077,2.6701399992290067e-17,6.0,0.14234770843724598,4.9650048760949736e-15,-1.2333465521969262e-14,-5.625867268924451e-16,2.0665438982801964e-22,6.0,0.2206182634427897,1.6020579977549597e-22,1.7834317542036103e-16,7.775431267866878e-17,0.9225821336923236,0.0,0.0,0.0,2.6406069219167847,-4.834180273389646e-16,1.3271973159302716e-16,-3.5877942131773754e-18,603.4180197785907,603.4180197785907,603.4180197785905,603.4180197785907
0.41600000000000037,2.1786102106672792e-17,6.0,0.19436365743663103,8.902002488235991e-15,5.967359930769521e-15,-1.8663330837763742e-16,2.0075373255570484e-22,6.0,0.27142541925873054,1.5563140134002607e-22,-1.814590380783093e-16,1.5644360816281087e-16,1.0488987868999071,0.0,0.0,0.0,2.03972974668369,-1.0110378263736078e-15,-2.2302024277089754e-15,-4.252945922297944e-17,588.6772291199026,588.6772291199017,588.6772291199021,588.6772291199018
0.46799999999999997,2.0014685722589383e-17,6.0,0.25201215215311745,6.431355321730855e-15,1.5911807301789207e-14,1.2275719012176785e-17,1.9457350675123966e-22,6.0,0.3246397784282443,1.5084027148006286e-22,-2.9065616556253427e-16,1.464587681364467e-16,1.1450307465323635,0.0,0.0,0.0,1.469531417564386,3.231225468255427e-16,-1.818904277063935e-15,1.9725129616911177e-17,574.339311614914,574.3393116149138,574.3393116149142,574.3393116149136
0.5199999999999996,2.6116491345935636e-17,6.0,0.31373998888873383,-5.0438017503773044e-15,-1.3007182252070382e-15,-4.0143850955805556e-16,1.8818931023874294e-22,6.0,0.37961041169852133,1.4589101630547092e-22,1.3348307908788452e-16,-8.811301338599259e-17,1.2118489492456752,0.0,0.0,0.0,0.964182565182663,1.053266410172451e-15,1.0437529298766676e-15,3.8632637509489225e-17,561.3260266125734,561.3260266125742,561.3260266125739,561.3260266125739
0.5719999999999992,3.1679668433990526e-17,6.0,0.37813185386330117,-8.20663485274833e-15,-1.558544332224631e-14,-1.0144469040506374e-15,1.8166691527173624e-22,6.0,0.4357709921370155,1.4083462479590475e-22,3.981630794310977e-16,-1.9046575811810106e-16,1.2529590574675897,0.0,0.0,0.0,0.5338711181808511,-3.9493914462635605e-17,4.1911645178341497e-16,1.000329118319111e-16,550.002374609904,550.0023746099042,550.0023746099043,550.0023746099045
0.6239999999999988,3.037535305868477e-17,6.0,0.44395857136597,1.2486061549315179e-15,-1.0417704720966212e-15,-1.4805083469330103e-15,1.7506332328597799e-22,6.0,0.4926307132632521,1.3571528648255038e-22,8.851360786106746e-19,1.0361514317453736e-17,1.2720189178516137,0.0,0.0,0.0,0.1834121439301355,-8.805559383107538e-16,-1.833236041991309e-15,7.649575393542472e-17,540.6048200564868,540.6048200564861,540.6048200564868,540.6048200564867
0.6759999999999984,2.8298537197511634e-17,6.0,0.5102008296371308,2.7742815604550472e-15,8.896275278242461e-15,-1.092086058201037e-15,1.6842771611040318e-22,6.0,0.549766098720159,1.3057112886052412e-22,-2.1026834304295503e-16,7.055173372878925e-17,1.2729882744868248,0.0,0.0,0.0,-0.0897575881029109,1.4354684984198097e-16,-1.53734121995896e-15,-1.1717090405421845e-17,533.1649140905206,533.1649140905201,533.1649140905206,533.1649140905199
0.727999999999998,2.979918874576936e-17,6.0,0.5760391500318651,-1.74504691008739e-15,-5.597095644892332e-15,-4.500273970025372e-16,1.6180231328983378e-22,6.0,0.6068136203627762,1.2543488201579229e-22,1.155735602545688e-16,-2.9887023593993324e-17,1.259825593367836,0.0,0.0,0.0,-0.29412210439656117,4.172560159141194e-16,1.7361215852924167e-15,-2.529991869626018e-17,527.5303426026617,527.5303426026624,527.5303426026617,527.5303426026621
0.7799999999999976,2.88172038484805e-17,6.0,0.6408511400654255,-5.197881614388515e-15,-2.0310487907369732e-14,3.2820931548016755e-17,1.552231443025285e-22,6.0,0.6634630491384107,1.2033447727555648e-22,3.547449589430985e-16,-1.0811889471118451e-16,1.236060546186446,0.0,0.0,0.0,-0.43982050886701196,4.874578270920831e-16,1.438728448170775e-15,-3.353958746652931e-17,523.4762338863736,523.4762338863743,523.4762338863736,523.4762338863741
0.8319999999999972,7.471341098409348e-12,6.000000000007482,0.70418038106668,2.2095372080539554e-05,-2.2093318049803433e-05,-1.8254878066364315e-06,1.4872074366176686e-22,6.0,0.7194514699678843,1.1529358607561215e-22,3.40810962816455e-07,3.408398024588814e-07,1.204705972541942,0.0,0.0,0.0,-0.5376816149540692,-7.553669909572516e-06,7.552792329737441e-06,4.309472209174115e-07,520.7347392968314,520.7347390064159,520.7337522901815,520.7387514237583
0.8840000000000003,-1.0360657321363934e-08,5.999999989638268,0.7657109634534102,5.994519298444741e-05,-5.994656520720147e-05,-4.64518375449057e-06,1.4232077616686437e-22,6.0,0.7745578980697334,1.103321046770737e-22,8.461302266540037e-07,8.461097806344596e-07,1.1682195167340548,0.0,0.0,0.0,-0.597883263700185,-6.933765990035534e-06,6.93604224658172e-06,3.0221085522173113e-07,519.0417410535412,519.0417418092749,519.0405032743843,519.0451081411105
0.9359999999999999,-4.3907757632709905e-08,5.999999956092158,0.825238401662788,-7.059914503980296e-06,7.011872940603644e-06,-4.353485865124419e-06,1.3604459890921664e-22,6.0,0.8285984398503752,1.0546658985335756e-22,-7.210698929776165e-07,-7.218335792454661e-07,1.1285464429761736,0.0,0.0,0.0,-0.6296546021192115,4.533884860154904e-06,-4.525648039403662e-06,7.58103114833971e-08,518.1463122962899,518.1463150356998,518.1480876161743,518.1450745896548
0.9879999999999995,-7.440448808563304e-08,5.99999992561485,0.8826438694852161,-7.927080388661842e-05,7.926234153416559e-05,-2.6604892973477e-06,1.299097660375914e-22,6.0,0.8814219466613622,1.0071065020210867e-22,-1.828128605987297e-06,-1.8279463723388839e-06,1.0871400134641203,0.0,0.0,0.0,-0.6406631408077371,7.577365547607114e-06,-7.583096817900202e-06,-3.69389049501644e-08,517.8357547344499,517.8357528271955,517.8381459386768,517.8331008325328
1.0399999999999991,-7.269547043682446e-08,5.999999927344164,0.9378726277654548,-5.532292917435445e-05,5.5457340582926114e-05,-1.0544252269043742e-06,1.2393048173889029e-22,6.0,0.9329061144433597,9.607529731192486e-23,-8.14284124290956e-07,-8.119030239352851e-07,1.0450951146697913,0.0,0.0,0.0,-0.6374242251903574,-4.865691848950654e-08,2.6580493736941275e-08,-6.137854596631393e-08,517.9272509121324,517.9272435668287,517.9270181036474,517.9270431367718
1.0919999999999987,-4.7627273230971516e-08,5.999999952378468,0.990915899169297,1.7717876236628696e-05,-1.7585955037635755e-05,-4.951801321610403e-08,1.1811800639127535e-22,6.0,0.9829539865758713,9.156926062664107e-23,7.299698689473523e-07,7.312523083413133e-07,1.0031583253943022,0.0,0.0,0.0,-0.6248664221979132,-5.9132268913886075e-06,5.905588790393e-06,-4.69802471726253e-08,518.2816383455295,518.281635805906,518.2795065371166,518.283436225032
1.1439999999999984,-2.867081171145353e-08,5.999999971249637,1.0417955504276775,3.906663613265398e-05,-3.9161558529555945e-05,3.984442861714589e-07,1.1248102039171602e-22,6.0,1.0314908211681189,8.719926949732504e-23,9.024697306016921e-07,8.995793486357918e-07,0.9618257499392007,0.0,0.0,0.0,-0.6066956296118966,-2.7149969511210473e-06,2.7370372150163073e-06,-2.5324107434293677e-08,518.7939956544726,518.7940029754934,518.7930045991684,518.7948155784588
1.195999999999998,-2.549045611799307e-08,5.999999974383642,1.090552952224184,-2.035926575896026e-06,1.7918817907328181e-06,5.051264692141122e-07,1.0702594974573345e-22,6.0,1.0784612875935782,8.297030559097506e-23,3.693272521204544e-08,3.288606141242097e-08,0.9213950411857981,0.0,0.0,0.0,-0.58546283453654,3.203966325352005e-06,-3.1815846221876357e-06,-9.226180748684364e-09,519.392073035492,519.3920804613664,519.3931035873404,519.3909849683256
1.2479999999999976,-2.230401530581162e-08,5.999999977622285,1.1372406279248446,-3.279371436154738e-05,3.270911830033745e-05,4.630983136356679e-07,1.0175725712987446e-22,6.0,1.1238269603189213,7.888582853245531e-23,-3.437664741560321e-07,-3.4379525657521657e-07,0.8820347371364636,0.0,0.0,0.0,-0.5629077919107316,3.431328338879275e-06,-3.4394295193089736e-06,-8.162896575739405e-10,520.0266619443555,520.0266592597995,520.0277961419076,520.0255193212624
1.3000000000000007,-6.408691134105008e-09,5.999999993605401,1.1819167859771198,-1.246756237476193e-05,1.2631208858071546e-05,3.875091519813236e-07,9.667770179398723e-23,6.0,1.167564081035454,7.49479773899418e-23,1.6044804359427967e-07,1.6405124969390418e-07,0.8438133686518423,0.0,0.0,0.0,-0.540020860718152,-9.541551284386891e-07,9.299220667118467e-07,2.1224942091067716e-09,520.6698053636582,520.6697973432647,520.6694970190656,520.670120590313
1.3520000000000003,1.4613174934283087e-08,6.00000001465056,1.224641193222835,2.225292603190451e-05,-2.2098465921070355e-05,3.2656824921126266e-07,9.178857135773515e-23,6.0,1.2096615627930534,7.115775037178684e-23,6.487212778023991e-07,6.508428612035672e-07,0.8067472006996862,0.0,0.0,0.0,-0.5173462785603952,-3.1184298319167175e-06,3.11502524860643e-06,2.261513836916895e-09,521.3061979132988,521.3061967878627,521.3051749981503,521.3072355603298
1.404,2.6728046147315065e-08,6.000000026725749,1.2654741438341632,2.3641334526273527e-05,-2.3715097522547034e-05,2.902707718160246e-07,8.70898882712583e-23,6.0,1.250119212286515,6.751516488213394e-23,4.7236261584861006e-07,4.707881996333104e-07,0.7708411539592018,0.0,0.0,0.0,-0.4952787375433529,-7.138032100044281e-07,7.356248947414186e-07,1.4611335440013828e-09,521.9248087781584,521.9248159830944,521.9245782165891,521.9250567789242
1.4559999999999995,2.88474826878583e-08,6.000000028833032,1.3044751009370374,-1.5624787211988167e-06,1.3896723787344766e-06,2.72727099784346e-07,8.258059345102611e-23,6.0,1.2889461486731593,6.401939988193236e-23,1.747970214807156e-08,1.5565190138994012e-08,0.7360612710274099,0.0,0.0,0.0,-0.4737894553249703,2.0348408891666656e-06,-2.019617678791742e-06,6.622572740395899e-10,522.5265108817656,522.5265159022742,522.5271842743346,522.525847142226
1.5079999999999991,3.094268507437013e-08,6.000000030984922,1.3417017230702113,-1.3631993747810244e-05,1.3619104695955452e-05,2.6519712115954687e-07,7.82587093664202e-23,6.0,1.3261593993283471,6.066892231943058e-23,-8.648300440445229e-08,-8.544867021069992e-08,0.7023830045616232,0.0,0.0,0.0,-0.45285795663076606,1.4363105063738627e-06,-1.4467808428684536e-06,1.6195683247408038e-10,523.1119322920352,523.1119288428558,523.1124060128062,523.1114562534905
1.5599999999999987,3.8235242640958396e-08,6.00000003834022,1.3772101320706713,3.023983838614513e-07,-1.430774673569898e-07,2.613225171295828e-07,7.412148463842109e-23,6.0,1.3617826547896077,5.746159922819764e-23,1.4714136742230775e-07,1.4974064677229413e-07,0.6697675406224093,0.0,0.0,0.0,-0.43225575296948116,-9.339081459982887e-07,9.160634095732023e-07,-6.339707392592666e-11,523.6875013496043,523.6874954775818,523.6871938146609,523.6878025697843
1.6119999999999983,4.545584394787316e-08,6.000000045559507,1.411055338652515,1.5466151430407514e-05,-1.5357900518538755e-05,2.577994382372072e-07,7.016552201703552e-23,6.0,1.395845166816836,5.439479693975619e-23,2.640601949199956e-07,2.648380177616798e-07,0.6382077062949194,0.0,0.0,0.0,-0.4119631405709066,-1.513239584608471e-06,1.5139862144868182e-06,-1.1704361274599116e-10,524.2537989991691,524.2537992445912,524.2533011792633,524.2542962478461
1.663999999999998,4.640412501625861e-08,6.000000046461164,1.443291542911226,1.1220591960463165e-05,-1.1286331535993427e-05,2.535203394618146e-07,6.638689142708294e-23,6.0,1.4283807750202402,5.146546872067845e-23,9.584456685008977e-08,9.43826460480986e-08,0.6076815510898651,0.0,0.0,0.0,-0.3918057832171576,2.9438290664756826e-08,-1.3534665632901666e-08,-9.803615450717922e-11,524.8157175967116,524.8157228187383,524.815726921455,524.8157128110923
1.7159999999999975,4.254222245222305e-08,6.00000004257743,1.4739720634481432,-2.790003538152699e-06,2.681023203552205e-06,2.4846136559101085e-07,6.278122961108589e-23,6.0,1.4594270488928942,4.867023201928295e-23,-1.0021073304480064e-07,-1.0136786728027838e-07,0.5781775239532327,0.0,0.0,0.0,-0.3716804855346758,1.1824509243196302e-06,-1.1752171016005456e-06,-6.205989746900239e-11,525.3761467843674,525.3761491570918,525.3765344172011,525.3757610921365
1.7680000000000007,3.952938086372327e-08,6.000000039586752,1.5031502153846472,-6.336290162382199e-06,6.352005736788943e-06,2.4295372043771665e-07,1.4274632037006975e-12,6.0,1.489024533343274,4.6005436393758406e-23,-9.782459786371997e-08,-9.721566809402927e-08,0.5497011010313038,0.0,0.0,0.0,-0.3516301855278855,5.055680297950246e-07,-4.989197926434697e-07,-3.4725996220057063e-11,525.9338923546846,525.933894533022,525.9340578865575,525.9337287597167
1.8200000000000003,3.9048835499059846e-08,6.000000039122227,1.5308793840003758,2.31874854023942e-06,-2.138681260270414e-06,2.373180794027342e-07,1.4157736249633748e-10,6.0,1.517216086966273,4.3467223090622646e-23,9.461469140888903e-09,1.0897036654652357e-08,0.5222481262480592,0.0,0.0,0.0,-0.33163573033838517,-6.860074996550254e-07,6.842474163311873e-07,-1.9810697177720002e-11,526.4894973832177,526.4894968071238,526.4892727768628,526.4897212758241
1.8719999999999999,3.779355563281157e-08,6.000000037803508,1.5572125548763804,8.345937998745685e-06,-7.980029281603343e-06,2.3174603856079483e-07,4.817680256669559e-10,6.0,1.5440463033292375,4.105157714896264e-23,2.081783897124701e-08,2.1635645683327398e-08,0.4958147398607376,0.0,0.0,0.0,-0.3117096892391523,-6.976090537426653e-07,6.858629773539912e-07,-1.4285774732885654e-11,527.0426188906091,527.0426150500286,527.042390745808,527.042843095641
1.9239999999999995,3.3345956814670504e-08,6.000000033136153,1.5822028383718076,3.7670073586941193e-06,-3.3347694034193117e-06,2.2632200939674884e-07,9.845501795844535e-10,6.0,1.5695610064918089,3.875437282106904e-23,-7.372886985764821e-08,-7.584405289108356e-08,0.47040101355072766,0.0,0.0,0.0,-0.29191753657654473,2.1726924859138634e-07,-2.2511229728659847e-07,-1.3631438901093955e-11,527.5914475215791,527.5914449598281,527.5915184403427,527.5913739465999
1.975999999999999,2.750703540171935e-08,6.000000026897834,1.6059028769298653,8.331690950520159e-07,8.137129084842767e-06,5.780715959546223e-07,1.6014222726704664e-09,6.0,1.5938068128335625,3.657141302307881e-23,-1.5710314748814642e-07,-1.1563799118569055e-07,0.44599389245563914,0.0,0.0,0.0,-0.2722560841841954,-8.328124343498415e-07,-2.108516770320734e-06,-8.451047987700833e-08,528.136712630145,528.135752903712,528.1361484001033,528.13573215025
2.0279999999999987,2.523151192336152e-08,6.000000020063169,1.6283650208008695,8.736958495040706e-06,1.6438187120094255e-05,1.2437146205233744e-06,2.2812897414710015e-09,6.0,1.6168307520392282,3.449846345939338e-23,-1.1014037344782246e-07,-9.151546744797459e-08,0.4225948838641388,0.0,0.0,0.0,-0.25286762944437036,-1.8125402273600842e-06,-2.061693232644229e-06,-1.1983284553318758e-07,528.6734536624305,528.6721908216813,528.6724485270645,528.6723673133695
2.0799999999999983,3.0072837586555154e-08,6.00000000945188,1.6496410317868224,1.1251219830513826e-05,8.87085013430178e-06,1.8617565877655861e-06,2.99573020584145e-09,6.0,1.6386799407948835,3.2531282001288674e-23,7.106093856669497e-08,-1.6355834002208644e-07,0.4001815084384305,0.0,0.0,0.0,-0.23372067920442235,-1.3371131962567851e-06,-4.787957720174534e-07,-8.79195981256215e-08,529.2023742525661,529.2017829329086,529.20163516646,529.2019146629908
2.131999999999998,3.840688574772208e-08,5.999999994659583,1.6697820254633333,-7.628856379900278e-06,-1.4141490061678016e-05,1.6377884279348612e-06,3.756202823843371e-09,6.0,1.6594013033864405,3.066564384269917e-23,2.246448836385694e-07,-3.2589656116529694e-07,0.3787486786776843,0.0,0.0,0.0,-0.21495613874816416,1.3627270048178107e-06,1.9275613365904403e-06,-1.957218957016077e-08,529.7196522385788,529.7207226166896,529.7200280164709,529.7202117652246
2.1839999999999975,4.088387136089005e-08,5.999999983248541,1.6888380776655645,-2.2808603925017162e-05,-2.283110382805633e-05,1.0365058965930346e-06,4.595255088341663e-09,6.0,1.6790413339698904,2.889736290410499e-23,1.1338435288726218e-07,-2.9126347864387553e-07,0.35826708183573613,0.0,0.0,0.0,-0.19653270367085873,1.7466768865534445e-06,1.3276440163417022e-06,1.4542990079354444e-08,530.2279427194985,530.228941881622,530.2285605290224,530.2284243422852
2.2360000000000007,3.420420433192953e-08,5.999999981844191,1.7068582737932931,-2.2983981612984632e-05,2.195144495212438e-06,1.1481336235180525e-06,5.5143892767253914e-09,6.0,1.6976458958065503,2.7222309908292144e-23,-1.6237564098937484e-07,-7.992043087569034e-08,0.33872413143462815,0.0,0.0,0.0,-0.17856533790173773,1.5032847213287687e-06,-2.689481302595644e-06,-5.52234895738638e-08,530.7240166053064,530.7236314482409,530.7243145231076,530.7229531349006
2.2880000000000003,2.7978210520704668e-08,5.999999990121226,1.7238907844228433,-2.39076088299629e-06,1.633456955941624e-05,1.048264685692699e-06,6.467533245185695e-09,6.0,1.715260053230921,2.5636427509047888e-23,-1.5934209331542773e-07,1.7701059079421445e-07,0.32010003329770365,0.0,0.0,0.0,-0.16112363864936619,-1.2120552304580748e-06,-1.7462283242529341e-06,-1.8259987830116255e-08,531.2045703240017,531.2036106401808,531.2041142936216,531.2039410048457
2.34,2.8207646583722975e-08,5.999999999562864,1.7399825919662573,1.6809359287260284e-05,-1.9085267718044385e-06,6.881745756845302e-07,7.410553266834143e-09,6.0,1.731927932548186,2.413574281518877e-23,3.121924894425331e-08,2.254509222341173e-07,0.30236682576478163,0.0,0.0,0.0,-0.1442275007039064,-1.8632862561425443e-06,1.3885918347174093e-06,6.323266030322173e-09,531.6690171502628,531.6688632913631,531.6684349574703,531.6694889626207
2.3919999999999995,2.791809413314745e-08,6.000000002014373,1.7551791495714477,1.793851260244172e-05,-1.2916625009275366e-05,7.899178966807386e-07,8.333146339408297e-09,6.0,1.747692608446948,2.271637761733685e-23,1.628520758669158e-08,7.253759052308954e-08,0.28549693551515676,0.0,0.0,0.0,-0.12789919929344126,-1.4826288167668453e-06,4.078265497255398e-07,-5.944063382697398e-08,532.1181094839181,532.1177614108183,532.1174251511814,532.1180373725473
2.443999999999999,2.2445640436383423e-08,5.9999999968501045,1.7695244011003288,3.1283817047021015e-06,-1.921938567423737e-06,8.882144435511353e-07,9.231973812404089e-09,6.0,1.7625960128642875,2.1374556593211238e-23,-1.1548741676763453e-07,-1.1478235423110876e-07,0.26945877080441527,0.0,0.0,0.0,-0.11213233616784599,7.521584599705161e-07,-9.359913647783534e-07,-2.8716483470756695e-08,532.5510010440142,532.5509415584133,532.5511458670981,532.5505996067566
2.4959999999999987,1.5945052441060122e-08,5.999999990291724,1.78306078821766,-1.4100377768097713e-05,4.221635225119153e-06,6.458515652034552e-07,1.0080843253838376e-08,6.0,1.7766788635579829,2.010661373859494e-23,-1.3140595507669182e-07,-1.538096545785211e-07,0.2542276110354693,0.0,0.0,0.0,-0.09697724321314577,1.652622554106067e-06,-5.84239912568121e-07,-4.4440180243065326e-10,532.9667027378932,532.967048180888,532.967235560496,532.9665123098166
2.5479999999999983,1.1120076331773404e-08,5.999999989511096,1.7958291981098131,-1.1682117913762224e-05,-7.586504133744006e-07,3.2635512648178685e-07,1.084632463177909e-08,6.0,1.7899806099278754,1.8908997245282693e-23,-8.411317840128963e-08,-1.4096079167664317e-08,0.23976729838353367,0.0,0.0,0.0,-0.0823866110441061,1.8385346435590028e-07,4.548549497131715e-07,1.025479489802883e-08,533.3669077216819,533.3671140820393,533.3670022668265,533.3670898247143
2.599999999999998,6.113039159013674e-09,5.999999993718248,1.8078688966892065,3.232092568234658e-06,-5.553990666319474e-06,8.898450900983832e-08,1.1506595728371799e-08,6.0,1.8025393938877343,1.7778273023964285e-23,-8.960816347570768e-08,9.884578422183267e-08,0.2260522957687589,0.0,0.0,0.0,-0.06839821473805892,-1.1949605295950352e-06,6.171129044421561e-07,1.0122002438177086e-08,533.7504599684905,533.7502734057424,533.7501088297281,533.750693872157
2.6519999999999975,-1.0310858077251904e-09,5.999999996791605,1.8192176109206646,8.884739518195131e-06,-1.9214196373248824e-06,-3.6734885567740195e-08,1.2045062053209016e-08,6.0,1.8143920238231022,1.6711127048917617e-23,-1.424275503991962e-07,6.218133140349835e-08,0.21304905797749826,0.0,0.0,0.0,-0.05498039306525496,-6.8929928497677e-07,-1.1600481426339763e-07,6.3840052099748365e-09,534.1179632657986,534.1177034457764,534.117762720786,534.1179476861628
2.7040000000000006,-8.869645331279495e-09,5.999999996211113,1.8299115774452037,6.560640721628762e-07,4.7753292929036476e-06,-8.112006424596644e-08,1.2436620480042328e-08,6.0,1.8255739598818634,1.5704366682365576e-23,-1.5667012855982316e-07,-2.3173424717959117e-08,0.20073363342251235,0.0,0.0,0.0,-0.04217411479792922,5.996692459112594e-07,-5.575879983414765e-07,2.8713915727633165e-09,534.4683094989931,534.4683230670116,534.4685126671018,534.4681395392054
2.7560000000000002,-1.4622936825469885e-08,5.999999995228941,1.8399855588073208,-6.81483311239133e-06,5.823260491869751e-06,-8.343090960310101e-08,1.265583275319109e-08,6.0,1.8361193090347574,1.4754921119200492e-23,-1.0742456528961931e-07,-2.339713816844301e-08,0.18907283153580753,0.0,0.0,0.0,-0.029944455814486667,7.894773724054168e-07,-1.83811356489804e-07,7.190401347390106e-10,534.8027042193193,534.8028993786486,534.8029610644077,534.8026474487027
2.808,-1.778031913774305e-08,5.99999999698287,1.8494726705739013,-3.410065885342004e-06,1.6144947670517731e-06,-7.138903970476381e-08,1.269339439195407e-08,6.0,1.84606082851475,1.3859841077321774e-23,-5.387073709481415e-08,4.217637018369977e-08,0.17803616635705563,0.0,0.0,0.0,-0.01826411999386851,-1.2051710748884713e-07,3.318224341894203e-07,-2.1771736025494552e-10,535.1220319979235,535.1221000446709,535.1219924440569,535.1221381111586
2.8599999999999994,-2.0056620177320997e-08,6.000000000179565,1.8584044212491875,4.158020202845191e-06,-8.933071728383428e-07,-5.8917517333411306e-08,1.2555447530125247e-08,6.0,1.8554299363987703,1.3016297844914221e-23,-4.2397634031105064e-08,6.695184680581218e-08,0.16759484332326777,0.0,0.0,0.0,-0.007118356112418178,-6.743166796622947e-07,2.7962299821352624e-07,-4.2745090290047706e-10,535.4266033788261,535.4264763477247,535.4263848925252,535.42669191545
2.911999999999999,-2.2549086891006037e-08,6.000000001691615,1.8668110366452817,5.023693519837829e-06,1.2331790930866809e-06,-5.054514797003699e-08,1.2254976168652474e-08,6.0,1.8642567282345002,1.2221581783463048e-23,-5.034822873980495e-08,2.3044465304068387e-08,0.15772335699317575,0.0,0.0,0.0,0.0034957890993529694,-2.0903113261109387e-07,-1.4263453458538975e-07,-3.316799231924345e-10,535.7163864321989,535.7162733107732,535.7163180607797,535.7163394187869
2.9639999999999986,-2.4446441543388366e-08,6.000000001069217,1.8747211854756873,-4.036725460176852e-07,3.9726359258754345e-06,-4.6165194509525045e-08,1.1803493730689443e-08,6.0,1.8725699987400373,1.1473100374034617e-23,-3.51237108121254e-08,-1.9008769909917783e-08,0.14839303004825302,0.0,0.0,0.0,0.013606414819158148,4.2929274630650725e-07,-2.8873883607766635e-07,-1.7698445809552175e-10,535.9922042581321,535.9922494472877,535.9923416754492,535.9921108228118
3.0159999999999982,-2.4628660274285096e-08,6.00000000051689,1.8821623956388356,-3.433616747730508e-06,3.2523044773946515e-06,-4.4258091033393954e-08,1.1214191937860762e-08,6.0,1.880397267716759,1.0768375884223968e-23,2.3066773805306463e-09,-8.542948879863232e-09,0.13958217938800935,0.0,0.0,0.0,0.023196395781159784,3.47484990074378e-07,-2.0513502132235145e-08,-6.222231895318072e-11,536.2537329192328,536.2538379917889,536.2538443717266,536.2537261151091
3.067999999999998,-2.3377784362981722e-08,6.000000001348916,1.8891606860472523,-5.880300881827209e-07,4.5688517421250476e-07,-4.3446837418218676e-08,1.0507765746563213e-08,6.0,1.8877648094167152,1.0105042724075622e-23,2.8021350328702844e-08,2.173160248004226e-08,0.13125886729101824,0.0,0.0,0.0,0.032337950932799384,-1.8259794272401566e-07,2.1578961311415445e-07,-1.7289563755409497e-12,536.5029896653197,536.5030003265358,536.5029310086828,536.5030589713838
3.1199999999999974,-2.1868289809309664e-08,6.000000002446942,1.895740650141379,2.997706447215695e-06,-6.051000358764645e-07,-4.290651409204338e-08,9.710849508659696e-09,6.0,1.8946976846965065,9.480844551123898e-24,2.8307700173110898e-08,2.042469281978204e-08,0.12340031376856124,0.0,0.0,0.0,0.041039863835708776,-3.5667999255100315e-07,1.1376988388274673e-07,1.9093451540822243e-11,536.7401509335035,536.7400729448684,536.7400364829683,536.7401875254425
3.1720000000000006,-2.0589457597145708e-08,6.0000000023145885,1.9019258162270491,2.2755191580909234e-06,7.611574524876851e-07,-4.228444958972312e-08,8.849399455326068e-09,6.0,1.9012197753708817,8.893631177383047e-24,2.3316964821286624e-08,-8.58219547207509e-09,0.11598617035089094,0.0,0.0,0.0,0.049295028332086585,-1.5314184828878894e-08,-1.1817990045388133e-07,1.9604861588456634e-11,536.9649801823149,536.9649373406971,536.9649753343441,536.9649423221423
3.224,-1.901858570836818e-08,6.000000001211581,1.9077386876439226,-2.516158567882925e-07,2.5470816988299873e-06,3.218237447821453e-08,7.945454990852453e-09,6.0,1.9073538202520386,8.34135532456583e-24,3.115091981332894e-08,-2.2590504150249537e-08,0.10899653804590355,0.0,0.0,0.0,0.0570983887760432,-9.417646462446906e-08,-5.051146631967137e-07,-2.8113443498298637e-08,537.177557209836,537.1773649582859,537.1774313348836,537.1772995066016
3.276,-1.621140587249886e-08,5.999999999975176,1.9132005993763708,2.7707128238001294e-06,5.602423598420019e-06,2.9367134414877966e-07,7.019177592461166e-09,6.0,1.9131214524257403,7.822069267945686e-24,6.153407519391626e-08,-2.462925170224174e-08,0.10240681917295875,0.0,0.0,0.0,0.06448951610496526,-5.370921526900644e-07,-6.372029004636069e-07,-2.7548742409397263e-08,537.3788019251482,537.3784253543514,537.3785359847609,537.3785038814233
3.3279999999999994,-1.1184061447843988e-08,5.9999999976845055,1.9183316337510912,1.090356983878111e-06,3.7542955297991636e-07,3.1720365380394975e-07,6.094072261596621e-09,6.0,1.9185432373735498,7.333921404039211e-24,1.0632978202780404e-07,-5.0393077701410575e-08,0.09619473628564075,0.0,0.0,0.0,0.07149509469407407,1.937222645923455e-08,2.9832657179508484e-07,-9.100566101922734e-09,537.5691224707147,537.5692243136717,537.5690977362781,537.569187159144
3.379999999999999,-6.058428970099206e-09,5.999999995005544,1.9231508563918556,-3.7906877446240528e-06,-6.255961978024633e-06,1.983402778628773e-07,5.201727083753222e-09,6.0,1.9236387116024525,6.875152772606427e-24,9.251953390726976e-08,-4.980695360125373e-08,0.09034082826887481,0.0,0.0,0.0,0.0781341025667143,4.593468447500815e-07,6.625701643801127e-07,1.6942750040801512e-09,537.7495312854268,537.7498908114503,537.7496842453894,537.7497493696995
3.4319999999999986,-3.6017480585884005e-09,5.999999993939106,1.9276761979419796,-4.51321233383806e-06,-5.1046199822087064e-06,6.719285896838116e-08,4.370857632556655e-09,6.0,1.9284264214894493,6.444093559295974e-24,3.145050898329176e-08,-9.60940139575459e-09,0.08482415352663825,0.0,0.0,0.0,0.08443900240944618,1.9101330875129636e-07,6.33867353095023e-08,4.780638380288441e-09,537.9210784780906,537.9211599763572,537.9211559149929,537.9211150292131
3.483999999999998,-3.4005949876009097e-09,5.999999994817169,1.9319247074010573,-5.056046402768548e-07,1.0354879911862024e-06,-2.0902904772188902e-08,3.612864384119187e-09,6.0,1.9329239620899683,6.0391596015477566e-24,-2.305615251180796e-09,2.4083299799089153e-08,0.07962987894338838,0.0,0.0,0.0,0.09039918593122105,-2.814341840179427e-07,-4.988149363604612e-07,4.0219896573894935e-09,538.0832367532843,538.0829868720108,538.08316028449,538.0830906664969
3.535999999999998,-2.9035356268147507e-09,5.999999995985202,1.9359126846353003,1.0574868791378688e-06,4.464272588996705e-06,3.9242279034142245e-08,2.925275444214949e-09,6.0,1.9371480156956333,5.658848917062762e-24,1.5549950925182246e-08,1.8568222893291222e-08,0.07474136643814785,0.0,0.0,0.0,0.09602590286103777,1.44776342776038e-07,-6.980142901085755e-07,-2.1929994559738248e-08,538.2361277433363,538.2359506146214,538.2360996202403,538.2358297861787
3.5879999999999974,-5.211591963591081e-10,5.999999996821371,1.939655408651454,-2.591581417595854e-06,3.0823395602280145e-06,1.8818157397228233e-07,2.304588861809762e-09,6.0,1.9411143899594738,5.301738271217288e-24,5.778242276358523e-08,1.7662814691771508e-08,0.07013967870075802,0.0,0.0,0.0,0.10135281875306897,4.879847496689348e-07,-1.286284310303111e-07,-1.6290838943791e-08,538.3806694937306,538.3807845169623,538.3807703785872,538.3805730122284
3.6400000000000006,3.0872530879413733e-09,5.999999998641301,1.9431673917716719,-1.372378152909881e-06,-3.6902286021889756e-06,1.7576353408525105e-07,1.756007280914807e-09,6.0,1.9448380554355629,4.9664797971995424e-24,6.95232741839153e-08,4.2084844840719606e-08,0.06581155435516386,0.0,0.0,0.0,0.10637300057063401,2.5872991058956567e-09,5.795737127159402e-07,-4.256137526507588e-09,538.5169432957214,538.5171295873993,538.5169296770646,538.5171143128746
3.692,5.132850713552486e-09,6.00000000098427,1.9464623218123238,3.0116848711142925e-06,-6.162611273605987e-06,8.66137172899713e-08,1.2906119067508647e-09,6.0,1.9483331824055796,4.651797680347036e-24,2.398752153654115e-08,4.306333023626949e-08,0.061739744879525625,0.0,0.0,0.0,0.11111928377588336,-4.012345979766379e-07,3.728419152487175e-07,1.953170298743209e-09,538.6458904921419,538.6458814086494,538.6457687557173,538.6460164011501
3.7439999999999998,4.539450560689344e-09,6.00000000205067,1.9495531083601148,3.889228004645435e-06,-1.5522716501240872e-06,1.0028079734734567e-09,9.122860245264755e-10,6.0,1.9516131768873832,4.3564849161319984e-24,-2.3433451696202442e-08,9.487967664802097e-09,0.057910818092721604,0.0,0.0,0.0,0.11559830860128006,-1.8129580545120094e-07,-2.9063954482177284e-07,3.326549858158229e-09,538.7675348981651,538.7673839489231,538.7674881964762,538.7674532227151
3.7959999999999994,3.19393621449142e-09,6.000000001441224,1.9524519455085505,5.3434317484497e-07,2.9647609283756774e-06,-5.225673887569759e-08,6.099686823402897e-10,6.0,1.9546907157405122,4.0794001494536525e-24,-2.2493366036392505e-08,-1.8512488229789666e-08,0.05431068055003967,0.0,0.0,0.0,0.11982901850376089,2.3592746163494026e-07,-4.274571696911845e-07,2.5460893965242963e-09,538.8823018825574,538.88224063454,538.882385964551,538.8821738251746
3.847999999999999,3.0308257952020016e-09,6.00000000054006,1.955170284323291,-1.9805090517966343e-06,1.816449558175827e-06,-7.523009943389991e-08,3.675696182219717e-10,6.0,1.9575777808010437,3.819464601322642e-24,5.536787532623211e-09,-1.4066799183336951e-08,0.05092598991631704,0.0,0.0,0.0,0.12382596835688502,2.536038867442929e-07,3.0075814925591624e-08,1.3624927304138956e-09,538.9906723190287,538.9907630168302,538.9907580216593,538.9906865554796
3.8999999999999986,-3.904819109650761e-07,5.999999852388036,1.957718088913874,-0.01848998482156455,0.04936352377706013,-0.00013126198013412203,0.0003595274351624383,6.000139448946232,1.9602856919935125,3.5756590876447165e-24,-5.4401288065997776e-05,-2.0396747099449518e-05,0.04766102668668075,-0.02875305923903341,0.07667112694368453,-0.0001794266762463592,0.1285885918630863,-0.13356297865468492,0.3233303920942419,7.83977668986591e-05,507.7452046814772,568.5145182222207,460.49881428881366,607.8881485438939
3.951999999999998,7.81419412763558e-05,6.000030864159809,1.9600783069910017,-1.0653362407739149,2.458687866682812,-0.023327239275779555,0.004432530933765758,6.002014540894296,1.9628251393810066,3.3470211336054555e-24,0.003076876025482408,0.0011970529499863644,0.04413192270441074,-0.664492119053719,1.4547601744940697,0.0008180208317145658,0.13861529325549413,-0.13013843238893388,0.15610250509626236,0.007466646276737843,522.3227453091798,530.8197422669527,505.2376121752373,594.9103495618212
4.003999999999998,0.0013542885843450484,6.000596142026228,1.9622176995668419,-4.309992994562822,8.492641089964449,-0.24072897680847954,0.01333143259339461,6.006805281507842,1.965206214126203,3.1326421861079563e-24,0.03931067508145198,0.017659929470102614,0.045558867215496804,-1.2503830073613167,2.0974635339501924,0.04345061189543558,0.1708597571236462,0.12752203024284892,-0.38597959754888295,0.0363843608008446,519.537162599094,425.2542246832518,668.4926528751025,519.5223582377762
4.055999999999997,0.006338686965710188,6.003061609501908,1.9638334656713805,-7.345955943145722,12.146267597635713,-0.30161746614652263,0.02620349889437987,6.014633290587041,1.9674384383462322,2.931664925804087e-24,0.12657998613208077,0.06304196734537215,0.06149592330673206,-0.708957468086765,0.40490861512672954,0.13166693985342454,0.2731180061781612,0.20615095835215344,-0.36483358583253045,-0.013150329662059574,588.4380767798607,539.9714937591323,607.6470438500963,415.2642871906342
4.1080000000000005,0.016554048703555504,6.008715691059646,1.9647287187869142,-7.588610570497959,10.01106426861612,0.3052298242573901,0.04236677238743933,6.025285270712613,1.969530793853009,2.743280679472306e-24,0.23007625059994735,0.12647585431988473,0.07200123778155033,0.21929172998575996,-1.2824266838208125,0.047634754047927295,0.3932850660880858,0.03708733556649692,0.13402280497611363,-0.06750399655142902,626.3339327063709,671.7644740059562,397.86572820970395,437.8425086824155
4.16,0.031124453194633424,6.017749793318013,1.9652620040436737,-6.324957480544223,6.600948720388382,0.532207161771727,0.06157937933956848,6.038425603868796,1.9714917497781905,2.5667269328175595e-24,0.3042581851786193,0.18830659673148714,0.06840798749719394,0.44080326398376035,-0.7682485040414475,-0.13053291419282062,0.4277090234027766,-0.08563171367400388,0.3476458877413314,-0.006369016411454358,515.6433174322044,596.8178342424375,461.61811501475825,602.0140565832595
4.212,0.04858701639635699,6.029614094928801,1.965940234571323,-5.596841958215705,6.996688576082069,0.06857845874309952,0.08370715980385891,6.053656348601553,1.973329289088361,2.4012849431890054e-24,0.3522282851105404,0.2400277102465346,0.0807684641455441,0.09936046861297872,0.7241472536573716,-0.11964955930081467,0.4128372313572168,-0.05164325208382561,0.039188501852920846,0.0461839072612465,465.5001242431863,460.8663810723393,606.4068881108665,631.6918440843538
4.263999999999999,0.06902184998830029,6.0439035576339375,1.9668202708341282,-5.8912398098917444,9.917365847863387,-0.3392000966310072,0.1085145707484515,6.070556179616692,1.9750509340015103,2.2462774512192764e-24,0.4109906632085024,0.2852450074823118,0.11822689790785526,-0.13529122929239845,0.9114638367240614,0.02110212043734877,0.3974995852362227,0.057001193730721746,-0.27061512660400766,0.02955310256737819,530.3828019425448,455.7231843818409,639.5239357257199,544.1300490133546
4.315999999999999,0.09359276915536112,6.060640666276475,1.96777970973679,-5.90440441395188,10.646356912000542,-0.1978132201895346,0.1357592490029379,6.088745355362067,1.9766637703204906,2.1010664899731762e-24,0.4945114519313396,0.32972264947876806,0.14733428127521628,0.11335169639595018,-0.29328237007989016,0.08488136267538252,0.40119760269209115,0.0572410803532144,-0.14246487228343224,-0.023594100223441956,597.0227773448541,571.894846544327,538.4326709144789,470.19235128926994
4.3679999999999986,0.12254898299800202,6.079777506089317,1.9687619878454146,-4.969114165400442,8.222139216298507,0.17236558773986346,0.1653217122171881,6.107915367238102,1.978174470702985,1.965051289847012e-24,0.5784381431098451,0.37267605436809925,0.13984471016500558,0.3847501542804197,-0.9982948979116936,0.005588681293725117,0.3887742595260237,-0.006315640036298066,0.16008988534024424,-0.02953423992330328,570.7410108645146,615.4216260943133,464.3254758903886,522.4461786922958
4.419999999999998,0.15480830635233223,6.10088602357308,1.9699661752920397,-3.7467757715453236,6.162115816313043,0.19919453971264242,0.19719754131553469,6.12780815105532,1.979589316890707,1.8376662771730036e-24,0.634976096194992,0.4087062858712153,0.1228426681745457,0.38791738515742874,-0.3346193078909206,-0.06699613706284101,0.3354864866813181,-0.04501747541378501,0.20357997263757818,0.004738715699129259,510.602309600268,561.5723209572852,512.3700406368296,590.0868278773361
4.471999999999998,0.1894074368920026,6.123371728656853,1.9714605343050333,-2.926638819798172,6.873852196164398,-0.01474902439496222,0.23135939688166035,6.14820097992542,1.9809142209231427,1.718379164249804e-24,0.6747446993466121,0.4343691957399557,0.13307167957640864,0.20302956909412884,0.5455211123554752,-0.042530090408139626,0.27906473675328186,-0.025642581556918047,-0.03518333104729618,0.018304425099234994,521.6074677312728,501.10939657064904,574.5897818856287,571.7212492095671
4.523999999999997,0.22654375223635984,6.146806943797257,1.9731114937437833,-2.574007541990803,8.48724412262814,-0.12411299319071088,0.2676981239531605,6.168926272090222,1.9821547453632269,1.6066891283335547e-24,0.7237422540305467,0.45169345061279564,0.1598983216627353,0.0953422491820315,0.38228801012527025,0.008545148410938567,0.242819810322976,0.013146687299816877,-0.17150952717512075,0.006277787970896168,556.6020252886807,505.198845606022,580.7641520958381,523.110902777077
4.5760000000000005,0.26682230692973286,6.170980951442641,1.9747572771185626,-2.1892846108236643,8.22190392364086,-0.05797594431133215,0.3060960301776484,6.189843042700516,1.9833161225639442,1.502125076978307e-24,0.786161955000151,0.46470554904957895,0.16490641036102405,0.16126868847871884,-0.4033577409046149,0.01888986999706471,0.22354810278332274,0.014715323790409091,-0.037089247954871826,-0.006795177086652542,556.5103259382539,549.5384821143325,538.4549892246855,521.612181804532
4.628,0.3100838126942498,6.195697675817568,1.9763552882592914,-1.5415162225227188,6.414844037320994,0.024112562733135924,0.3464703220539626,6.210833818909451,1.9844032730060808,1.4042439970050997e-24,0.8425240433497689,0.47419253605261974,0.14112237607033334,0.23944883722694144,-0.6191226435536727,-0.0012094567795962294,0.20172051564035962,-0.009647527109585913,0.13180658381446697,-0.004678369046509036,529.4236368331335,567.7954308541989,509.76592943684574,555.5300444097031
4.68,0.3555120141497567,6.220658987693743,1.9779367829509635,-0.8436044606080206,5.398384878948146,0.021701982575320432,0.38874817843183757,6.231796970885073,1.9854208227382177,1.3126293843005027e-24,0.8804105499492737,0.4781264803887188,0.1214691798983368,0.2155744474866214,-0.10020110725091622,-0.010424184768330949,0.17558626617585216,-0.025481964319021985,0.10251316749052884,0.0015261912946753328,525.3194787088898,550.0085912276425,522.261977878785,562.9131796460973
4.731999999999999,0.40260415867189114,6.245545357419906,1.979484298162382,-0.374223953864367,5.952499319777271,-0.00553122671803899,0.43284304796761125,6.252654901147018,1.9863731199506143,1.226889751594617e-24,0.9108466203306886,0.4759709252852736,0.12638750943329277,0.11687875548591756,0.3056406174940546,-0.004751109226959665,0.1569013236872113,-0.015229123781386635,-0.048915903205854205,0.001886458251219748,546.8856108422904,526.2852948433277,548.3900052592028,537.7001109427054
4.783999999999999,0.45152135812522515,6.270139090012469,1.9809281999756971,-0.1559090049032814,6.592060793081172,-0.014415614899129287,0.4786539991933394,6.273355465930003,1.9872642507149523,1.146657211340748e-24,0.9470173246822853,0.4699339035183609,0.13740393522969907,0.055319170941012005,0.07827703107065835,-0.0007328829632411039,0.15117575915242187,0.0015393322711154817,-0.07845724279462796,0.0007865092503627303,550.5707091276089,525.9451078599411,553.6550706952042,528.1695018135955
4.8359999999999985,0.5024861946831397,6.294337017551658,1.9822232248500153,0.025062544400884155,6.053306926856577,-0.014278722602575202,0.5261092379762969,6.293854775350425,1.9880980539219766,1.0715861308118744e-24,0.9871145819529469,0.462205459875897,0.1300242957281478,0.07283439863875854,-0.32767346479360476,0.0003489406207246394,0.15141484126568217,0.005971643563333561,0.02155212044850788,0.0005021054186534063,534.4688782735091,543.2707242411847,538.0991535556998,543.0658605831572
4.887999999999998,0.5552431485748274,6.318059644990598,1.9833809651408887,0.3170812414757693,4.989935691655742,-0.012371295778207113,0.5751512195634206,6.314089865414302,1.9888781354489644,1.001351856539153e-24,1.0200474002899387,0.45279021030243205,0.10960190287160713,0.11184948904407374,-0.3093036940705841,0.0026628674019745927,0.1506131777058607,-0.006041085485061916,0.09004786518608579,0.00019722832355679993,525.7921156688237,552.639471403438,524.4962378155424,555.1697708980159
4.939999999999998,0.6093079804805415,6.341185735048275,1.9844278279909735,0.6427421790305629,4.635148235753717,-0.003518411860642488,0.6257107976655031,6.334008623243538,1.989607881588678,9.356495052426453e-25,1.043321871270739,0.44061109495085093,0.0990974385450091,0.09742323475247845,0.018224459380833894,0.0040766499012770486,0.1492909692098954,-0.01677971451739857,0.048187038847341906,-0.0009784937228438785,536.3133412029267,546.3117897368821,527.5146452893457,548.3270645748452
4.991999999999997,0.664485660174014,6.363582892620835,1.985369186085753,0.8270055967947146,5.032446159274261,0.009092499369679166,0.6777157725341003,6.35357776937556,1.9902904717710292,8.741928184419189e-25,1.0646804743844014,0.4259761725391288,0.1042260171254528,0.03544812560265677,0.16071846877849022,0.0007556860816140319,0.1510266626193899,-0.009423139045670851,-0.03607702416497796,-0.0010617560335905904,548.7149370759798,534.2344025327659,542.1797189386082,533.6408478066351
5.0440000000000005,0.7209032173506015,6.385179732019257,1.9861982618392167,0.8560997783336538,5.212264986406289,0.006679661640091223,0.7310575453612749,6.37276613232728,1.9909288906081726,8.167130779821189e-25,1.0893636200762127,0.4105623853162865,0.10863041351537399,0.00039521115208976116,-0.038418919114293786,-0.0027903874293824203,0.1558836859505021,0.002105942387212495,-0.028879367925321434,0.0006859086427886446,542.9627018403645,534.3977944020994,545.9320810007079,536.0622287058625
5.096,0.7786103552700054,6.405972341716886,1.9869229208101413,0.8773654350609156,4.704098500243303,-0.006857071575214841,0.7856650730492027,6.391549333819239,1.9915259392930844,7.629580797677671e-25,1.1139614564062312,0.39534754166433544,0.10009105084613021,0.01694795684833145,-0.2289234005843323,-0.0006363270919869688,0.16045851349868004,0.002790937147406676,0.040278212674812075,0.0013097166165868908,530.816702254571,544.6193212326858,536.2054616845991,548.1207268467315
5.148,0.837374320690428,6.425963710891877,1.9875662498537618,0.9717962321484501,4.123884120113194,-0.009950546259335776,0.8414910517740704,6.409897415222743,1.9920842463810164,7.126911630601922e-25,1.1328645347691373,0.3798744945936367,0.08785091139610764,0.03903420080370966,-0.13512432543181432,0.00368267135843828,0.16304843292729979,-0.0036710109745546524,0.05980657450902031,-2.7662900583682627e-05,531.0696872446126,548.982878959852,529.7817146193414,550.0420805862334
5.199999999999999,0.8969258013055099,6.445128062536955,1.9881473673354102,1.0819568551433076,4.079406004769951,0.0016984464301734936,0.8984629992218623,6.427774046550841,1.9926062779823963,6.656902927640939e-25,1.1471266412952141,0.36360253579036084,0.08545271144248139,0.029901332383488,0.05743521519622412,0.0036550843175902773,0.16479594111892037,-0.008978429348346082,0.018036279671297815,-0.0012661399660844445,540.7981213051988,543.6767485233773,533.609840649792,542.2638782040503
5.251999999999999,0.957217393996235,6.463433546490226,1.9886731315467814,1.1136347204680297,4.344163838985327,0.01096070958974448,0.9565244258994836,6.445161516758207,1.9930943473949676,6.217471922025346e-25,1.161650031338258,0.3469163564592482,0.09082346531735624,-0.003294060064811559,0.08050106991594377,-0.00030699427818345186,0.16712504668022862,-0.004665095868801078,-0.022154786905193333,-0.0006738907411011141,545.5555052335544,537.017043324626,541.8112099616735,536.2196792738332
5.3039999999999985,1.0183385995984986,6.480881251441782,1.9891463998046395,1.0640991761480973,4.33476679338202,0.005209776981420669,1.015564488122013,6.4620499478608435,1.993550624202074,5.8066652395709965e-25,1.1780136980935754,0.33066581133211365,0.0922998014567198,-0.02187660189591304,-0.07171436625289254,-0.00232269370892548,0.16970779146786702,0.00030391152318034803,0.0011176244470306289,0.0007822794967998903,538.6816387191739,539.1361998183695,541.4263451337679,541.6852723963357
5.355999999999998,1.0802693382084607,6.49750732322494,1.9895760201346464,1.0044735936899254,3.9338088840416545,-0.005231494015670669,1.0755238034073553,6.478439307911977,1.9939771428631214,5.422651164297756e-25,1.193052899351095,0.3152094348295797,0.08531917041882899,-0.015354455023539697,-0.1510589416969889,0.00019433896717679995,0.171226460555947,0.0022131268187086657,0.043063717157800205,0.0008019988415940111,531.6285207449176,546.1076836584124,535.0921099580044,548.0901117923523
5.407999999999998,1.1428277236403246,6.513353088153732,1.989973902802189,0.9862059488877654,3.6287692776042433,-0.0046092172489299145,1.1363474343491848,6.4943183286068225,1.9943758108213354,5.063712338646194e-25,1.2040868290111564,0.300317396915696,0.07892804217821106,-0.0007766230544491136,-0.052861387617252974,0.0028316480098025095,0.17153160193864092,-0.0013002562451244991,0.043265088107299045,-0.00034202318826192927,534.1345283611286,547.5060945394592,532.5422054387585,546.7729871381276
5.459999999999997,1.205867348244098,6.528442932489648,1.9903469511966239,0.9873614941070162,3.6831665904196615,0.004018655255910134,1.197975602759777,6.509678810744268,1.9947484161530291,4.72823887649766e-25,1.2129624395460774,0.2857344404025475,0.07985939275301093,-0.0021155263600342415,0.05520168255749754,0.0019305015527322459,0.17150941992639882,-0.004083263610481527,0.00816657458426407,-0.0008700289411401031,541.1027034904299,542.4015613032255,536.8465388008146,540.76439186891
5.5120000000000005,1.2693931214982508,6.542792568731752,1.9906962428763009,0.9537077302883045,3.8250771636551115,0.007523837206420674,1.260328769009188,6.524521481921673,1.9950966347816597,4.414721868031617e-25,1.2226125076525003,0.2715869979859384,0.08365149513398246,-0.01877325144911641,0.02303300532405632,-0.0006319904000236544,0.1717054969376756,-0.003497988819585392,-0.0037691956461800256,-0.0001816289253164903,541.7522809204154,539.4357145391602,540.0240308125111,539.9374798066134
5.564,1.3334513330424842,6.55643168536105,1.9910225358081433,0.8689975168269247,3.7153102453586184,0.0023229804468243285,1.3233361100238992,6.53886136253935,1.9954220372790439,4.1217472562810244e-25,1.2329284315061593,0.2582223517930612,0.08267327329669763,-0.0328458019533211,-0.07605663297426118,-0.0011235271728868496,0.1719179836986546,0.0010613841490703985,0.00892122956210467,0.0005046643450146049,537.8426351984856,541.031625615052,539.8939206566022,542.3968571293734
5.616,1.3979859667117864,6.569410997613133,1.9913289565074552,0.7742477021951255,3.4197562536287665,-0.0024504922532156536,1.3869237453830237,6.552707946733663,1.995726095275197,3.8479900660668473e-25,1.2415244127184983,0.24587309654691344,0.07715353903283803,-0.028344023615408186,-0.09816990384962614,0.0005791458997804501,0.1716301734130441,0.003056977489131735,0.0336059710002076,0.00026424512031312017,533.9550896670013,545.6592036671154,535.842932901487,545.5789545583793
5.667999999999999,1.462862982464026,6.581785281263079,1.9916188568150162,0.7141466371969954,3.267710525379491,-0.00032325350977603135,1.4510591788016918,6.566069372918678,1.9960101874973404,3.592208966804381e-25,1.2474209926703423,0.23443885507963208,0.07380564825970755,-0.015067232482950704,-0.01260965878149194,0.0016631262895040275,0.17111664085377326,0.00018935413263805362,0.027149937353004108,-0.00038417867262670774,536.5491304364057,545.2591023277729,535.2996924022787,543.9096963021835
5.719999999999999,1.5280062594696986,6.59359449467415,1.9918931210604804,0.6756612924176545,3.334062717801621,0.004135145180499533,1.5156648101629697,6.578959405119817,1.9962756054577542,3.353241151471241e-25,1.2524429691395436,0.22367388664368973,0.07529178091730744,-0.014161922693815856,0.03251882331941983,0.000721674149791229,0.17072018425868177,-0.0021237863741095315,-0.0019845932146286965,-0.0004259926834123788,541.6355278287679,540.3268335913818,539.518069379065,539.5625267513851
5.7719999999999985,1.593431792863199,6.604868631899148,1.992151077872368,0.6134809433507876,3.347701389927953,0.003946262331469005,1.5806533993630807,6.591396560789354,1.9965235588092773,3.129997514809578e-25,1.2580597897409023,0.21356029682680022,0.07628944876516926,-0.026051430736205465,-0.02606703541825215,-0.0005615323856496924,0.17056715632357433,-0.002000274241026875,0.008428350180128063,8.119462866950459e-05,539.0934873449488,541.1443727037786,538.7292643724788,542.054847862224
5.823999999999998,1.659136799825416,6.615646439768689,1.992392867458738,0.5163040124823411,3.1730902016101648,0.0006986014050593139,1.646019582515646,6.603406334373623,1.9967551803864023,2.9214581145994298e-25,1.2632039912293456,0.2043035497841915,0.07305920966130691,-0.035434045943030235,-0.06444040565503242,-0.00027047532470089215,0.1704347522795819,0.002287128834953785,0.029757978859130937,0.00017643451062378284,534.8171258516126,545.0447161030097,536.1554104929144,544.9132823731633
5.875999999999998,1.725045519843956,6.625980653738675,1.9926199297332776,0.4196579146193387,3.0630445446502677,0.0005014808738966976,1.7117536130117683,6.615005585229098,1.996971530949093,2.7266679005850907e-25,1.2666614376707241,0.19607425205136228,0.07064689362639696,-0.028291700563060167,-0.012664385538203432,0.0005237418713624354,0.1702139888137051,0.003083677036823804,0.025649458085108136,-0.00014526456127706683,535.8933372469852,545.0546560397044,536.3892315079873,543.5905912836506
5.928000000000001,1.7911046347691406,6.635923181150011,1.9928330792978577,0.35772894434870617,3.099317830137775,0.0023939099850350492,1.7777923295016935,6.626216005970348,1.9971736036456418,2.5447326963604267e-25,1.2694647593203991,0.18875840087683188,0.07142454216198331,-0.016857118304121017,0.02068734097005643,0.000447602879970035,0.17008188721683493,0.0005555257848702383,0.005960724924873845,-0.00024223139518376986,539.614295392611,541.6912601683512,538.9707854321751,540.696232515316
5.98,1.8573221171888115,6.645510969634952,1.9930325178159412,0.3075397600501365,3.124375140194025,0.0028785348306200062,1.8440864464035607,6.637064555263454,1.9973623282101156,2.3748154202212117e-25,1.2726404764159682,0.18209535834430593,0.07225546590186299,-0.018789317146720032,-0.00644041184997418,-0.0001129452352878366,0.17007719609109537,-0.0011020107663033223,0.006649395602023,-7.385494221075862e-05,539.4836772220591,541.2527605148181,538.8810924542947,541.3541938703129
6.032,1.9237039001779508,6.654774832869744,1.9932185346601177,0.2353490194913357,3.030552083625612,0.0016675440674926644,1.9105865004319154,6.647575717845086,1.9975385749091648,2.216132531671658e-25,1.275732083104161,0.17606300513216133,0.07053907009876771,-0.027603142835971834,-0.044954788793587594,-0.0002714059329044519,0.17014636916926543,0.0009583370486589281,0.019802596578641564,4.2247171413156785e-05,536.8526386631236,543.4758836282457,537.3039118489506,543.3140805545214
6.084,1.9902076334745644,6.663753582356031,1.993391986638934,0.1494400301792754,2.909618165053586,0.0009758381153487782,1.9772743591773307,6.657771709521947,1.9977031582522629,2.067950690928738e-25,1.2777522329119966,0.1708276966045307,0.06790158558669845,-0.02767987943695719,-0.03184615908172278,5.368645463111816e-05,0.17020753698047353,0.003199857481836152,0.024091120752067336,-4.6071467434015736e-05,535.9558629927686,544.6600363124909,536.8268761509062,543.4917604437052
6.135999999999999,2.0567785598257777,6.672490980101553,1.9935538250896776,0.08363029865065828,2.875849314703788,0.001523113436041546,2.044114680175433,6.667673155722414,1.9978568404787265,1.929583619399873e-25,1.2788262936074992,0.16640638894568843,0.06700304671879273,-0.017881536025521748,0.0013399571005306525,0.0002664024242064847,0.17028218719402924,0.002193578219989326,0.017728659884543935,-0.00014122845733278378,537.3031070695131,543.6550854208111,537.5261380633154,542.4836711442059
6.187999999999999,2.1233980170016906,6.68102193112032,1.9937046327364414,0.04283897781302187,2.897235498184881,0.002145114495405837,2.1110703722337765,6.677302680956042,1.998000334834198,1.8003891497184607e-25,1.279774583298376,0.1625793024903101,0.06742260193904234,-0.012309772459305984,0.0065497373197171485,0.00011712812613719044,0.17042118821567112,-0.0004704427854586126,0.01578418473392626,-0.0001257971940440475,538.0191903117183,542.9019695159806,537.4408102856459,542.6276819802553
6.239999999999998,2.1900720157646107,6.6893700889439565,1.9938448505117348,-0.0003556727791078817,2.8847287743967622,0.0020216364297070116,2.178116081213516,6.686684638476821,1.9981343086486136,1.6797664545064627e-25,1.2808657693580412,0.15918188059603855,0.06723304211694331,-0.016864964709671613,-0.013002666245457905,-0.00013556500016404926,0.17061715556793944,0.0006477050795635213,0.008832591737137286,-5.741844160872163e-05,538.8419466349039,541.865332916858,538.8543096430291,541.4655094592118
6.291999999999998,2.2567932004162206,6.697559017512638,1.993975086636224,-0.05849785718025278,2.8047319533669417,0.001527646054620995,2.245213361712807,6.695840008855511,1.9982593862270763,1.567153443594522e-25,1.2816677267610874,0.1562785647648573,0.06555347312814128,-0.020595274159615713,-0.031917914756813895,-0.00017441689330790193,0.1708327639741963,0.0017574891915390668,0.0226427210022458,-4.087065281145684e-05,536.4285771906536,544.2106024932932,536.8537280842943,543.5163707935302
6.343999999999998,2.3235269967905525,6.705617844479275,1.9940961098235677,-0.11562066092955807,2.735343337686539,0.0013604497138676977,2.3123562335955867,6.70478999873528,1.9983761515644256,1.462024319967938e-25,1.281687043245563,0.1539540074716605,0.06387534758611418,-0.017099836416642405,-0.01441179811125704,-2.256288100890594e-05,0.17104236217248825,0.0025778607617032,0.022693417950633538,-7.436239611947864e-05,536.3514330581771,544.410356241447,536.9259450970335,543.3436492753623
6.395999999999997,2.3902424153726263,6.713574744729489,1.994208648056342,-0.15329453176993885,2.7308147402696634,0.001519511893808333,2.3795216489362265,6.713553277015411,1.9984851508937587,1.3638872852216487e-25,1.281244828723921,0.15213035726960294,0.06358135924928963,-0.009924586787596845,0.005731221222173176,7.940911225917508e-05,0.17125462167465957,0.001408931584288667,0.017468242473695817,-9.514775237679536e-05,537.4187644128358,543.4381002605808,537.5469093526922,542.6707476332017
6.448,2.4569361487911037,6.721449348084641,1.9943133070267625,-0.1778767951827955,2.752365998937684,0.0016190313738098808,2.446696303824738,6.722149246910224,1.9985868950785755,1.2722823857996101e-25,1.2808840692495065,0.1506289472068981,0.06397665653646026,-0.007979769370776513,0.004124073716309634,1.896258809722385e-05,0.1714749622017498,0.00014858020516015096,0.015462696695754499,-8.493448471796098e-05,537.930758644133,542.9087826062894,537.6896951673793,542.575558550357
6.5,2.523616220128966,6.729255042052128,1.9944106386347564,-0.20566403138331948,2.7275522047386738,0.0015443841904095464,2.5138513333630117,6.73059507671809,1.9986818618577324,1.18677949176414e-25,1.2806517257388612,0.14937704230473398,0.06345937072809957,-0.010527251823226719,-0.016518982033670478,-9.929060338002087e-05,0.1716985069404691,0.001727521745666088,0.008517081281187014,-7.184485942619003e-05,538.7735400846233,542.0403509912483,539.0822492524148,541.2482805712606
6.552,2.590271958580957,6.737005893962089,1.9945012135068396,-0.23895393292136458,2.652858502361759,0.0014469693307251092,2.5809602681801294,6.738906469064554,1.998770497951863,1.1069764002892414e-25,1.280060202554796,0.14841825744534848,0.0617696514456091,-0.011070093226170086,-0.026764476252341306,-0.00013576381025969938,0.17191526126362539,0.0021869586379500506,0.019005178020415178,-7.352364279817963e-05,537.0286722149954,543.7864377345414,537.4799968050897,542.8454349644369
6.603999999999999,2.65687208713827,6.744717862752074,1.9945855699941029,-0.266554257000572,2.5994330652690443,0.0013727737913107163,2.648017626903882,6.747098500693554,1.9988532210394638,1.0324970564997833e-25,1.278810056931585,0.14776676468025046,0.06037157809167474,-0.007580350913009755,-0.00988602647099844,-7.252019266358294e-05,0.17212417037450428,0.0019943715943182058,0.020858785298642442,-7.12168048959932e-05,536.7638692321799,544.0513018032876,537.1614854201049,543.1796240834984
6.655999999999999,2.723393939437502,6.752404233632744,1.9946642169519069,-0.28286392002104127,2.6124235009839145,0.0012355374153866778,2.715025872279784,6.755186726611307,1.9989304216103914,9.62989884685461e-26,1.2772577012409492,0.14733692183054223,0.06039824642309559,-0.0045274156012520715,0.012784970318516182,3.199477129485732e-06,0.17231911114564913,0.00179760102317543,0.010178847831958668,-5.819330086676712e-05,538.490187444545,542.3093022475448,538.8677814046235,541.5414042420568
