Time_s,X,Y,Z,Roll_deg,Pitch_deg,Yaw_deg,Ref_X,Ref_Y,Ref_Z,Ref_Yaw,vx,vy,vz,p,q,r,T_pert,tau_x,tau_y,tau_z,RPM_0,RPM_1,RPM_2,RPM_3
0.0519999999999996,1.0737361582657057e-20,2.0,0.010258985250487974,-1.217219675708528e-16,5.160926101725044e-17,1.456450911157219e-18,8.720967674475908e-21,2.0,0.01641940216669123,2.059656765840362e-20,5.813762655282551e-20,-2.105778376819564e-21,0.000999948884987563,0.0,0.0,0.0,1.9187679945995204,9.038575822875908e-18,-4.72921063156365e-18,4.2180693826194216e-20,585.6649206133591,585.6649206133592,585.6649206133591,585.6649206133591
0.1039999999999992,9.346984245718266e-21,2.0,0.010426992507793172,1.6258424386023286e-16,3.015232207538362e-16,-1.6254944208659076e-17,8.648245227687371e-21,2.0,0.03296009350521008,2.042481690189657e-20,-1.093404647309476e-19,1.1038341444073411e-20,0.011465226714973097,0.0,0.0,0.0,3.7918941407163924,-1.5619981371995348e-16,-1.2933898470518358e-16,1.0806960780625868e-17,630.6998235042373,630.6998235042373,630.6998235042373,630.6998235042374
0.1559999999999988,2.717221226837709e-19,2.0,0.015209196634991795,2.1512323155107606e-15,2.076361221088341e-16,-2.0548809170819527e-16,8.537121003221997e-21,2.0,0.0582352537656834,2.016237152964879e-20,9.077618671476574e-18,5.529116388975528e-18,0.16223589150237572,0.0,0.0,0.0,4.4243125616630214,-3.528077036336575e-16,1.7093269999307477e-16,3.0112968019119403e-17,645.1954011925268,645.1954011925269,645.1954011925268,645.195401192527
0.2079999999999984,7.047880926840657e-19,2.0,0.030052712321245744,4.393859350004701e-15,-8.89803157432289e-16,-5.07942664867077e-16,8.393801932833283e-21,2.0,0.09083311881162166,1.9823890636222242e-20,1.0519351450858572e-17,2.7327847252398577e-17,0.3713205965367859,0.0,0.0,0.0,4.346559011811321,-4.7584365035884e-16,1.0335492221318846e-16,5.0128722365669816e-17,643.4308295855591,643.4308295855591,643.4308295855591,643.4308295855592
0.259999999999998,8.104426218839376e-19,2.0,0.055931433440917104,3.1481542340172356e-15,4.771785479347187e-15,-5.425221926546671e-16,8.223775686178874e-21,2.0,0.12950552038159685,1.9422334613583685e-20,-3.204673589682047e-17,3.588842570903573e-17,0.5816426798109217,0.0,0.0,0.0,3.934558731001724,1.7322517342136492e-16,-1.3980199160079637e-15,4.333200599727002e-18,633.998769350972,633.9987693509718,633.9987693509721,633.9987693509717
0.3119999999999976,4.033209810827629e-18,2.0,0.09220372545832142,3.3441303319790075e-16,1.3559097551439563e-14,-5.159436503537931e-16,8.031884071952039e-21,2.0,0.1731511910313429,1.896913850473092e-20,-6.234429481956723e-17,4.310534374612594e-18,0.772648788598168,0.0,0.0,0.0,3.351292441869708,-5.3589646653987664e-17,-2.307279573356741e-15,4.2298627689670036e-17,620.4007066046197,620.4007066046191,620.4007066046197,620.4007066046191
0.3639999999999972,1.4808996994566614e-17,2.0,0.13754257940511813,3.0548441415289515e-15,5.567553465343867e-15,-8.513720578649228e-16,7.82238943439681e-21,2.0,0.2208006622730358,1.8474368814309114e-20,1.4697262836344952e-16,4.368860613098346e-17,0.9348357834730425,0.0,0.0,0.0,2.6998992248245863,-5.848202832991503e-16,-4.0321295834817857e-16,7.332133657856644e-17,604.853112452778,604.8531124527779,604.8531124527781,604.8531124527782
0.4159999999999968,2.87867736269422e-17,2.0,0.1903075098499061,7.221710477650638e-15,-8.480211279705003e-15,-1.2511784944328035e-15,7.59903468668802e-21,2.0,0.27160261000709124,1.7946865291222577e-20,3.9108204667898346e-16,1.3144537629072937e-16,1.0643799424954192,0.0,0.0,0.0,2.0505715089682526,-6.335552369381953e-16,7.011554021900871e-16,6.768896197057184e-17,588.9464689900598,588.9464689900599,588.9464689900598,588.9464689900602
0.46799999999999997,-1.6576877476353897e-08,2.0000000165752283,0.24879052025886061,-0.00031839706077236316,-0.00031844309639122645,-2.211399479833411e-05,7.365097565510623e-21,2.0,0.32481151433987177,1.7394369063281683e-20,4.860462867509188e-06,-4.85973181078687e-06,1.1611398957789425,0.0,0.0,0.0,1.4497391811490354,6.429144624265547e-05,6.430039790045349e-05,2.6883913850377746e-06,573.8116020374603,573.850219103115,573.8394731136443,573.8394758018521
0.5199999999999996,-1.8478423472370664e-07,2.000000184765176,0.311338699744752,-0.0002256827694968256,-0.00022554817651167583,-3.0560322299879736e-05,7.123439639017852e-21,2.0,0.3797765127432732,1.682363838074915e-20,9.294113282412989e-07,-9.319407937783014e-07,1.2272225807187236,0.0,0.0,0.0,0.9247026391597479,1.0003273508063405e-05,9.961808114624055e-06,1.1944988435364544e-06,560.2916282563993,560.297768765247,560.2986017743491,560.2985890212409
0.5719999999999992,-4.543715738475883e-07,2.000000454404805,0.3764753478909967,0.00036388041159525123,0.00036416937391908966,-2.300759397594253e-05,6.876550552754859e-21,2.0,0.4359313363371467,1.6240553113248398e-20,-1.1679778082750883e-05,1.1675210813991722e-05,1.2665156175510999,0.0,0.0,0.0,0.48539438445899674,-5.440954113104537e-05,-5.4430284399944925e-05,5.069025784409482e-08,548.729069306606,548.6948876442033,548.7121508597512,548.7121443452314
0.6239999999999988,-5.561744335783794e-07,2.000000556370734,0.4429371774229237,0.0005429524381658245,0.0005424084339191381,-1.167285128751665e-05,6.6265879547115684e-21,2.0,0.4927852289520478,1.5650209041943444e-20,-1.2251461029762166e-05,1.2264169046109127e-05,1.2832151388901347,0.0,0.0,0.0,0.13369629345259493,-3.170030914108122e-05,-3.15652500466099e-05,-3.6442182064923923e-07,539.2691522389507,539.2489350998859,539.2577869294448,539.2578300890215
0.6759999999999984,-4.1219930927762535e-07,2.0000004123046113,0.5096830750281592,8.90299420724286e-05,8.778282565951883e-05,-3.1290682771401063e-06,6.3754135010538405e-21,2.0,0.5499147576401351,1.505700289534058e-20,8.727560680880175e-07,-8.507658337825231e-07,1.2816781153182222,0.0,0.0,0.0,-0.13572002547134665,3.0286328329477377e-05,3.0432157048683306e-05,-3.641963793960751e-07,531.8936677765453,531.9133392940306,531.9022284412239,531.9022756867856
0.727999999999998,-2.2159564178325075e-07,2.0000002210856134,0.5758991993323925,-0.00030443102723677693,-0.00030446251751963405,1.4168366425800048e-06,6.124625307948553e-21,2.0,0.606956431520576,1.446470899172486e-20,9.331386524525576e-06,-9.341419118401732e-06,1.2661684742518666,0.0,0.0,0.0,-0.3336531228640143,3.847300638786213e-05,3.838097117853392e-05,-2.3077916046968525e-07,526.4212861976533,526.4464439776277,526.4330789884525,526.4330488611236
0.7799999999999976,-1.5614469292905892e-07,2.0000001550208313,0.6409774237142721,-0.00016116734786394556,-0.00015930315872520034,3.0253265278797236e-06,5.8755871819438864e-21,2.0,0.6636000533412831,1.3876548273414958e-20,4.338409400774896e-06,-4.383801852977419e-06,1.2404061929427799,0.0,0.0,0.0,-0.47222504108721564,-6.141613776171775e-06,-6.378865665543099e-06,-1.0379652787893013e-07,522.5725370129824,522.5684081936705,522.5701486587326,522.5700704212445
0.8319999999999972,-1.6109776174784056e-07,2.000000160135669,0.7044795637688945,0.00018081887206172268,0.00018236484015632013,3.1134581350380244e-06,5.629454931315972e-21,2.0,0.7195827349736766,1.3295250447049875e-20,-3.273294469303862e-06,3.2480362753651403e-06,1.20738667943322,0.0,0.0,0.0,-0.5626192965880351,-3.1901150239537626e-05,-3.194547187265614e-05,-2.6363312433492873e-08,520.0453958819987,520.0242388234241,520.0347321385883,520.0347174515849
0.8839999999999968,-9.663114717750883e-08,2.0000000964703215,0.7661081234986236,0.000202915445631012,0.00020212933691480706,2.6797689573483598e-06,5.3872000333955e-21,2.0,0.7746835142887448,1.2723109879415153e-20,-2.3305851494300102e-06,2.3586149976359835e-06,1.1696104678091965,0.0,0.0,0.0,-0.6159734541084858,-9.107539864621397e-06,-8.901040546191755e-06,7.704030058587446e-09,518.5353702616994,518.5293854101219,518.5323706888331,518.5324393154366
0.9359999999999999,4.894672272597874e-08,1.9999999514240885,0.8256770076307559,-6.164678165956609e-05,-6.873081592901233e-05,1.9626275289424533e-06,5.149630907912678e-21,2.0,0.8287185165432708,1.2162035839331776e-20,3.824099155370212e-06,-3.7186093661047227e-06,1.1289854295905013,0.0,0.0,0.0,-0.6417909581275134,1.94854332800773e-05,2.214033750509548e-05,1.0618407055066912e-07,517.7967270108306,517.8105801106192,517.8035866674405,517.8044702216868
0.9879999999999995,1.6721910880941614e-07,1.9999998297434343,0.8830845767090043,-0.00019769082993973332,-0.00022660086946548516,8.808212652392053e-07,4.917412023635752e-21,2.0,0.8815366085825683,1.1613597622370249e-20,5.852878818440886e-06,-5.4579740331850236e-06,1.086947007558386,0.0,0.0,0.0,-0.648112407984575,1.4672519524904983e-05,1.8497736338730697e-05,9.3921379189089e-08,517.6196109124486,517.6306538153011,517.6248273195915,517.6261007939588
1.0399999999999991,1.9314106658869205e-07,1.9999997893360055,0.9382902261256013,-7.586620144211033e-05,-7.907500862777623e-05,6.789791555515998e-07,4.6910810448341934e-21,2.0,0.9330154988843111,1.1079065046160562e-20,1.7243330515086264e-06,-1.941037555389897e-06,1.0445088145920842,0.0,0.0,0.0,-0.6412541758023824,-7.659745444970023e-06,-9.076169708113162e-06,3.2382107158420204e-08,517.8217266721283,517.8161571066112,517.8192918914377,517.8188205179921
1.0919999999999987,1.8321927966615785e-07,1.9999997836391146,0.9912959311789644,7.500100880136543e-05,0.00010959056746843769,9.820657344959288e-07,4.4710642051981554e-21,2.0,0.9830582407667221,1.0559444759433137e-20,-1.7701333912619232e-06,9.78356318930278e-07,1.0023656868706747,0.0,0.0,0.0,-0.6260801939420391,-1.4340560815333156e-05,-1.808934215870112e-05,-3.6058134475410967e-09,518.2527069408208,518.2419234748287,518.2479257827551,518.2466792524418
1.1439999999999984,2.1410248820165183e-07,1.9999997511188379,1.0421316280503967,5.033192217564606e-05,8.055157134752781e-05,1.350229205942919e-06,4.257690079627964e-21,2.0,1.031590100000579,1.0055512767261949e-20,-5.292591485723956e-07,8.503063665268152e-08,0.9609599843210452,0.0,0.0,0.0,-0.6061227300907102,-5.111007185583628e-07,-1.1043236995270445e-06,-1.4463422563226568e-08,518.8103955036684,518.8098589316971,518.8101747809317,518.8099777386857
1.195999999999998,2.769702703970854e-07,1.9999996992055185,1.090844262040886,-7.309676650621921e-05,-7.713336179221237e-05,1.5945730458855684e-06,4.051201908626447e-21,2.0,1.078555751631126,9.56784353794694e-21,2.199304757945278e-06,-1.9350176920960547e-06,0.9205473233746057,0.0,0.0,0.0,-0.5837783649436614,1.0805858454521928e-05,1.3447872172189806e-05,-1.2774457702730379e-08,519.4354801269268,519.4435263739202,519.4390200650485,519.4398965610028
1.2479999999999976,3.093174410945186e-07,1.9999996766848052,1.1374900625138935,-0.00010591342119738528,-0.0001250073001377208,1.6966432329279639e-06,3.851768615747072e-21,2.0,1.123916774063915,9.09683602324759e-21,2.1482086981183005e-06,-1.7242198049391135e-06,0.8812638096065994,0.0,0.0,0.0,-0.5606546332518061,5.296578404099878e-06,6.959850221092833e-06,-7.584951461605051e-09,520.0879933133186,520.0920543340047,520.0897216172024,520.0902727224067
1.2999999999999972,2.903570510717856e-07,1.9999996978470127,1.1821293455377022,-2.1558796543882363e-05,-2.3635377020796463e-05,1.7022768756640358e-06,3.6594946455500545e-21,2.0,1.1676494114256404,8.642736892975242e-21,-1.1110466748705192e-07,1.7449436601206403e-07,0.8431481469689046,0.0,0.0,0.0,-0.5375697379593477,-5.922329875704864e-06,-7.1871586641770514e-06,-3.191862345465514e-09,520.7408117452549,520.7364734837604,520.7388406969036,520.7384221330419
1.3520000000000003,2.598480550681172e-07,1.9999997294115979,1.2248229160699098,4.670849039178409e-05,6.182476075564873e-05,1.6618945489736799e-06,3.4744287376844796e-21,2.0,1.2097425779026758,8.205661257002745e-21,-1.276352077083885e-06,1.1284479600355972e-06,0.806204771477584,0.0,0.0,0.0,-0.5150191189408648,-6.779792913238169e-06,-8.599517200684773e-06,-6.852309521769301e-10,521.3740154026847,521.3689321772176,521.3717721246386,521.3711706627515
1.404,2.5316546259055766e-07,1.9999997429897942,1.2656312786779698,1.6912184973974973e-05,2.4965125281657382e-05,1.6085036571126608e-06,3.2965717419447636e-21,2.0,1.250196080209623,7.785611122314727e-21,-3.719559608143032e-07,4.2372743116494606e-07,0.7704131404735024,0.0,0.0,0.0,-0.49318345867775615,1.4951021312195502e-06,1.691242003550618e-06,3.140887516151906e-10,521.9829867220316,521.9840386492151,521.983481409341,521.9835461621907
1.4559999999999995,2.570148308167849e-07,1.9999997492809911,1.304613213584859,-4.441696106696889e-05,-5.3777883521528695e-05,1.5576782431024667e-06,3.1258835693503193e-21,2.0,1.2890190365690286,7.382491809578366e-21,6.131068387777909e-07,-3.242316203304618e-07,0.7357374818456882,0.0,0.0,0.0,-0.47202296211620204,5.847225357044585e-06,7.356259877563551e-06,4.582040263360133e-10,522.573767711544,522.5781217168543,522.5756975104146,522.5761951323816
1.5079999999999991,2.398474063308127e-07,1.9999997728278431,1.3418257792237982,-4.474199768456885e-05,-5.704049239072833e-05,1.5135182975578531e-06,2.962289365383765e-21,2.0,1.3262284726108315,6.996126532662888e-21,1.7947017107544688e-07,5.256340159010181e-08,0.7021458984428802,0.0,0.0,0.0,-0.4514267568783186,1.4426549691694962e-06,1.9792231014378753e-06,3.005342807701821e-10,523.1513708945453,523.1524980569103,523.1518471536505,523.1520238985231
1.5599999999999987,1.9947645788084454e-07,1.999999814423141,1.377324358596828,5.754714954625375e-06,5.068437458012115e-06,1.4751516425761793e-06,2.8056849834155997e-21,2.0,1.3618480764441183,6.626269325388736e-21,-8.431166735129696e-07,8.663487661393187e-07,0.6696083184427684,0.0,0.0,0.0,-0.4312174614481208,-3.820018832482083e-06,-4.710905977772606e-06,9.388495717843757e-11,523.7178918540718,523.7150848072831,523.7166352306036,523.7163420898299
1.6119999999999983,1.60701544311614e-07,1.9999998538590036,1.4111628882598763,3.2243936179035006e-05,3.882384408705892e-05,1.4404997290248824e-06,2.6559418289723386e-21,2.0,1.3959070968302774,6.272616482379116e-21,-1.0560213219663016e-06,1.0142301823801511e-06,0.6380981037567997,0.0,0.0,0.0,-0.41118865522659553,-2.8674093195655083e-06,-3.6633940815975262e-06,-4.4315246978139075e-11,524.276473549348,524.2743269207326,524.2755308988817,524.2752692643533
1.663999999999998,1.3788701705210013e-07,1.999999879832895,1.4433946308107626,8.68953661295666e-06,9.64390025784917e-06,1.4077433084222483e-06,2.5129111388044115e-21,2.0,1.428439369910725,5.934816665061374e-21,-4.8565243492669e-07,5.427631622407125e-07,0.6076110262208907,0.0,0.0,0.0,-0.39128483094138755,1.5888137647507968e-06,1.9273238602065065e-06,-1.089200234951927e-10,524.829657440861,524.8308119484816,524.8301787415209,524.8302898897542
1.7159999999999975,1.199313142411471e-07,1.9999999013210492,1.4740725675117021,-1.9592631034307603e-05,-2.6577141003279863e-05,1.375946382781148e-06,2.37642775262067e-21,2.0,1.4594824613274044,5.6124798094841175e-21,-1.4493504968055965e-07,2.634370429636417e-07,0.5781394514079973,0.0,0.0,0.0,-0.3714101576999439,2.8604062902714583e-06,3.627637898104409e-06,-1.2841734654861272e-10,525.3826077797224,525.3847358551269,525.3835455459033,525.3837971975056
1.7679999999999971,9.205227018319561e-08,1.9999999298854727,1.5032492562717916,-1.2226083543601515e-05,-1.822891939870124e-05,1.3446970590043957e-06,2.246313429823745e-21,2.0,1.489076911832659,5.305184959549326e-21,-4.2903001299571456e-07,4.775950503098173e-07,0.5496764717139246,0.0,0.0,0.0,-0.3514872548277055,1.3250696035984315e-08,9.743298336653171e-08,-1.224000188575184e-10,525.9378492883845,525.937885554324,525.9378532046281,525.9378807872831
1.8199999999999967,5.715258840101918e-08,1.9999999629338854,1.5309768673083524,1.4894058255056723e-05,1.5778794578516807e-05,1.3139472628183712e-06,2.334015943266771e-10,1.9999999997680347,1.5172655756280857,5.0124871373904055e-21,-7.792898138912537e-07,7.340274139071841e-07,0.5222161937451675,0.0,0.0,0.0,-0.3314607715376128,-2.337086970064411e-06,-2.8736767696952332e-06,-1.1309418766681706e-10,526.4952091654574,526.4935036429829,526.494443827217,526.4942681973076
1.8719999999999999,2.8922118867385075e-08,1.99999998955846,1.5573087187448882,2.2393892899553006e-05,2.596486036326884e-05,1.2837508420685833e-06,7.918277207295416e-10,1.9999999994915194,1.5440930417098846,4.733923351849821e-21,-6.769893218093416e-07,6.266006575685961e-07,0.49579187998235996,0.0,0.0,0.0,-0.31163090157226014,-1.091338298623301e-06,-1.4111099700156732e-06,-1.0256411377755727e-10,527.0452121173207,527.0443939024702,527.0448549315314,527.0447503771503
1.9239999999999995,1.185918233217075e-08,2.0000000064438477,1.5822977430429948,5.005779562344065e-06,4.836158153894929e-06,1.2541653662902711e-06,1.456823210370375e-09,1.9999999992580457,1.5696051294404123,4.469017836226756e-21,-3.2998975287752805e-07,3.3081144714416225e-07,0.47037427675863797,0.0,0.0,0.0,-0.2918312076953824,1.3167165312197824e-06,1.593215039843531e-06,-9.645535556190915e-11,527.5933637733266,527.5943142311409,527.5937935125394,527.5938838239992
1.975999999999999,-2.3841747559782075e-09,2.0000000204870796,1.6059962913635666,-8.16073354783041e-06,-1.184789120285764e-05,1.225247210177409e-06,2.098196272819601e-09,1.9999999990626847,1.5938484504207486,4.217286597586232e-21,-2.1018638702431766e-07,2.246006579409555e-07,0.445964358338343,0.0,0.0,0.0,-0.2721614404874607,1.4196402762654306e-06,1.790580800799262e-06,-9.325991128167372e-11,528.1381833122683,528.1392307705349,528.1386462020691,528.1387672357018
2.0279999999999987,-2.0796082425375188e-08,2.0000000372278954,1.6284566131227114,-1.7839451494185134e-07,-2.3364707461014495e-06,1.196995146205877e-06,2.6361289822541603e-09,1.9999999989010062,1.6168700295147576,3.978241351866961e-21,-3.538334258415478e-07,3.2832758967744363e-07,0.4225573371440806,0.0,0.0,0.0,-0.2527111484594609,-4.1503950193298994e-07,-4.6993718046200896e-07,-9.085871473464873e-11,528.6770874878217,528.6767990240736,528.6769518889486,528.676933994703
2.0799999999999983,-3.982646953721489e-08,2.0000000536883396,1.649730774818293,1.3605470900594385e-05,1.4944979979458094e-05,1.1694048050999911e-06,2.9846598806362907e-09,1.9999999987690336,1.6387169785787328,3.751392911719196e-21,-4.2946398744290537e-07,3.728179425283163e-07,0.40014747292548386,0.0,0.0,0.0,-0.2335897626494614,-1.2957058100901299e-06,-1.6112577922809203e-06,-8.940673294556216e-11,529.206017532774,529.2050709360585,529.205595302526,529.2054925490997
2.131999999999998,-5.246187670047009e-08,2.0000000642818754,1.6698697433626943,1.3377618210118638e-05,1.5086587434848302e-05,1.1424539758101121e-06,3.062255752227226e-09,1.999999998663199,1.6594362170885255,3.536254087381185e-21,-2.845532820597755e-07,2.406684844094473e-07,0.37870726733726284,0.0,0.0,0.0,-0.21475150894058226,-2.6775942304994544e-07,-3.6491421260488956e-07,-8.72263895077425e-11,529.7259052564948,529.7256994408452,529.7258178504514,529.7257862449364
2.1839999999999975,-5.84733790001197e-08,2.0000000689752984,1.68892373198649,2.246003111557966e-06,1.3661278209356384e-06,1.116127645663543e-06,2.8284959754847715e-09,1.9999999985803054,1.6790742344341572,3.332342154900087e-21,-1.0487540407238045e-07,8.479518574921984e-08,0.358228462174828,0.0,0.0,0.0,-0.19633354895206143,8.814593221993733e-07,1.0882334572661686e-06,-8.581378915177701e-11,530.233639578559,530.2342797270678,530.2339257563707,530.233992957792
2.235999999999997,-6.34367602156659e-08,2.0000000723092928,1.7069418523492605,-3.0587236630748866e-06,-5.4091310219821646e-06,1.0904128721724937e-06,2.288515828710934e-09,1.9999999985174897,1.6976768891756457,3.1391809405650063e-21,-7.815771477835517e-08,5.3580529863959584e-08,0.33868654013783484,0.0,0.0,0.0,-0.1783650526712019,6.058941476292045e-07,7.789112754724165e-07,-8.420028051812586e-11,530.7290224115786,530.7294720521791,530.7292188529578,530.7292750309047
2.2880000000000003,-7.030670762989428e-08,2.0000000766170123,1.7239727970226906,2.694328462850001e-06,1.7309120129448451e-06,1.0652904578363436e-06,1.460303301679912e-09,1.999999998472192,1.7152892410280909,2.9563025654948245e-21,-1.439173616721776e-07,9.518126231845455e-08,0.3200738121132921,0.0,0.0,0.0,-0.16100834529407435,-4.1034879556795363e-07,-4.934320781181256e-07,-8.24561735099348e-11,531.2073794423151,531.2070862524517,531.2072460399338,531.207219087409
2.34,-7.63381279117079e-08,2.000000079697286,1.740063343492454,8.824551792978133e-06,9.659323874488384e-06,1.0407466072108172e-06,3.5489891066045863e-10,1.9999999984421237,1.7319554117734242,2.7832488898651467e-21,-1.3867676373079917e-07,7.932643193767318e-08,0.302343476239226,0.0,0.0,0.0,-0.1441367309410683,-6.575233765067837e-07,-8.302249117043461e-07,-8.064614343844536e-11,531.6716887382291,531.6712065285697,531.6714753442424,531.6714193681414
2.3919999999999995,-7.827987012981163e-08,2.000000079046159,1.755258898088816,6.530930628284279e-06,7.119596567981123e-06,1.0167660557341338e-06,-1.0177657828547902e-09,1.9999999984252432,1.7477184716847989,2.619572692224006e-21,-4.232188627621938e-08,-7.23003295768708e-09,0.2854788351996705,0.0,0.0,0.0,-0.12785527119519358,1.9471611646452815e-08,7.3412928932162935e-09,-7.873107893924224e-11,532.1190362673764,532.1190449506772,532.1190423027657,532.1190383743883
2.443999999999999,-7.709716761790106e-08,2.0000000755557883,1.7696031394681273,6.918456940370822e-08,-8.277564029171072e-07,9.933379240051e-07,-2.6261225393510294e-09,1.9999999984197299,1.7626203484009846,2.464838615697259e-21,3.187294675592653e-08,-7.324613224934715e-08,0.26943686967946295,0.0,0.0,0.0,-0.11206122570698447,5.25259729145752e-07,6.56709057335595e-07,-7.710506519247231e-11,532.5526834027722,532.5530658689707,532.5528531038066,532.5528956387072
2.4959999999999987,-7.606183345905193e-08,2.000000071897045,1.7831381616666802,2.39701109835232e-06,1.0768001527765792e-06,1.2946326239167937e-06,-4.424128919295083e-09,1.999999998423965,1.77670175550591,2.3186239095850267e-21,1.0556326885245679e-08,-5.940834423406558e-08,0.2541994005149887,0.0,0.0,0.0,-0.09685273365357651,-1.0296737135798706e-06,-9.60779437043376e-07,-6.717588454104809e-08,532.9707276724452,532.9700840982091,532.9701643597676,532.9701866353989
2.5479999999999983,-7.439198862786151e-08,2.0000000671018565,1.7959052217154727,1.0943329426738684e-05,1.0685335976846692e-05,1.7174295464486444e-06,-6.367480756202882e-09,1.9999999984365082,1.7900021383555824,2.180518991869469e-21,1.7128457362266184e-08,-7.800578309180865e-08,0.2397436767366512,0.0,0.0,0.0,-0.08229160896036854,-1.4790113000864178e-06,-1.5519059216770293e-06,-8.038057550724959e-08,533.3702603204306,533.3692810661876,533.3695070007163,533.3694834492965
2.599999999999998,-6.811100477941844e-08,2.0000000576220005,1.8079437222702526,1.0224069725552954e-05,1.0862520437526298e-05,2.1418472188523103e-06,-8.41529938600846e-09,1.9999999984560812,1.8025596349539623,2.050127855461287e-21,1.1961882927307624e-07,-1.81665036083508e-07,0.2260293564256842,0.0,0.0,0.0,-0.06830271777994533,-8.856667008560307e-07,-9.72089750617918e-07,-6.647069778086972e-08,533.7534139028172,533.7528141143085,533.752900324752,533.7528724225077
2.6519999999999975,-5.754999628542415e-08,2.0000000441695063,1.8192914104029372,-6.264749918144858e-06,-5.943058196417493e-06,1.974046944573602e-06,-1.050991301599417e-08,1.999999998481553,1.8144110499134813,1.9270683385814673e-21,2.2499253760051475e-07,-2.795574176148482e-07,0.21303217073385747,0.0,0.0,0.0,-0.05493157117865757,1.2335417382059331e-06,1.2540757147383944e-06,-1.586751214299753e-08,534.1188067082604,534.11960930092,534.1191503897496,534.1191570147316
2.703999999999997,-4.955564832425075e-08,2.000000033477927,1.8299845994897828,-1.7396073012163715e-05,-1.776504249298271e-05,1.5153984770774946e-06,-1.2577879530428122e-08,1.9999999985119223,1.8255918397471154,1.8109722774814686e-21,1.6060064623753947e-07,-2.1138014633915668e-07,0.2007194336680787,0.0,0.0,0.0,-0.042149535345743755,1.319923640830892e-06,1.3942539950491891e-06,1.0158971391771676e-08,534.4685387224038,534.4694138382563,534.4689990412922,534.4690230071765
2.7559999999999967,-4.907429574439359e-08,2.0000000302123038,1.840057868950319,-8.795170015278304e-06,-9.052080096170392e-06,1.0967705826360235e-06,-1.4564417679164228e-08,1.9999999985463057,1.8361361079294058,1.7014855577272434e-21,-8.653591428652414e-09,-4.49746097073135e-08,0.18905902402821478,0.0,0.0,0.0,-0.029926977707937077,-3.660307416355358e-07,-3.5374191742828835e-07,1.5377363954747473e-08,534.803370589784,534.8031386629024,534.8033052042662,534.8033091640004
2.808,-5.263696590058072e-08,2.0000000309417065,1.8495443069497142,5.22121939546052e-06,5.691476718732413e-06,8.328808993057029e-07,-1.645803108486516e-08,1.999999998583925,1.8460766083354776,1.598268078490109e-21,-8.142430254938901e-08,2.66497012599335e-08,0.1780240751382424,0.0,0.0,0.0,-0.018265589233973575,-1.1973616317880943e-06,-1.2551145953666335e-06,1.1444851944999686e-08,535.1224008412494,535.1216110691632,535.1220543481348,535.1220357499219
2.8599999999999994,-5.3960807811007125e-08,2.0000000296797253,1.8584753939007699,1.104710525660856e-05,1.1832864663300283e-05,1.0474999196508052e-06,-1.827726548469083e-08,1.9999999986240982,1.8554447558216909,1.5009936426822289e-21,-2.3240468842426887e-08,-2.57586840997767e-08,0.1675813714016106,0.0,0.0,0.0,-0.007110173745049006,-1.3546544085710867e-06,-1.3931141889642107e-06,-4.3841088466730735e-08,535.4272796059796,535.4263952445261,535.4266939460191,535.4266815678455
2.911999999999999,-5.0412427087337205e-08,2.0000000239283726,1.866881230458671,2.538408533600934e-06,2.9299649677170146e-06,1.212569794313381e-06,-2.0032185452435637e-08,1.9999999986662262,1.8642706428507265,1.4093497843295444e-21,8.642302521431194e-08,-1.2751490386734025e-07,0.15770729317798218,0.0,0.0,0.0,0.0035259355549041027,3.996149109839743e-07,4.2827410181551237e-07,-2.3442976751069788e-08,535.7170589882901,535.7173252975821,535.7171075452305,535.7171167641113
2.9639999999999986,-4.564712823440176e-08,2.0000000171833223,1.8747905097796733,-1.1203184915512887e-05,-1.1212599312813976e-05,1.0997342015122528e-06,-2.1707472086463405e-08,1.9999999987097872,1.8725830611890277,1.3230375432757742e-21,9.550250446730634e-08,-1.3293087557881775e-07,0.14837611462513406,0.0,0.0,0.0,0.013648383680387823,1.3529068146155703e-06,1.3964632881932064e-06,-3.1613630061281254e-09,535.9929349145594,535.9938188561472,535.9933591025552,535.9933731062644
3.0159999999999982,-4.5510585665041393e-08,2.000000015119496,1.8822308752237311,-9.707314328074949e-06,-9.540356276208487e-06,9.828517326697347e-07,-2.3280466455703792e-08,1.9999999987543258,1.8804095278170034,1.2417711961430088e-21,-1.758238709521286e-08,-1.9425277615557682e-08,0.13956689714871728,0.0,0.0,0.0,0.02322968519834258,-1.2510596567824852e-07,-1.3034769212868097e-07,-2.8424137193375793e-08,536.2547825571191,536.254700467023,536.2546454673239,536.2546437828936
3.067999999999998,-4.919317600642067e-08,2.000000016991397,1.8892284337966825,7.389771921562802e-06,7.987720211877892e-06,1.1393358671410408e-06,-2.4751233187812783e-08,1.9999999987994481,1.8877763142934116,1.1652779514258096e-21,-8.19765239545146e-08,4.766230003574756e-08,0.13124608062336865,0.0,0.0,0.0,0.03235541047105027,-1.7651317575593053e-06,-1.8061455944363814e-06,-2.8019569423782386e-08,536.5040921308358,536.5029450321304,536.5034297049779,536.5034165312804
3.1199999999999974,-4.981673318567421e-08,2.0000000160949853,1.8958078108454004,9.056015403959408e-06,9.700071288583266e-06,1.0714237247030356e-06,-2.614154408095524e-08,1.9999999988448138,1.8947084789059436,1.0932976156546453e-21,7.628479788770474e-09,-3.5601397374414165e-08,0.12339076658894896,0.0,0.0,0.0,0.04102967328962122,-4.790303285142999e-07,-4.948643259250678e-07,-7.300288487545198e-09,536.7400031223539,536.7396904439196,536.7398244636025,536.7398193799421
3.171999999999997,-4.64548487923802e-08,2.0000000115231007,1.9019925815812626,-4.924854736560085e-06,-4.644044282391641e-06,8.776047146159386e-07,-2.7462734837836337e-08,1.9999999988901305,1.9012299010212985,1.0255822367208936e-21,7.73644669900894e-08,-9.949401719804264e-08,0.11597967945372663,0.0,0.0,0.0,0.04925773617628816,1.1861357759610561e-06,1.2127606144109343e-06,3.92735008253514e-09,536.9635516574159,536.9643215252185,536.9639456883017,536.9639542328998
3.224,-4.4910673648077636e-08,2.000000008926726,1.907805033424429,-1.1669920275561867e-05,-1.1620524217420622e-05,6.962186168898403e-07,-2.8704104351940592e-08,1.9999999989351493,1.9073633171207907,9.618957297000437e-22,1.3380600138275329e-08,-3.321207999437625e-08,0.10898708668544757,0.0,0.0,0.0,0.05708175819129613,8.979141792443726e-07,9.226443819705278e-07,6.382587669161128e-09,537.1766576815194,537.1772417140919,537.1769674496156,537.1769753830289
3.276,-4.8182841607353514e-08,2.0000000112019003,1.913266341655967,-2.6875127589818522e-06,-2.468388100033753e-06,5.785042191292127e-07,-2.985899794958588e-08,1.999999998979658,1.9131303580726422,9.020134898337437e-22,-8.298131434308759e-08,6.400734705222212e-08,0.10239396516481407,0.0,0.0,0.0,0.0645018143470274,-5.52509450799822e-07,-5.659225020102948e-07,4.827774129663834e-09,537.3790725444475,537.3787138879145,537.378911788447,537.3789074871765
3.3279999999999994,-5.259136167653965e-08,2.0000000147312647,1.9183967014355847,7.412488342667882e-06,7.856304306500268e-06,5.192964606889022e-07,-3.0945637999433105e-08,1.9999999990234782,1.9185515872503138,8.457219967269834e-22,-7.99582753225974e-08,6.379207879703186e-08,0.09618165557579458,0.0,0.0,0.0,0.07151566535483304,-9.594561887477814e-07,-9.872253263524038e-07,2.546004013351759e-09,537.5700251476383,537.5694011112752,537.5697262375628,537.5697173357721
3.379999999999999,-5.3775956752569435e-08,2.0000000152441113,1.9232152595788135,5.483138051993033e-06,5.824429241230663e-06,4.957149308754365e-07,-3.19915160584655e-08,1.9999999990664632,1.923646539158166,7.92818413277432e-22,-3.6182898601594524e-09,-8.251992826892908e-09,0.0903290443964548,0.0,0.0,0.0,0.07814910387904997,-1.0314698656601769e-08,-1.1899625994017685e-08,8.806715631891234e-10,537.7501239011551,537.7501167824274,537.7501235892646,537.7501230813641
3.4319999999999986,-5.242994910756659e-08,2.0000000133903435,1.9277400598632832,-2.8376823388516345e-06,-2.7964574491732025e-06,4.876145244158674e-07,-3.300728309245507e-08,1.99999999910849,1.9284337582720672,7.431101823727897e-22,3.1167389080645e-08,-4.036990285019122e-08,0.08481513373989909,0.0,0.0,0.0,0.08443493530000046,7.322703774202495e-07,7.550151748977719e-07,2.0335445213008654e-11,537.9207785292494,537.921254988355,537.9210131847531,537.9210204711587
3.483999999999998,-5.211547538736792e-08,2.0000000126046715,1.9319881206087963,-4.815517301640744e-06,-4.884412527345422e-06,4.831136476800565e-07,-3.398697700132878e-08,1.9999999991494601,1.9329308378438328,6.9641462396378225e-22,-5.6331929126745115e-09,-3.477002219437838e-09,0.07962097276799165,0.0,0.0,0.0,0.09039719154486468,3.27723597503405e-07,3.396590315452267e-07,-2.7004809513099315e-10,538.0829580382277,538.083171773087,538.0830620770943,538.0830658995167
3.535999999999998,-5.380467911707539e-08,2.000000013808051,1.9359756116526476,9.127415892461057e-07,9.930818359357926e-07,4.772593601061994e-07,-3.492753947734839e-08,1.999999999189295,1.9371544584550366,6.525585347395221e-22,-3.9453045475203497e-08,3.010761055485489e-08,0.07473194300764384,0.0,0.0,0.0,0.09603033823118812,-4.3238399333505504e-07,-4.4587210344649665e-07,-2.726809132729123e-10,538.2362634946753,538.2359823058118,538.2361241334448,538.2361198149935
3.5879999999999974,-5.512080784153577e-08,2.000000014681433,1.9397179010379033,5.02119787962701e-06,5.214376150271873e-06,4.6911267975076614e-07,-3.583690220662401e-08,1.9999999992279338,1.9411204261383157,6.113777922938015e-22,-1.624036900535785e-08,8.165229337699977e-09,0.07013196208767009,0.0,0.0,0.0,0.10134525568245004,-4.5066229214138207e-07,-4.663269362517806e-07,-1.851898503513792e-10,538.3806410088297,538.3803474976137,538.3804961314738,538.3804911175123
3.639999999999997,-5.426407253680946e-08,2.0000000134711926,1.9432294536039676,2.3181974990864656e-06,2.3971681523392047e-06,4.593327657154314e-07,-3.672189415695794e-08,1.999999999265332,1.9448437099131577,5.727169653711471e-22,2.8293423654434417e-08,-3.461412570796274e-08,0.06580257715272139,0.0,0.0,0.0,0.10637880132655056,1.3793588285537942e-07,1.4283705995026278e-07,-1.0177346652486184e-10,538.5171419747572,538.5172318221481,538.5171857688165,538.5171873371941
3.692,-5.234487201561808e-08,2.000000011240879,1.946523933822132,-2.169747682338951e-06,-2.266445223105326e-06,4.4882927848152537e-07,-3.757860083602944e-08,1.9999999993014574,1.9483384786086924,5.364289315162685e-22,3.6485488576705574e-08,-4.2453480130594624e-08,0.06173135834696991,0.0,0.0,0.0,0.11112299537947079,4.107242192382486e-07,4.263965324044336e-07,-5.112319979070667e-11,538.6458562005506,538.6461240152817,538.645987427475,538.6459924414189
3.7439999999999998,-5.1322477464177964e-08,2.0000000098755857,1.9496142884825074,-2.153534255856733e-06,-2.2538037986874006e-06,4.382440306127103e-07,-3.839673148856499e-08,1.999999999336291,1.951618136868568,5.023745032163754e-22,1.1531415702563842e-08,-1.8408872051734316e-08,0.057902698210175976,0.0,0.0,0.0,0.1156036570906997,7.517436136913626e-08,7.860233054458211e-08,-2.8978580774363186e-11,538.7675856824791,538.767634868175,538.7676096287911,538.7676107252319
3.7959999999999994,-5.12478157670627e-08,2.0000000094223456,1.9525126948937157,2.61075248660728e-06,2.644842736483517e-06,5.322891439011068e-07,-3.9170182794738514e-08,1.9999999993698225,1.9546953602528598,4.704220634194644e-22,-3.723901123229775e-10,-6.96326820573882e-09,0.05430214633743744,0.0,0.0,0.0,0.11984083529650955,-6.703316174385627e-07,-6.819484706496057e-07,-1.9198222238776618e-08,538.8828449978905,538.8824125614801,538.8825655169219,538.8825618020475
3.847999999999999,-5.009550899757699e-08,2.0000000079108373,1.955230589124926,5.006811075963273e-06,5.103379049519582e-06,6.239441715425337e-07,-3.989946120603286e-08,1.9999999994020516,1.9575821293694242,4.404472111304003e-22,3.5752825397171846e-08,-4.237333213611714e-08,0.05091718353732094,0.0,0.0,0.0,0.12384540480484936,-4.249988990434647e-07,-4.331940819919618e-07,-1.1472063276091357e-08,538.9914039133741,538.9911295330188,538.9912291279715,538.9912265078179
3.8999999999999986,-4.687814907559787e-08,2.0000000043807353,1.9577789213633663,-5.033509507015181e-07,-4.889021966773113e-07,5.87455221549186e-07,-4.0582116054119386e-08,1.9999999994329851,1.9602897629824263,4.123324176275434e-22,6.985926057000121e-08,-7.563468669628647e-08,0.04773890562896928,0.0,0.0,0.0,0.12760110327042684,3.9031802930500324e-07,3.968683155393024e-07,-2.3044164175806964e-09,539.0930042025828,539.0932558332328,539.0931211574829,539.0931232513365
3.951999999999998,-4.3739182226038846e-08,2.0000000009426886,1.9601679902585745,-1.786453005448632e-06,-1.8473001928050654e-06,7.487958134466617e-07,-4.120501425151472e-08,1.9999999994626363,1.962828950059149,3.859666937037557e-22,5.2822078652078626e-08,-5.863562572445068e-08,0.04475232365179387,0.0,0.0,0.0,0.13114597011611837,-2.0249582859861645e-07,-1.925518214555161e-07,-2.9221066124080303e-08,539.1893808345069,539.1892545767738,539.189217055295,539.189220233413
4.003999999999998,-4.14494306118327e-08,1.9999999983361987,1.9624074211415148,-1.7708767819448408e-08,-1.756840750823887e-08,7.789037519106753e-07,-4.1755119108924745e-08,1.999999999491023,1.9652097807278557,3.6124526821452693e-22,4.1960671352234236e-08,-4.8143007142345834e-08,0.041947298406985634,0.0,0.0,0.0,0.13448339625176403,-2.3643292145526257e-07,-2.3786009857157426e-07,-1.1861964507937252e-08,539.279864355835,539.2797127966107,539.279748598181,539.2797481421298
4.055999999999997,-3.931963194124435e-08,1.9999999958964874,1.9645063252360992,-1.428447656163493e-06,-1.311923428851155e-06,6.492248228206829e-07,-4.222592225840322e-08,1.9999999995181683,1.9674417761295948,3.3806927811088415e-22,3.9821510064115147e-08,-4.5552565764744445e-08,0.03931279425925909,0.0,0.0,0.0,0.13762998354147749,1.1335385058134027e-07,1.0457464568972197e-07,7.764678891433885e-10,539.365043796717,539.365113424246,539.3650826443659,539.3650798394353
4.107999999999997,-3.7829577219174516e-08,1.9999999941521962,1.9664732584757925,-3.3724486341249748e-06,-3.2232972599765994e-06,4.940761576498475e-07,-4.261470794899799e-08,1.999999999544099,1.969533917155584,3.163454700439116e-22,2.1000260190694552e-08,-2.5414341951088263e-08,0.03683938653990832,0.0,0.0,0.0,0.1405913428187712,2.39088253774287e-07,2.359612322408433e-07,4.967744652039572e-09,539.4452727904932,539.4454245448557,539.445366000121,539.4453650011953
4.16,-3.7745817279213423e-08,1.999999993884755,1.9683163089810563,-2.4679466689747054e-06,-2.3688647903277186e-06,3.818463134724487e-07,-4.292160746099434e-08,1.9999999995688442,1.9714946720693363,2.9598591354958425e-22,-7.917365179811285e-09,4.79104257660648e-09,0.034517353982366855,0.0,0.0,0.0,0.1433809953773296,1.0518552297281029e-08,1.499675946040236e-08,4.523522780134736e-09,539.5209569162718,539.5209650659854,539.5209756015527,539.5209770319136
4.212,-3.8712307357815296e-08,1.999999994717512,1.9700430882575384,8.711054089294071e-08,1.5682740823253583e-07,3.211075478994321e-07,-4.3154774034489566e-08,1.9999999995924365,1.973332023019126,2.769077257557957e-22,-2.1551346777208167e-08,1.922575349734343e-08,0.03233828036137703,0.0,0.0,0.0,0.14600483062951636,-1.8841768301766183e-07,-1.852041198117393e-07,2.712534164785648e-09,539.5921312590232,539.5920119381462,539.5920802742422,539.5920813005345
4.263999999999999,-3.9655597478325344e-08,1.9999999955633019,1.971660706713035,1.0609158170366928e-06,1.1590903802091573e-06,2.9621817555045726e-07,-4.3327716680563906e-08,1.9999999996149096,1.9750534914518652,2.5903280749663894e-22,-1.486243423214243e-08,1.3245596892649636e-08,0.030292271588704966,0.0,0.0,0.0,0.14848366202997382,-1.0084530669479979e-07,-1.0364028958695837e-07,1.1257544620187115e-09,539.659276173962,539.6592108770135,539.659247784796,539.6592468922938
4.315999999999999,-4.0116107901308805e-08,1.9999999959725798,1.9731759021133366,-9.255045963113009e-08,3.029621290036371e-08,2.8906163692275343e-07,-4.345344231446854e-08,1.9999999996362985,1.9766661624440627,2.422875906711546e-22,-6.5804530513690845e-09,5.963562379818693e-09,0.028373392389191544,0.0,0.0,0.0,0.15081092851279898,9.609485116628885e-08,9.233810997965389e-08,2.0880590441382785e-10,539.72226965159,539.7223298155336,539.7223010404657,539.7222998409922
4.3679999999999986,-4.053660098543468e-08,1.9999999963973054,1.9745950448973453,-1.0662778159488247e-06,-9.711743237025472e-07,3.163195502621285e-07,-4.354161577634397e-08,1.99999999965664,1.9781767079694081,2.2660279664369664e-22,-1.0168499946291293e-08,1.0605637944801088e-08,0.026573579532418824,0.0,0.0,0.0,0.15299927159806154,1.1620974267618531e-07,1.1681762304930649e-07,-1.4277934647035534e-08,539.7815710284355,539.7816454225584,539.781559778464,539.7815599725303
4.479999999999997,-4.237780084513653e-08,1.9999999983665937,1.9773514568911514,1.5764311821988724e-06,1.6038818153873602e-06,4.4913954720521433e-07,-4.3606337040399136e-08,1.9999999996959361,1.9810053109897376,1.9723191373094036e-22,-1.4672980020278146e-08,1.6118396399928035e-08,0.023010537533573544,0.0,0.0,0.0,0.14395730240839302,-2.0392586541968803e-07,-1.9868756680797896e-07,-9.330265517245702e-09,539.5366678312444,539.5365392383029,539.5365710883952,539.5365727614846
4.532,-4.2519479040749354e-08,1.9999999985916326,1.9784978608632684,3.872337157425611e-06,3.9288974722519685e-06,2.2887550034003683e-07,-4.361585687563684e-08,1.9999999997131492,1.9822246100606575,1.8457128585553804e-22,6.2390408020085495e-09,-4.528288929900639e-09,0.021393119585112152,0.0,0.0,0.0,0.15662539833235956,-6.585612935103696e-07,-6.647638627780735e-07,2.747439116878662e-08,539.8799690786791,539.8795466831541,539.8798518916832,539.8798499118698
4.584,-4.0880355164378976e-08,1.99999999706075,1.9795613309754874,5.728465430216051e-06,5.831356443224509e-06,4.5628749429774195e-08,-4.3617343985191915e-08,1.9999999997295141,1.9833699045053454,1.7267908719994727e-22,4.8609575618010025e-08,-4.62568511934439e-08,0.019842143526714675,0.0,0.0,0.0,0.16026087668271427,-8.210087250855319e-07,-8.312209443978784e-07,1.0477866063167803e-08,539.9785060100635,539.9779787268562,539.9782794667964,539.9782762077268
4.635999999999999,-3.67979968503137e-08,1.9999999931278905,1.9805511138414296,1.4936516326072734e-06,1.5353053978318259e-06,3.240543455957498e-07,-4.3604098879214345e-08,1.9999999997450333,1.9844430036726854,1.6153653033664348e-22,9.26574386591455e-08,-8.953072746683497e-08,0.018510726531946502,0.0,0.0,0.0,0.162899430904333,-2.522981806434692e-08,-2.1515602671185497e-08,-3.76488514630691e-08,540.0497771323439,540.0497622162513,540.0496416530364,540.0496428382133
4.687999999999999,-3.218559185338503e-08,1.9999999886809285,1.9814763838396425,-7.314464872327892e-06,-7.368138645109833e-06,5.811285845736176e-07,-4.355823901808412e-08,1.9999999997597417,1.9854483180986506,1.5109781833523304e-22,7.624990682029671e-08,-7.315722093447515e-08,0.01732389520652749,0.0,0.0,0.0,0.16496869563607378,8.0965661516147e-07,8.217003573209605e-07,-2.4081257998555774e-08,540.105510680853,540.1060311799381,540.1056875106386,540.1056913533032
4.739999999999998,-3.075127552838605e-08,1.9999999873886107,1.982343351623539,-9.140044882681812e-06,-9.165146510673695e-06,5.690666206441136e-07,-4.346037023001316e-08,1.9999999997736744,1.9863900014819704,1.4131982114241283e-22,-4.983504701268619e-09,7.502420511071379e-09,0.016244393196720688,0.0,0.0,0.0,0.16664509637275376,4.2032954057668775e-07,4.2286374050517683e-07,-6.178244332714112e-09,540.150989512757,540.1512585185532,540.1511027040772,540.1511035125686
4.791999999999998,-3.328127839799389e-08,1.9999999900487746,1.9831569646877776,-1.8806647646269076e-06,-1.7760358354023539e-06,4.4130059993328617e-07,-4.3306525503955966e-08,1.9999999997868643,1.9872719644717811,1.3216193241750579e-22,-6.700381505002385e-08,6.963726188091217e-08,0.015251788226839449,0.0,0.0,0.0,0.1680216023223131,-4.7519963975658696e-07,-4.859538206752276e-07,2.681103874317317e-09,540.188524138121,540.1882175203742,540.1883816169193,540.1883781862261
4.843999999999998,6.995678657638906e-07,1.9999999935544357,1.9839152618331586,-2.555637212006038e-05,0.42505646541767733,2.542144954334958e-07,0.0012567385874996488,1.9999999997993452,1.9880978878287454,1.235859328735747e-22,7.041800886246075e-05,5.3927794059974676e-08,0.014024211200971536,-3.430770906388433e-05,0.4248034837939823,-2.5255669428507365e-08,0.1721483322810164,1.2834081149706339e-05,0.3438602605780806,4.877768472883299e-08,482.3545801833039,592.6062872939826,482.35935009622,592.6027056799145
4.895999999999997,0.00029083015954133853,2.0000000232661628,1.984602409505654,-0.000705205270021204,4.520109506430584,-2.0768447901625635e-05,0.007494624875894869,1.9999999998111495,1.9888712349761322,1.1555585995292854e-22,0.012481657241540316,1.3650194058786434e-06,0.013592606900124019,-0.00041612771644067786,2.0560623187485065,2.397140938534308e-06,0.1780352368949308,0.00018558908018121293,0.08361059981322091,6.438979225918933e-06,526.9196599923876,553.646804531521,527.0026859765308,553.6102962498886
4.947999999999997,0.002693266513745881,2.000000406218208,1.9851358590584796,-0.002814140822451908,12.102396880019807,-0.00019237633131346648,0.020578061186207655,1.9999999999071107,1.9895952639583971,1.0803788365483477e-22,0.0743238690378684,1.2878293025142204e-05,0.022711985658664773,-0.0008303263896833801,2.5905031624203176,3.646498070216944e-05,0.22242413340252773,0.0005531536772021806,-0.3347250399592049,2.9301949934953997e-05,592.3911466469965,485.5456033215185,592.6424191362504,485.4595854387915
5.0,0.01042875857171704,2.00000203440174,1.9851002414126981,-0.005004319904166805,17.490960053465102,-0.0003020010125061379,0.040840262746154495,2.000000306917534,1.9902730388256218,1.010001883248811e-22,0.19711733246979418,4.2534978925517074e-05,0.05356327426792473,-0.0005834171481636536,1.0644208285431014,0.00011704323053796776,0.35983067594738943,0.0007850130834592647,-0.3748223849118043,2.1337800795024024e-06,601.5523061041422,482.6517919686549,601.7836266348214,482.3795157476403
5.052,0.025816507172722054,2.0000058606138116,1.9842262366944223,-0.006338079440407172,17.1240617297713,0.00011681978831960514,0.06731401741627299,2.0000028409260935,1.9909074404627403,9.441286020935745e-23,0.34859456499369706,8.410843291168282e-05,0.08565689048908638,-0.0006606902474232303,-0.8292860611153288,9.489791232838421e-05,0.5171639289934462,0.00038511341217749816,-0.07523782389532671,-5.504287497801631e-05,561.2607830135757,537.7876820173874,561.1997613305315,537.4771036125665
5.103999999999999,0.04877544985472114,2.0000127108429204,1.9829444865913755,-0.01087564186791741,13.392894166273962,0.0006866802784297215,0.09846863389203211,2.0000093072689524,1.991501176882892,8.824778057393835e-23,0.484913929787001,0.0001404574414716132,0.09337278312208905,-0.0018314043379860953,-1.2914749354072153,-6.953311453268568e-05,0.5814108462036092,0.002648902149657866,0.22541456379849711,-6.980086114345196e-05,514.5088038681216,585.936561255985,515.1476297774558,584.9389117477132
5.155999999999999,0.07767867701443129,2.0000244058284373,1.9819434335294404,-0.009956571637487815,11.059771083012842,0.0006992429580390486,0.13327239814289135,2.0000136320731383,1.9920567930044502,8.247852418361301e-23,0.5863382799524856,0.0002408548103205501,0.10017379745565395,0.0014967444026917098,-0.33389129623823627,-0.00018757724812821125,0.5480974422844022,0.0012242084930963147,0.1297652297119876,7.975546200052154e-06,529.4631662375087,570.5058369036875,529.8889752546029,570.1615050241729
5.207999999999998,0.11136146199765105,2.0000406435631737,1.9815090784506635,-0.0065210954551507645,11.44692013546407,0.0001866662994757806,0.17063792186001756,2.0000227385105727,1.9925766799313687,7.708026293993267e-23,0.6712575799014459,0.00031977691302046655,0.13075661320276274,0.00041467553167520217,0.24954908978589058,-0.00010910281294836165,0.49024077864048377,0.0013094163054410985,-0.20262865632113675,2.520330618571841e-05,579.5455531017677,516.2248858884318,580.0142046178913,515.8769024462914
5.259999999999998,0.14975823441613656,2.000059910473764,1.9815219507229869,-0.009264737178250795,10.864874021099077,0.00015083513435146953,0.20911956742690194,2.0000369319686433,1.993063083756445,7.202967447207467e-23,0.7599607139541463,0.00037048666002333894,0.15147448796222282,-0.0015075753833993855,-0.6418519189546122,-8.559644986379168e-06,0.44214658612333385,0.002195180877411983,-0.2012800494506078,-3.549149012749671e-05,578.0938119228384,515.3422346818138,578.63570428136,514.4815821158793
5.311999999999998,0.19243797173109028,2.0000831727069155,1.9819254723269626,-0.01216999409610634,7.037205826289042,0.0008262049414648554,0.24771269526744027,2.000054951700418,1.9935181139069498,6.730485547973112e-23,0.8385638047027861,0.0004499294658747256,0.12089891281874132,-0.0002729533043313955,-1.5922147304490448,-7.211325319899281e-05,0.3748233022823973,0.0025405417757364207,0.10794406130130703,-0.00010329558063287107,528.2052691383066,563.0980874506334,528.6764435343521,561.9841903551121
5.363999999999997,0.23761674489596174,2.0001115380829275,1.9827754941867841,-0.009005511198872319,2.6369613120091193,0.0011513564641139867,0.28589614006297076,2.0000768059872644,1.9939437510518487,6.288523962826446e-23,0.8754484913129701,0.0005529891264276145,0.06463671364787611,0.0016928227680366621,-1.205008765984327,-0.0002423767754521174,0.2899887106859409,0.002036084824008696,0.26144663345510677,-3.317667159849452e-05,500.02618950544206,583.8114611382827,500.6062753132557,583.1061624950776
5.415999999999997,0.2832767730435072,2.0001435631313274,1.9839902999532681,-0.003576370568922034,1.0704512136189908,0.0006247773296590716,0.3234621057203601,2.0001015633125028,1.9943418545895182,5.875151979978423e-23,0.8753874131969356,0.0006188109798796656,0.04188393352375318,0.0017251528389245565,-0.08019500831289737,-0.0002095485435641265,0.21697635805474874,0.0020484262290158322,0.07442914428395145,2.2583931305318156e-05,529.1642661996294,553.5096260971007,529.9088363774329,552.9461776360172
5.468,0.32862770840304323,2.000176722187528,1.985379437083548,0.000626459223840117,1.7304159781461694,0.0002665815794845857,0.36033951489713956,2.000126655006725,1.9947141697344943,5.488557450765508e-23,0.8691842328426642,0.0006322277588198135,0.05248150913223767,0.0012175948940440968,0.2621194673620826,-5.6010286485228445e-05,0.167839855178585,0.002078100254796584,-0.13194281557648835,-2.5848082057394304e-06,560.5193169899245,519.060570895392,561.1494230332206,518.3610778841858
5.52,0.37387315108875735,2.0002090292761308,1.986781786716202,0.0036069934955982844,1.5637439545246021,0.00026479876255310487,0.3965431267186695,2.0001510893213754,1.9950623342213785,5.1270398286334656e-23,0.8689291802325446,0.0006066585542351805,0.05169589407538918,0.0008569969044747085,-0.33082056418337635,3.5727758307307035e-05,0.13694707453695323,0.002107971570328675,-0.07369252799890265,-1.893113264842137e-05,550.6951726721926,527.8195437492865,551.2916471321869,527.0652217169303
5.571999999999999,0.4189274889015734,2.000239107350746,1.9881001107871117,0.00625048632946218,-0.28636454654889476,0.0002903270446159541,0.43217240180327543,2.000174157295804,1.9953878846435384,4.7890035873247937e-23,0.8618698367314069,0.0005537934184779421,0.022778886682050626,0.0009440701454647302,-0.7170216232526905,8.00317475995198e-05,0.12118008942498748,0.0020594630448857202,0.10867334352631158,-1.7588469818325494e-05,520.9449793646759,556.3702588201189,521.5641556581423,555.6741572811543
5.623999999999999,0.4630205198285149,2.0002657756953273,1.989253454029799,0.009250129087525661,-1.8331736611389204,0.00038507238165457315,0.4673490744684857,2.000194902092397,1.9956922624437736,4.4729520004566874e-23,0.8367231332775484,0.00047416649833108293,-0.005155824506553403,0.0009825439374514025,-0.29460876412918663,0.00010697971441157846,0.12148603221405326,0.0018317938363811986,0.14078289424487647,-3.731470841565356e-05,515.688483342506,561.3260492581243,516.168119599674,560.6417658091971
5.675999999999998,0.5055019915273681,2.000287778231,1.990196533995556,0.010988579810737252,-1.5891711058637386,0.0006768886703041217,0.5021778186959769,2.0002137134397913,1.9959768195735679,4.177481265216748e-23,0.8040376985565807,0.00037158382071065057,-0.006879494829967482,0.0001703839773149162,0.29001273484875767,5.003314716424932e-05,0.13029208947558657,0.0014815047528002304,0.0030006832358771968,-5.937643992268076e-05,538.5501213130555,539.9824298836224,538.8225763512381,539.3082193470603
5.727999999999998,0.5464663402329413,2.0003044764472153,1.990946880557442,0.008058528677257764,-0.5734648199767981,0.0008007606917621931,0.5367256182497088,2.0002346601642262,1.996242823837034,3.901274953464664e-23,0.7783329117689819,0.00027217797423730294,0.004399027907239027,-0.001969271782004684,0.2829051101937299,-6.33062412401014e-05,0.1389235998206568,0.0008970699020791028,-0.08544135729554111,-3.0690934155442256e-05,552.790887098863,525.7751189824669,552.969024444708,525.3742479996891
5.779999999999998,0.5863534781659423,2.0003173970299906,1.9915475717584343,-0.005157932940386228,-0.4552662899991867,0.0005475225019415336,0.571026383186733,2.0002692383095626,1.9964914639350837,3.643098774101586e-23,0.7599183310493607,0.00023123811978203651,0.0050124675091514715,-0.006403636931779996,-0.1330922107379396,-0.0001026802260653513,0.14584289103899584,0.0004320322053782272,-0.019067948011189807,-5.370499450127836e-06,542.5644060885561,536.612750711096,542.68351904513,536.4556929409245
5.831999999999997,0.6252479662610051,2.0003327059761937,1.992023610343841,-0.035875452355319803,-1.2308661841567807,0.0004905573601502743,0.6051133731517132,2.0003383023868895,1.9967238542248116,3.4017956311506197e-23,0.7390374610142267,0.0003624256780321031,-0.006759322874460791,-0.013355311643045459,-0.2749498532518151,-0.00012235864169584995,0.1545051706348583,-0.00012340403727871129,0.08192589699830596,-3.551477422461572e-05,526.6654077230306,552.7836630194778,526.5017439764747,552.7046910562872
5.883999999999997,0.6628590291009159,2.000364370152947,1.9923820561880305,-0.08855802853576612,-1.5773990699815497,0.0003025033921609621,0.6390073510705093,2.0004669838414175,1.9969410392085079,3.1762809625772124e-23,0.7120171024336794,0.0008494458096245352,-0.013679497552535193,-0.019934731299105352,0.02436455229180088,-0.00017072877952240998,0.16517156823246923,0.001532425553360041,0.06570670558852279,4.146700299102456e-05,529.2044146805998,550.6644704075568,529.8462595255266,550.3224514854339
5.936,0.6990598839790491,2.0004355393972157,1.9926439148768529,-0.14862010878492202,-0.9836493810831917,-0.001075865438798585,0.672701183755536,2.0006753757862965,1.9971439977661554,2.9655383454631994e-23,0.6860416528514067,0.0018329913528571911,-0.008186965211494587,-0.019520268899323647,0.27724879613602926,0.00013565404311885297,0.17379112049003087,0.0022880840012341895,-0.020947605148099506,0.00017999996066996239,543.008933520306,537.054630131345,544.3393533934532,536.9330719701568
5.9879999999999995,0.7341160766078637,2.0005725997918113,1.99284552107116,-0.20403445431882644,-0.2693133528580244,-0.0018107458029820865,0.7061872297223292,2.0009894512519537,1.9973336471447058,2.768615353729924e-23,0.6670920064712946,0.0032852866323176445,-3.5177075671361415e-05,-0.018437517410189796,0.16877866519211554,0.0006925596077699227,0.17843904048174122,0.0013399308320786807,-0.0491652827391062,2.4755930960384495e-05,548.000379645017,532.7488636524515,548.5040810198329,532.4002676747416
6.039999999999999,0.76835413237923,2.000800007424512,1.9930157287299113,-0.2623442671031081,-0.230084842628963,0.0002429508767408161,0.7394443690712628,2.0014327279140582,1.9975108467168774,2.5846196551807417e-23,0.6527427784949945,0.005185445864194004,0.0007607518549735861,-0.020508708492444776,-0.08149970927050512,0.0006096044130382535,0.18068819790371904,0.0012985395808310792,0.0064657108145822415,-0.0002708671520718126,539.7509110402817,542.2241271782868,539.2479582736755,540.896692732039
6.091999999999999,0.801822461327409,2.001142736872071,1.9931648115963845,-0.32320971595242476,-0.5920250451860518,0.0025569644383555954,0.7724538071975283,2.0020176345929515,1.9976764015216644,2.4127153352003446e-23,0.6370163073624082,0.007601247627025877,-0.0035348428775267933,-0.0194863221165244,-0.10778608193706182,-0.00018306117817124234,0.18285014310911404,0.0023033186738922263,0.054480135382234146,-0.00019784654687382634,531.8021572781452,549.8945529870779,531.8684931874584,548.5133507294481
6.143999999999998,0.8343940490753284,2.001626008653269,1.9932942692295332,-0.37224503575468104,-0.5881954227117359,0.0011480783931696811,0.8052171823361779,2.002753263015445,1.997831065598226,2.252119435003727e-23,0.6191127181717861,0.010500484367500161,-0.004192186262864536,-0.014269684565600394,0.08639659227870812,-0.00047584689275912025,0.18501821385301262,0.0023889044388737996,0.02944704056843997,0.00022652098562472953,535.1638418721358,545.3188369444252,536.7045607995052,545.3232109076525
6.195999999999998,0.8660866765991122,2.0022696817299566,1.9934104943799162,-0.40465310997143517,-0.09277787700961775,-0.002299111197406432,0.8377193998634773,2.0036415833629704,1.9979755451242815,2.102098692871768e-23,0.6035634179958265,0.013708196443155785,0.0007831739563463764,-0.008500000535939302,0.19026861894074826,0.00039880993628194533,0.18595891642908421,0.002433712167713068,-0.017157594019663915,0.00031169265971269357,542.4901969966046,537.7927207205273,544.3104565144392,538.0722127299567
6.2479999999999976,0.8971236685181768,2.0030857187161386,1.9935230500346741,-0.41877780964550254,0.3254992471223429,-0.0024269278563883176,0.869963223621712,2.0046732603330955,1.998110501369647,1.9619664773405002e-23,0.5929048426016919,0.01704760300965725,0.005446189091787077,-0.0019776555149531526,0.08604849824242493,0.0012307431992338643,0.1855413093207027,0.00282448830495652,-0.02193542324055656,-8.18721250564338e-05,543.8371026841364,537.7473271154453,544.4565654358993,536.5625953312501
6.299999999999997,0.9277016236619617,2.004077376592052,1.9936365723930252,-0.41015933211332206,0.33074289272580837,0.000834872190725002,0.9019559834225345,2.0058282629169732,1.9982365534750326,1.8310799018268784e-23,0.5847696615347766,0.020370038775032597,0.005828140958776886,0.006408746163441718,-0.042159292026657434,0.0008677781300135842,0.18469912417458634,0.0026930211227890882,0.013051015533355978,-0.000334084239217219,538.6917265285286,543.704862193896,538.4195327046423,541.7245501917274
6.352,0.9578438151112308,2.005237476800148,1.9937496552160234,-0.3758187054983875,0.20744074916763852,0.0026555387029729557,0.9337071066764846,2.007079945516808,1.998354281065754,1.7088371106741863e-23,0.576008346573395,0.023490376121128673,0.004438559967863493,0.014801992768525321,-0.018813689461723754,-1.4354308847404426e-05,0.18412547642917856,0.0019079026873904856,0.029136418223883166,-0.00012395012691610708,535.8649720704269,545.7570250447424,536.0556834504505,544.7385023993071
6.404,0.9875134700402937,2.006547428715293,1.9938599532029573,-0.3212531238884034,0.3438322311515618,0.0012553605225406688,0.9652266824979852,2.008398891764189,1.9984642267095363,1.5946747270846615e-23,0.5670022400256767,0.026190759104023888,0.005415173477338466,0.020143620856317546,0.08825090375666268,-0.00019912988147026924,0.1836835186833666,0.0014131715926223951,0.014126216595940468,0.00012446282195743296,537.9183669844872,542.8736852571756,538.7933078327842,542.8441715937992
6.4559999999999995,1.0167775353209316,2.0079798449480126,1.9939672631619734,-0.2576078122708994,0.6845012836184725,-0.00036453391333179274,0.9965305171005736,2.0097559645284306,1.9985668982271383,1.4880654538747482e-23,0.5602639364983343,0.028316965975443455,0.008580378570584206,0.021872838593341826,0.11465887461317807,0.00021229305239445754,0.18312135806269156,0.0011877391113779196,-0.009017111321249681,7.780150716670513e-05,541.71215277073,539.2157768679597,542.3521335472933,539.0999192494306
6.507999999999999,1.0457892649058038,2.0095034485263783,1.994071890049079,-0.19088835365158324,0.9081802390351962,-0.00019125605180985212,1.0276395545640429,2.0111229691770656,1.9986627708640967,1.388515818440005e-23,0.5565040864823414,0.02982366921711125,0.010818904084189689,0.022801661750255657,0.04149462837165141,0.0003961036681497265,0.18248471461805169,0.0013528387614857812,-0.005286857482989134,-6.956741537061905e-05,541.3238795601917,540.0700680048213,541.5196002245327,539.402538209067
6.559999999999999,1.0746547350045565,2.011085921357846,1.9941732604811884,-0.12010535994998547,0.9101979983942771,0.0006583428235780793,1.0585693355631387,2.012473529515823,1.9987522893314595,1.2955640537509838e-23,0.5540114468332143,0.03070516780067393,0.010832051756703926,0.024475772289981202,-0.017162364254914467,0.00019275774453768907,0.18199425944725658,0.001098223691389944,0.014557230501716477,-9.076401920028847e-05,538.2194504346688,543.2088435565457,538.2628245795271,542.5546341296387
6.611999999999998,1.1033851663668865,2.012693755111713,1.9942699919266704,-0.04604327437253151,0.8882736113126913,0.0008556157973625408,1.0893398819570344,2.0137861638912207,1.998835869722992,1.208778107619284e-23,0.5512841675768714,0.03093791004562632,0.010361804724663908,0.024758844404751314,0.010868620166685614,-2.3093810726387737e-05,0.18173034024650353,0.00047472454933209835,0.02040786753730045,-3.2724375950759436e-05,537.2760920611282,543.932724956868,537.317020582839,543.6722928625392
