Time_s,X,Y,Z,Roll_deg,Pitch_deg,Yaw_deg,Ref_X,Ref_Y,Ref_Z,Ref_Yaw,vx,vy,vz,p,q,r,T_pert,tau_x,tau_y,tau_z,RPM_0,RPM_1,RPM_2,RPM_3
0.02,1.0,1.0,0.9927382,-1.0692778040264545e-18,1.0692778040264545e-18,-9.977654828158636e-39,1.0009,1.0009,1.0009,0.00015707963267948968,4.881651291907917e-21,4.881651291907917e-21,-0.3283000000000036,0.0,0.0,0.0,3.521180447041493,-0.06673109761320405,0.06673109761320413,0.0024008530771777903,620.8678290485744,620.8678290485747,609.306886245726,645.9510707563663
0.04000000000000001,0.9999999479807906,0.9999999480070877,0.9834053063395991,-0.005199721640632092,0.005199614570015471,0.0004478212359862413,1.00264519,1.00264519,1.00264519,0.00046167274840828814,1.540170825972784e-05,1.5404597017706502e-05,-0.5078621365552416,-0.008617652781448864,0.00861741585474643,0.0006312833903635888,5.039808934899982,-0.07106148903398364,0.07106150066974137,0.0049112565867914975,652.150170482916,652.1501735575742,647.1188876987403,683.9193754456497
0.06,0.9999997359197111,0.999999736469768,0.9719999922813343,-0.06533053194888065,0.06532631423317692,0.0031237780790005767,1.005183287929,1.005183287929,1.005183287929,0.0009046544043992807,0.00044486399164910114,0.00044492993287921186,-0.5807145170799687,-0.07228186706326892,0.07227140787091234,0.0031973484980551024,6.6296890183580635,-0.07080297083988116,0.07080338087295333,0.0071441163702254395,683.8960493662506,683.8961526848582,685.1487008022375,719.884393223661
0.08,1.0000036133129044,1.000003617549564,0.9607037462585454,-0.24109926759641992,0.2410776713641726,0.010748094200897645,1.0084644350231238,1.0084644350231238,1.0084644350231238,0.0014773226047463442,0.002151276373953711,0.0021515846190407247,-0.5527322049476571,-0.18309041910836793,0.1830182439389902,0.008624652983420411,7.34858369443991,-0.06415957585062917,0.06416142813928945,0.008761938016262733,696.9793165703177,696.9797745417834,704.059049656495,734.7959797922416
0.1,1.000029160771411,1.0000291849936946,0.9509329933951525,-0.5618948625825232,0.561850792026227,0.025189681367203655,1.0124410953000795,1.0124410953000795,1.0124410953000795,0.002171380755407802,0.005583534084107419,0.005583654814033452,-0.46334250524937276,-0.31280183820756247,0.3125394490933587,0.01676520642634617,7.456405308930175,-0.05266611541855673,0.05266960145058342,0.00986580782744519,697.7931930284822,697.7940539313626,710.5146371256625,735.6188752096153
0.12000000000000001,1.000112847456605,1.0001129598426375,0.9434563547926579,-1.0294083858076306,1.029366153006903,0.04662793611081209,1.0170679589746479,1.0170679589746479,1.0170679589746479,0.002978920807029195,0.01065070805850452,0.01064719031534289,-0.3420291418425375,-0.4388753710673171,0.43819486444448497,0.027054889264012755,7.186882382126472,-0.037982851780716545,0.03798836588006651,0.010815492120954982,690.8668319560718,690.8682073578962,709.7500424670675,727.962013589537
0.14,1.0003092343008146,1.0003096522038581,0.9386056136488099,-1.6270582999447003,1.6270439018810314,0.07377650019196455,1.0223018496656648,1.0223018496656648,1.0223018496656648,0.0038924070595064675,0.017015071649594656,0.016997437416350313,-0.20816294562849053,-0.5477565410919331,0.5463318116829475,0.03878423367441143,6.703404050258646,-0.021587920266208933,0.02160281061055031,0.011981367329126164,678.9883172071525,678.992096330048,705.2559714752812,715.7315991515287
0.16000000000000003,1.000686008842862,1.0006872798119841,0.936440032207087,-2.3271281617544664,2.327114672752266,0.10513723810591208,1.0281016352505217,1.0281016352505217,1.0281016352505217,0.004904660603161038,0.024371703315007952,0.024317295699540987,-0.07338043118906454,-0.6305589195528467,0.627993486567663,0.051732549039072394,6.112424288804315,-0.004796746493572139,0.004840464782299447,0.013460837451797446,664.103067052824,664.114411249395,698.9917297065197,701.3636107731422
0.18000000000000002,1.0013178160580443,1.001321090914148,0.9368643080301239,-3.0955908747198495,3.0955139896455184,0.14026035548946797,1.0344281422285617,1.0344281422285617,1.0344281422285617,0.006008844372332979,0.032577309247723306,0.03244519329179849,0.056011044015442546,-0.6830295374048783,0.6788998170581871,0.0659642447730788,5.478226291911969,0.011271898205269436,-0.011172143547577736,0.015024906938356326,647.7788239113432,647.8053606364185,691.6862864692644,686.0718280385101
0.2,1.0022801261771386,1.002287510497122,0.9396967648424541,-3.8954549085111068,3.8954104954731217,0.18062990868406942,1.0412440734599135,1.0412440734599135,1.0412440734599135,0.007198448788098993,0.04168306139248874,0.04140697944292555,0.17643333709576983,-0.7029302635173736,0.6968366963996118,0.08170942256071208,4.840632080182411,0.025683765558065536,-0.025509658612615563,0.016165629975777307,631.5641515859194,631.6116557934091,683.2445263810819,670.2083320531617
0.22000000000000003,1.0036438912745704,1.0036588439904421,0.9447080692834633,-4.688945672674785,4.689571043040548,0.2297627606401013,1.0485139291512704,1.0485139291512704,1.0485139291512704,0.008467277967689249,0.05190652819634141,0.051387304419471515,0.28610729551172975,-0.6904503140347475,0.6820596220825255,0.09889228670663595,4.225543904891551,0.037667521445560244,-0.037429602416824345,0.016268629693683607,616.9975587451022,617.0640052485653,673.1586380629922,653.6514660106275
0.24000000000000002,1.0054716089457363,1.00549934836263,0.9516494945561523,-5.440276740813014,5.443157808920732,0.2924595888026292,1.0562039309649096,1.0562039309649096,1.0562039309649096,0.009809436479012655,0.06356859357672985,0.0626671351035197,0.38441659552171037,-0.6480473141195088,0.6371133065811729,0.11684932176099123,3.6482189141142385,0.04673921757342014,-0.04648526622928548,0.014834479284030285,605.3272146170644,605.3995056064989,660.8791451774026,636.1063711395446
0.26,1.0078147022452344,1.007862576614342,0.9602705798217406,-6.117855548486844,6.125713703222265,0.37351749921999405,1.064281949131862,1.064281949131862,1.064281949131862,0.01121931661950504,0.0770187783557634,0.07555164096791367,0.4714231572501105,-0.579881285039911,0.566241538112658,0.13424297982687589,3.116941905820809,0.05268229441800454,-0.052484359788968156,0.011652824403806812,597.2515359217815,597.3086434717321,646.116465607302,617.4307044368996
0.28,1.0107121104768788,1.0107898933164017,0.9703301540086064,-6.695969858947668,6.71242354958603,0.47631438100428514,1.0727174324545787,1.0727174324545787,1.0727174324545787,0.012691586199289815,0.09256496728076095,0.09030514214047838,0.5475603523493133,-0.49126072774119267,0.47481821571465027,0.1492186315082316,2.635323818544509,0.055525678962452724,-0.055446704911378375,0.006889806194648313,592.7490304416982,592.7719895458331,629.02779596906,597.8538317392764
0.3,1.014189886303251,1.014309964051638,0.9816029881250611,-7.1559038116767235,7.184763774099183,0.601680236908861,1.0814813410887232,1.0814813410887232,1.0814813410887232,0.014221176809387628,0.11041702308204711,0.10710269598916695,0.613439747845139,-0.38811586522863306,0.3688227745700455,0.15975631995124293,2.2038349050061057,0.055504997136120206,-0.05555753412308487,0.001070512786458611,591.0941984735259,591.0788818204135,610.275155859519,578.0639518941706
0.32,1.0182615668900672,1.018438997506093,0.9938835111598917,-7.486425819174162,7.530689460609132,0.747354957281897,1.0905460819978392,1.0905460819978392,1.0905460819978392,0.015803272556430617,0.13064872055701932,0.12600178713176174,0.6697358245459795,-0.27651520424603837,0.2543761382093606,0.16411182956967327,1.8208581138044637,0.053010013070385754,-0.05312491560809361,-0.005029925210959732,591.0617508924441,591.0282498086501,590.9616698919339,559.156656033693
0.34,1.0229287810126424,1.0231812060307723,1.0069851024988552,-7.683761675387297,7.744554180322879,0.907901398577907,1.0998854469786101,1.0998854469786101,1.0998854469786101,0.01743329924602973,0.15317878016351208,0.14693358352055705,0.7169388130981043,-0.16237132063103543,0.13747212348618174,0.1609655048928997,1.484477647463601,0.04851141567317649,-0.048525895151362186,-0.010484311573208156,591.1593403570204,591.1551195092402,572.5911501157191,542.6016961830221
0.36,1.0281835445023362,1.0285310035357549,1.0207482450367193,-7.750268206104665,7.826409244134729,1.0765441814385894,1.1094745531582542,1.1094745531582542,1.1094745531582542,0.019106913997610955,0.1777728913828209,0.16970787282670963,0.7562552512564792,-0.05027533590837859,0.022838215021008336,0.1511187414989049,1.188677569603992,0.042558976909047655,-0.04226068583097683,-0.014722403861796695,590.3487580067242,590.4358241626383,556.1995140184463,529.2680812550475
0.38,1.0340089334792415,1.0344735404000984,1.0350340727403926,-7.6940833424585096,7.781877775580203,1.2449033887068204,1.1192897858692772,1.1192897858692772,1.1192897858692772,0.02081999527417895,0.20406287020007108,0.19403375184838945,0.7878099602478663,0.05462606038842347,-0.08414262767608119,0.13443388244278426,0.9293815339066098,0.0356234110050847,-0.0347702590115873,-0.01704492082650539,587.4336739550432,587.6838955975601,543.1791785511194,520.3675220339677
0.4,1.040379813961061,1.0409853172280064,1.0497171075720229,-7.527774069791759,7.621590473162814,1.4049936545514206,1.1293087438103564,1.1293087438103564,1.1293087438103564,0.022568633311085596,0.23156288489703822,0.2195309477639494,0.8122477846526739,0.1492538581986933,-0.1801635790422221,0.11310998382512664,0.7050070857237665,0.028116797987297645,-0.026505600522194056,-0.017216304849967033,581.9787066467701,582.4555915357539,534.275967655718,516.3575651208441
0.42,1.0472656339355355,1.048036963750993,1.064693224452444,-7.266112213839733,7.35947899489709,1.550617140882051,1.1395101864055415,1.1395101864055415,1.1395101864055415,0.02434912092847735,0.2597280023076666,0.24576860958120092,0.8302162051158166,0.23136624107432407,-0.26272258309212004,0.0895346626657284,0.5101265575214262,0.02045722150571334,-0.0179693117820532,-0.015385832020469302,574.0235459909378,574.769947365711,529.4398322822583,516.7811777195387
0.44,1.05463112006675,1.0555938738683488,1.0798721837098366,-6.925696521706122,7.01263065177941,1.6780251317569062,1.1498739832772504,1.1498739832772504,1.1498739832772504,0.02615794471266946,0.28798511190264936,0.27227890879772765,0.8421770888970093,0.29904387505067226,-0.329628554691794,0.0664035463906266,0.3418697869153964,0.012917130106152221,-0.009553487438495932,-0.011950732728952154,564.0501250888105,565.0768328778855,528.1243113227523,520.7405910531342
0.46,1.0624378738586322,1.0636178011808817,1.095177599946136,-6.52345210924624,6.599584267708308,1.7861378062833473,1.1603810657517075,1.1603810657517075,1.1603810657517075,0.027991776552248132,0.31577640917207844,0.2985822531133122,0.8488191514144032,0.35210853314091656,-0.38063541075941554,0.04599725743618162,0.19695306542943913,0.005728479574155017,-0.001600163661711087,-0.007466549166110461,552.7984791451395,554.08391740809,529.4001142707689,527.0091606316296
0.48,1.070645682690219,1.0720681786038793,1.1105456509287248,-6.075777305294944,6.139111120812558,1.876492630362692,1.1710133803185205,1.1710133803185205,1.1710133803185205,0.029847465515234546,0.3426046452072712,0.32421803962702544,0.8507288005540639,0.3905433221227316,-0.41574106600715843,0.03023941918339258,0.07222275285291269,-0.0009548432294329244,0.005649423402539867,-0.002584769995661956,541.2185776620298,542.7112873729321,532.1081938619409,534.2427335190615
0.5,1.079213450568308,1.0809030579411238,1.1259219351806495,-5.598842237476769,5.650072867129601,1.9527008954683414,1.181753843969038,1.181753843969038,1.181753843969038,0.03172203005415756,0.3680449167271592,0.34875041124600614,0.8485234354522653,0.41435767752859876,-0.4350994525505998,0.020372080699474254,-0.0345057560848252,-0.006970880321573308,0.011978220570271193,0.0020795863795312853,530.2985050171749,531.9231995228698,535.178920419202,541.2460688094064
0.52,1.0881002037476208,1.0900801411519536,1.1412595386377713,-5.107763387140854,5.150071586013881,2.0195971003073194,1.1925863013409523,1.1925863013409523,1.1925863013409523,0.03361265052637594,0.39176484221341296,0.37179221633049775,0.8427504082411886,0.4248168013096486,-0.4402526476488207,0.01666291350530647,-0.12487023859548474,-0.012216831671438966,0.017273515442418085,0.00605164336594684,520.8693288732445,522.5396155619705,537.7896832321651,547.1577711854718
0.54,1.0972660071141787,1.0995577335513642,1.1565177848039114,-4.616155526535251,4.654632778699667,2.0825111765922193,1.203495483599345,1.203495483599345,1.203495483599345,0.03551666201746696,0.41353550309227644,0.3930267023297379,0.8340120642198361,0.4231295256009961,-0.4327808517769795,0.018772657934229886,-0.2001956059163188,-0.016634247438447963,0.02150278693854115,0.008998625942603835,513.5636951531184,515.1947368748738,539.3622018399388,551.4123311931581
0.56,1.1066728186688408,1.109295650073198,1.1716623836575657,-4.136336844609167,4.177187473339189,2.146487979927061,1.2144669689869947,1.2144669689869947,1.2144669689869947,0.037431547455956296,0.43322105863231447,0.4122117269426944,0.8229175547701795,0.4106372411269793,-0.41443716534172204,0.02575417643876892,-0.26205819077875203,-0.020152518078408538,0.024647966389945056,0.010773833889736502,508.6825493337218,510.2031924629638,539.6286055855759,553.7504602047675
0.5800000000000001,1.1162851683323425,1.1192559560797781,1.1866657945598953,-3.6786524673701724,3.728364718838443,2.215485271649516,1.225487144979297,1.225487144979297,1.225487144979297,0.0393549310081054,0.45077227616489146,0.4291930955205802,0.8101396170703958,0.38951846251402344,-0.3877364365085388,0.035983463796514924,-0.3123834983253393,-0.02277581947191699,0.026777051275934962,0.011454738185866273,506.0896579764764,507.4502647618515,538.658467968851,554.2845847613343
0.6,1.1260704913556887,1.129403356081056,1.20150477464916,-3.251793914607032,3.3164129689024135,2.2925405356771664,1.2365431719815798,1.2365431719815798,1.2365431719815798,0.041284571741897744,0.46621728868212886,0.44390576094776424,0.7960519199230477,0.36069753964652224,-0.3540469190501564,0.048487455724630805,-0.35224419809669794,-0.02451486910506304,0.027963118409002733,0.011118061347196676,505.63992204546,506.8137468404693,536.5330880113146,553.1314086995925
0.62,1.1359993361755425,1.1397054726151534,1.2161577248382627,-2.863380284907003,2.947848700104269,2.379345192654853,1.2476229485089423,1.2476229485089423,1.2476229485089423,0.043218357549774336,0.479630057890175,0.4563483132812708,0.7810868947721261,0.32576156424978125,-0.31524140516999505,0.061666014527393134,-0.38169520167775683,-0.025345738248465324,0.028247023265543257,0.00999127724590041,506.91649840807713,507.90182878897934,533.6241503101978,550.6591892787619
0.64,1.146045815935851,1.1501334148877222,1.2306079426136323,-2.5186536998696925,2.6264927556680053,2.4761875191550216,1.258715077791005,1.258715077791005,1.258715077791005,0.04515429932006303,0.4911348299479174,0.4666015354704348,0.7656914885050523,0.2867909430467691,-0.2735340774601453,0.07420379972806336,-0.40223785298549053,-0.025346434919592306,0.027751135249719373,0.00837231970036591,509.32152784186377,510.13449358926806,530.3584030013049,547.3391784730431
0.66,1.156187661120499,1.1606619301257757,1.2448428353668544,-2.2206721897925155,2.353884899275873,2.5822980749302427,1.2698088357461321,1.2698088357461321,1.2698088357461321,0.04709052534742583,0.5008927515621424,0.4748126334952703,0.7502278731865071,0.2456660784015936,-0.23083080902963501,0.08520813836293703,-0.41518151744458753,-0.024623596043894126,0.02660934246833667,0.00652505080003209,512.3267316916633,512.994220114429,527.1112116181032,543.6025409750257
0.68,1.1664061632761198,1.1712694444434528,1.258853125047694,-1.9704930862381491,2.1295857048726905,2.696022600287282,1.28089414027178,1.28089414027178,1.28089414027178,0.04902527597301368,0.5090888054397568,0.48117866927565744,0.7349541258410343,0.2040841410237561,-0.18882858088618287,0.09396939556390665,-0.42161526986673203,-0.02329302241980946,0.024955947234937007,0.004711366242023877,515.4234829733018,515.979162189718,524.2681393350597,539.8945699394544
0.7000000000000001,1.176686030929499,1.1819380115324962,1.2726323919757943,-1.7674296553355335,1.951565076413296,2.8153444531372034,1.2919615217996443,1.2919615217996443,1.2919615217996443,0.050956898445370026,0.5159213685287634,0.4859281840731208,0.7200726644378266,0.16346993825390735,-0.14883810631453423,0.10036632031799783,-0.4225293350760133,-0.021471299990431344,0.02291476483297649,0.003091105393720068,518.29924404289,518.7789493115142,522.0482499752145,536.499846495631
0.72,1.187015172109886,1.192653178257453,1.2861768648932919,-1.6092851845135934,1.8165202724261116,2.9381137136500577,1.3030020950662171,1.3030020950662171,1.3030020950662171,0.05288384199346364,0.5215935414933033,0.48930535643524564,0.7057206530476319,0.12509204630941534,-0.11197711699288153,0.10440955099582339,-0.4189072314800323,-0.01927589615126374,0.02060188324477468,0.0017788219328509144,520.7292796874859,521.1679055269673,520.5943626764765,533.6313470067197
0.74,1.1973844060105412,1.2034037622822082,1.2994849803717103,-1.492558312787271,1.720094172656855,3.0623007869569396,1.314007532051236,1.314007532051236,1.314007532051236,0.05480465310355702,0.52630682794998,0.4915578202718692,0.691979842383085,0.09001193697767047,-0.07912527971077832,0.10635549141402219,-0.4116200070529682,-0.016826970621026137,0.01813245484990003,0.0008278169673771566,522.6030586469718,523.0333580165096,519.9431045426394,531.4034620644584
0.76,1.2077871257236643,1.2141815618379517,1.312557044789492,-1.4128017136757893,1.657251825055161,3.1862327647637603,1.3249700360383079,1.3249700360383079,1.3249700360383079,0.056717970991931085,0.5302547867189698,0.4929242605158689,0.6788845452205933,0.058940377217785445,-0.05078834567243039,0.1066474959504595,-0.4014568500866178,-0.014231175696428514,0.015603615174866903,0.0002242054804133557,523.9303098939231,524.3815238189911,520.017136479038,529.81168197755
0.78,1.2182189354439015,1.2249810184405265,1.325395039392006,-1.364676053069469,1.6223231217380225,3.3086013272754067,1.3358823167537208,1.3358823167537208,1.3358823167537208,0.058622523265789456,0.5336187326827979,0.49362746179392536,0.6664430756413044,0.03274859066880585,-0.02762621373292144,0.10565547157398536,-0.38917642601862446,-0.011605172544592266,0.01312007070544462,-6.204170438109261e-05,524.7483053900821,525.2455572978536,520.7055186443673,528.8249442066008
0.8,1.228677257778281,1.23579882624176,1.3380023251630593,-1.3421912288178381,1.609228917212161,3.428586358434218,1.3467375665411305,1.3467375665411305,1.3467375665411305,0.060517121764956605,0.5365654610281075,0.49386976358510937,0.654620893747765,0.011791002270831522,-0.009789612730877601,0.10388571479037709,-0.37545780580565624,-0.00905933786968774,0.010777880033572907,-0.0001084254722258462,525.1777518744901,525.7413514866028,521.8169991918975,528.3274565736584
0.8200000000000001,1.2391609206700769,1.2466334980138798,1.3503831873576064,-1.3392641847255606,1.6120092464777949,3.545824971985116,1.3575294375314086,1.3575294375314086,1.3575294375314086,0.062400658577264755,0.5392395485493644,0.49382364493006464,0.6433605222885943,-0.0038823178060436647,0.002853782967068226,0.10175200256378272,-0.3608222277682025,-0.006666838125678082,0.00863475811865971,-3.966469946775717e-06,525.3625126258763,526.0076193713707,523.1572760445905,528.173502561126
0.8400000000000001,1.2496697634769787,1.2574849312939547,1.36254250386419,-1.3499842935320183,1.6250412463989627,3.660303174330635,1.3682520197684918,1.3682520197684918,1.3682520197684918,0.06427210222079437,0.5417610526424196,0.49363038795432085,0.632586022808578,-0.014498193461982545,0.010671912446140512,0.0995560419959883,-0.3456723185898191,-0.004482155314460197,0.006730536252169862,0.00017254806869551045,525.4311029643253,526.1679875518436,524.5606354704659,528.2313203116995
0.86,1.2602042739800001,1.2683539908694206,1.3744855910798304,-1.3687196291760668,1.643111129243712,3.7722444009961174,1.3788998202535583,1.3788998202535583,1.3788998202535583,0.06613049398639297,0.5442246726040285,0.49340058070430526,0.6222246845151211,-0.02026059314003935,0.013992278500539667,0.09749254185734632,-0.3303584032718737,-0.0025518870858108594,0.0050973278766690494,0.00035775039705963625,525.4864164198704,526.3204945992946,525.8938267140495,528.394386800924
0.88,1.2707652581219018,1.279242112786523,1.3862181374816265,-1.390153879449027,1.661423035925771,3.8820027255062524,1.3894677428712927,1.3894677428712927,1.3894677428712927,0.0679749444341474,0.546701186626505,0.4932170611827356,0.6122007429330101,-0.021485366020167353,0.013224107479509436,0.09565879983733976,-0.3152117119452208,-0.0009195711303189927,0.0037641871577539666,0.0005069662807698576,525.5993035675748,526.5311274796392,527.0588676776647,528.5880369981895
0.9,1.2813535410708907,1.2901509309117882,1.3977462114938628,-1.4093337749965495,1.6756289327989484,3.989980462325348,1.399951069163379,1.399951069163379,1.399951069163379,0.06980463003772532,0.5492379406440387,0.49313658612087813,0.6024504099227833,-0.018460851014094743,0.00874496757861913,0.09408523210591122,-0.30057458812259263,0.0003758143057358762,0.002754959085366276,0.0005920723559401271,525.8115714009389,526.8366287463587,527.9884613153633,528.7643996693857
0.92,1.2919696895292982,1.3010819182356788,1.4090757602554393,-1.4220278081526438,1.682105211528181,4.096515995553227,1.410345439915693,1.410345439915693,1.410345439915693,0.07161878997073409,0.5518589021534382,0.493190839007846,0.5928770185863566,-0.011976900502300138,0.0013290269165994533,0.09270856522490475,-0.286581365009427,0.0013280259277416735,0.002066159648936576,0.0006128239488178072,526.1213842284693,527.2319423507739,528.679261532405,528.9198051109654
0.9400000000000001,1.3026137852714954,1.3120360804638092,1.420212345073517,-1.4248943386860466,1.6780702658226747,4.201852604619293,1.4206468375269439,1.4206468375269439,1.4206468375269439,0.07341672302946818,0.554564519323477,0.49338655877777776,0.5834061569198556,-0.0027268091563462946,-0.008349926915724054,0.09146288004570294,-0.2732447311349847,0.0019526145372424225,0.0016763060011233122,0.0005799036799104463,526.5106451325532,527.6970449167588,529.156334426565,529.0663438534277
0.9600000000000001,1.3132852607292063,1.3230137191303075,1.4311612187622964,-1.415359068568747,1.661456447604564,4.3061319004508345,1.4308515691277455,1.4308515691277455,1.4308515691277455,0.07519778468663119,0.5573369161546736,0.49371108202066083,0.5739689927200896,0.008607610309709801,-0.01965673208562694,0.09028035263161358,-0.2605950136151962,0.0022640301320877142,0.0015656833036574508,0.0005096742638085774,526.9508186598913,528.201742304024,529.453226547376,529.2258809214896
0.98,1.3239827852313786,1.3340142536282127,1.4419276804837273,-1.3915278394028003,1.6308436847205192,4.409384713554141,1.440956250420284,1.440956250420284,1.440956250420284,0.07696138427082592,0.5601427369037719,0.4941355837210599,0.5645502485393126,0.021518959531589298,-0.03207202449490563,0.08908458112384958,-0.24880258014304563,0.0022775726613848543,0.0017121767798719111,0.000425161171460789,527.3982675139146,528.7002973924208,529.6113605321151,529.427359363138
1.0,1.334704190093805,1.3450360889206165,1.4525172906003343,-1.3521280933975468,1.5854112968380802,4.511557469714685,1.450957790209892,1.450957790209892,1.450957790209892,0.07870698226680474,0.5629376153661756,0.4946197036455974,0.5551163196127475,0.035380457482584934,-0.04502108712486436,0.08783535869276844,-0.23812897425970672,0.0020107833600568467,0.002090586145254281,0.00034699752202249217,527.8112517013057,529.1486174000408,529.6661970367727,529.6921600402911
1.02,1.3454464125708354,1.3560765084383979,1.462934970673828,-1.2966766688669618,1.5250083048609455,4.612546111218662,1.4608533756009348,1.4608533756009348,1.4608533756009348,0.08043408773166419,0.5656680970217499,0.4951118676001852,0.5456218913117137,0.049528767734415745,-0.05794426746909925,0.08652076250180311,-0.22845300140353444,0.001502330290547002,0.002663408965899571,0.00029034665503038684,528.1667789494713,529.5241952649172,529.6596714990466,530.037295629004
1.04,1.3562055000507869,1.3671316421305997,1.4731851454382663,-1.2253854112169043,1.45006862635369,4.712221636996348,1.470640457830474,1.470640457830474,1.470640457830474,0.08214225582235306,0.5682749409940673,0.495552635521311,0.5360454397024881,0.06337234665881941,-0.07034382853569757,0.08514570412396559,-0.21969173332029399,0.0007939015500917665,0.00339087934263163,0.000265749666366871,528.4487160589365,529.8116035082735,529.625513858448,530.4698261090327
1.06,1.3669766497301876,1.378196484769977,1.4832718748234597,-1.1390812310247174,1.3615409689739322,4.81045841445593,1.4803167387141933,1.4803167387141933,1.4803167387141933,0.08383108543003998,0.5706964187767882,0.4958781126788705,0.5263799374095717,0.07639032783741653,-0.08179203431655949,0.08373533159814504,-0.21180091614130322,-7.041748583867758e-05,0.004231613513313313,0.0002773355408847586,528.6508262491946,530.0055256785448,529.5859724894876,530.9839944422249
1.08,1.3777542775221796,1.3892649574718148,1.4931988959508242,-1.0391483762288336,1.2608319580972773,4.9071580013976215,1.489880157680047,1.489880157680047,1.489880157680047,0.08550021691705813,0.572871165797494,0.49602283889065635,0.5166330607794127,0.08809855574719527,-0.09189879638825353,0.08232774850586803,-0.20474050776384795,-0.0010428363085668445,0.0051421103021600904,0.00032284407185085727,528.7775159836549,530.1117628039548,529.5531050849494,531.561981620574
1.1,1.3885321133752895,1.4003300095667373,1.5029696244925705,-0.927449111107156,1.1497313939980405,5.0022689247871295,1.499328879366037,1.499328879366037,1.499328879366037,0.08714932995230933,0.5747407995600095,0.4959225731858462,0.5068201470017792,0.09810490844332899,-0.10036234533607169,0.08096977936423466,-0.1984586447012186,-0.002074055800280956,0.006078745013242179,0.00039370704069299344,528.8441566858477,530.1474917011234,529.5286768655905,532.1752456773992
1.12,1.3993033180253966,1.4113837554155833,1.5125869955126376,-0.8060730732942661,1.0301738335999695,5.095782579372393,1.5086612817594385,1.5086612817594385,1.5086612817594385,0.08877814144116787,0.5762531807415446,0.4955181457660238,0.49695396706661327,0.10628207823715671,-0.10713204795698625,0.07969043604807202,-0.19282258535719465,-0.0031294285278633785,0.007013311012708792,0.00048058152672563213,528.8695376992314,530.1335422514028,529.5104563251474,532.8011172975032
1.14,1.410060609108259,1.4224176302775071,1.5220535368008745,-0.6772643107639184,0.9041762917182453,5.1877385837243475,1.5178759448556522,1.5178759448556522,1.5178759448556522,0.09038640354607731,0.577363801553542,0.49475743165454517,0.48706076560883493,0.11245442917824358,-0.11210251482627571,0.0785214678930841,-0.18771407667975154,-0.004176019977790772,0.007919970776154276,0.0005709788559812767,528.8773601643563,530.0958584880714,529.4897172052789,533.4119029547119
1.16,1.420796389683778,1.4334225565486338,1.5313715086877737,-0.543429732224783,0.7738557837926563,5.278214779038999,1.5269716398157231,1.5269716398157231,1.5269716398157231,0.09197390179418023,0.5780357553103934,0.4935958256059389,0.4771738184639574,0.11650418176071162,-0.11521449743532142,0.07747956886276759,-0.18306050869091253,-0.0051763219767903285,0.008768994688136196,0.0006531204019410402,528.8887195067713,530.0580124296181,529.4590746058504,533.9786340697482
1.18,1.4315028797683496,1.4443891206803412,1.540542940550116,-0.4070658638807631,0.6413660857731175,5.3673168434516985,1.5359473186023556,1.5359473186023556,1.5359473186023556,0.0935404532684617,0.5782405282044679,0.49199766538838985,0.46733157018307026,0.11835492183282492,-0.11644276039061148,0.07656956461535876,-0.17879493419110618,-0.006095363048930401,0.009533779178845545,0.0007164377452704574,528.9223649997258,530.0414346087737,529.4121527321603,534.4752846504916
1.2,1.4421722482080552,1.455307756726641,1.5495696051593926,-0.2706017403535553,0.5087669996793717,5.455155839313512,1.544802104075048,1.544802104075048,1.544802104075048,0.09508590487902416,0.5779587586303052,0.4899377483692165,0.4575683809887695,0.11812704419472095,-0.1159251277967045,0.07577242745886914,-0.1748305413354896,-0.006909114086546943,0.010197670125490445,0.0007552089185085755,528.9893768377268,530.0595867956265,529.3480881198828,534.8880928789997
1.22,1.45279673687277,1.4661689243773788,1.5584530576048663,-0.13632612476689587,0.37796697938306434,5.541839877296123,1.5535352805257112,1.5535352805257112,1.5535352805257112,0.09661013171124123,0.5771803013202671,0.48740193564091755,0.44792162495540183,0.11591012889799449,-0.11376876234656101,0.07506674539829973,-0.17108781173986803,-0.0075991305578900735,0.010749123382455202,0.0007657166286660199,529.097237389322,530.1221891067181,529.2675344309827,535.2082496817233
1.24,1.4633687736415195,1.4769632759510307,1.5671946785736515,-0.006332326639799526,0.25068536054744833,5.627459230920272,1.5621462846368617,1.5621462846368617,1.5621462846368617,0.09811303544766466,0.5759035760494533,0.4843867494646513,0.4384233591683032,0.11192628959482569,-0.11018278985015564,0.07441820091825437,-0.16749775359496266,-0.008152072588913081,0.011180789975353916,0.0007483388665502223,529.2461997448473,530.2314503976371,529.1764120420321,535.43512129734
1.26,1.4738810726229452,1.487681809162156,1.5757956693312254,0.11758149583793799,0.1283783649260045,5.712080397227979,1.5706346968451699,1.5706346968451699,1.5706346968451699,0.09959454286067927,0.5741352860148791,0.48089936381709925,0.4291016921126327,0.10642526637236724,-0.10539137871747228,0.07379314588774968,-0.1639825515312096,-0.008564568472298147,0.01149336317044094,0.0007057819241321193,529.4330450487107,530.3854841176405,529.0819772135429,535.575138135391
1.28,1.4843267160046218,1.4983159960287393,1.5842571584223037,0.23387539190584242,0.012275830295587592,5.79574013070161,1.5790002330938189,1.5790002330938189,1.5790002330938189,0.10105460437301789,0.5718890200025344,0.47695606395160334,0.41998479230589536,0.0996168178272864,-0.09958111620302057,0.0731559557282961,-0.1605037064031057,-0.008832638652604302,0.011686804413503187,0.0006433393457646306,529.6490206819533,530.5768339558365,528.9950925738042,535.6378052417703
1.3,1.4946992215006492,1.5088578931433232,1.5925802303095593,0.3412918499611328,-0.09663045605400832,5.8784481663683135,1.5872427369577646,1.5872427369577646,1.5872427369577646,0.10249319268335996,0.5691843473694019,0.47258111911147604,0.4110930300766539,0.0917750911619182,-0.0929817527480828,0.07247938865623493,-0.15703185873186232,-0.008956716368995993,0.011764261915380516,0.0005668290810954056,529.8844250414342,530.7966915970793,528.9260431365221,535.6344545467387
1.32,1.5049925950143754,1.5193002315661452,1.60076591943094,0.43890353655541314,-0.19761721930863252,5.960187719261314,1.5953621721266116,1.5953621721266116,1.5953621721266116,0.10391030145434597,0.5660460588852619,0.46780581889857975,0.40244211492034837,0.0831780839224058,-0.08582038862266816,0.07173878278926754,-0.15353287638651153,-0.008944314677517318,0.011734059725970936,0.00048308166293214896,530.1282661350893,531.0343374034721,528.8850031097081,535.5802207192714
1.34,1.515201365699081,1.52963648088758,1.6088152903299522,0.526096766167162,-0.29021188648067536,6.040916639620047,1.6033586152304138,1.6033586152304138,1.6033586152304138,0.1053059440604434,0.5625029339815087,0.4626668795141623,0.39404443044725335,0.07410140353014513,-0.07831754293121831,0.07091434100046205,-0.150004887225982,-0.008805280495118266,0.011605990672113122,0.000399752115963373,530.3674015510388,531.2766216564884,528.882059650202,535.491364900872
1.3599999999999999,1.525320607508913,1.5398608928034647,1.6167293706337567,0.6025597325572599,-0.3741750184358611,6.120590291858723,1.6112322489942803,1.6112322489942803,1.6112322489942803,0.10668015239320006,0.5585868721042566,0.45720495586786586,0.3858989227431382,0.0647988294333899,-0.0706663747462624,0.07001474161287444,-0.14641743542094118,-0.008551943719820213,0.011391059804580357,0.00031948429325169705,530.5983381344411,531.5196150317618,528.918822455258,535.3769705650845
1.38,1.535345945346392,1.5499685204165077,1.6245092108220047,0.668288897898723,-0.44950172182613995,6.199144977782053,1.61898335570822,1.61898335570822,1.61898335570822,0.10803297572151693,0.5543316606817584,0.4514631512967937,0.3780111182720385,0.0555585213164583,-0.06308925841502606,0.06901994958121781,-0.14276412361509697,-0.008201154169513242,0.011103331766759424,0.000249489526045696,530.8092986341741,531.7506468958952,529.0028836648041,535.2544861504078
1.4,1.5452735458900195,1.5599552127596523,1.6321560604478633,0.7236053945921236,-0.5164364043255909,6.276508896537063,1.6266123109991861,1.6266123109991861,1.6266123109991861,0.10936447960466493,0.5497723079447916,0.4454861121427454,0.37037945979393444,0.046645273516887166,-0.055785457404235836,0.0679397766891876,-0.1391148356276998,-0.0077755547526448384,0.010761324190670735,0.00019489131734395105,530.9902333080953,531.9583412764068,529.134436598631,535.1373742794458
1.42,1.555100099636553,1.5698175933771752,1.6396711532022417,0.7690533587091254,-0.5753841708387069,6.352626174199119,1.634119577892795,1.634119577892795,1.634119577892795,0.11067474485585933,0.5449438691643838,0.43931797065336886,0.36298978556690364,0.03823159980579545,-0.04887529198828988,0.06679671155732919,-0.13545267904153216,-0.0072926856839217735,0.010378498148529076,0.00015478710791394008,531.1438526575444,532.1440793139179,529.3073075970748,535.0295509437806
1.44,1.5648227907253047,1.579553017951935,1.647055739335814,0.8053748163386575,-0.6268906101997835,6.427453695783733,1.641505701152684,1.641505701152684,1.641505701152684,0.11196386655429129,0.5398804681857504,0.4330011076543679,0.3558297123762345,0.030502703817033926,-0.042489477491780905,0.06560747516593675,-0.13177391310303102,-0.006771512237220887,0.009968975790448292,0.00012850312938831774,531.2722278846085,532.3083596326542,529.515012614398,534.93530232763
1.46,1.5744392597079062,1.5891595182062137,1.6543110956758076,0.833461561560188,-0.6716052253448014,6.500965543787321,1.648771301885942,1.648771301885942,1.648771301885942,0.11323195310359796,0.5346147254919523,0.426575335514716,0.34888140306524795,0.023558684339114296,-0.03669197786546975,0.06439412161569227,-0.12807938114192022,-0.006229812055740127,0.009545633516314597,0.00011369044914908815,531.380188860775,532.4544176926911,529.7484491709195,534.8555370024541
1.48,1.5839475609953353,1.5986357349659222,1.661438533042235,0.8543202560200504,-0.7102552498090846,6.5731500203175095,1.6559170724035073,1.6559170724035073,1.6559170724035073,0.11447912533483248,0.529177053176167,0.4200770146216642,0.34212963265705126,0.017516960264163328,-0.03156188087022054,0.06317295885723308,-0.12437376917871663,-0.005684872880767015,0.009120662086185706,0.00010811259585098192,531.4722913823526,532.5851531349542,529.9988050592417,534.791060681431
1.5,1.5933461169650616,1.6079808434421665,1.6684393929461767,0.8690260955640741,-0.743611975894266,6.644009186521569,1.6629437713248554,1.6629437713248554,1.6629437713248554,0.11570551565207107,0.5235953396243496,0.41353864026404025,0.3355547609046623,0.012403523159318641,-0.027108837034121508,0.061959711278322574,-0.12066127628848834,-0.005152043547692557,0.008704570558144355,0.00010909096561491951,531.5538182557311,532.7042747698308,530.2571220826164,534.741352466264
1.52,1.6026336701952542,1.6171944734934378,1.675315046975817,0.8786857918284797,-0.7724646000370171,6.71355594262568,1.6698522189167302,1.6698522189167302,1.6698522189167302,0.11691126721886796,0.5178944777566523,0.4069883018366873,0.329141010627522,0.008265267241233495,-0.02336162832024198,0.06076573362913664,-0.11694672330107433,-0.004645042116629755,0.008306492395886524,0.00011417396255881022,531.6295994366177,532.8151219578663,530.5153209288193,534.7057765733671
1.54,1.6118092357525053,1.6262766281318066,1.6820668892233501,0.8843989445844032,-0.7975933893713858,6.7818110907501445,1.6766432926560675,1.6766432926560675,1.6766432926560675,0.11809653318383956,0.5120963159979544,0.4004496440722528,0.3228693119309242,0.005063289552318283,-0.020285111089012486,0.05959890850551077,-0.11323258221257392,-0.004175296549132376,0.007933769810869028,0.00012125741451902908,531.703848364793,532.9205800510779,530.7666633895659,534.6836962882816
1.56,1.6208720556346,1.6352276037565983,1.6886962698660575,0.8871758317366852,-0.8197086370701182,6.848800737268634,1.683317923007654,1.683317923007654,1.683317923007654,0.1192614759437269,0.5062193244274814,0.3939415154318584,0.3167208951280828,0.0027147799305495936,-0.017812828442060953,0.05846338904158619,-0.10949339543949833,-0.0037474206832959545,0.0075884629168525945,0.0001286116061187427,531.7806522439905,533.0239036585031,531.0078002040875,534.673928325848
1.58,1.629821554756126,1.6440479134063393,1.6952046064495006,0.8879988764614266,-0.8395035413095595,6.914554327676344,1.6898770894074386,1.6898770894074386,1.6898770894074386,0.12040626644235113,0.5002789418793565,0.3874784979350179,0.3106878884081663,0.0012382854327265924,-0.015963021481669216,0.05736258518512995,-0.1057503660427137,-0.00337133514540412,0.007277107766264047,0.00013481707906857164,531.8624145245838,533.1263988578431,531.233050445054,534.6761191494913
1.6,1.6386573005675358,1.6527382147896703,1.7015933869786288,0.8878072049082127,-0.8576455979029155,6.979101010332964,1.6963218164427694,1.6963218164427694,1.6963218164427694,0.12153108350393928,0.4942879169681655,0.3810713295193904,0.304755704994709,0.0005408435066696121,-0.014668231571729709,0.05629533303200346,-0.10202827411312113,-0.003055751601380189,0.007005495186199702,0.0001392895374481617,531.9499287450802,533.2279161035077,531.4383963610447,534.6909292184038
1.62,1.6473789666234744,1.6612992438985894,1.707864057262996,0.8873955196602766,-0.8746996663202906,7.042469017789378,1.7026531702211818,1.7026531702211818,1.7026531702211818,0.12263611319935808,0.48825590361196597,0.37472651869794765,0.29891215258166415,0.0005100237479708648,-0.013849254196860023,0.055259629767309325,-0.0983056810222,-0.0028001875683214875,0.006772359600382141,0.00014162438965809377,532.04460309642,533.329610555438,531.6240384473242,534.7179705342718
1.6400000000000001,1.6559862998175532,1.6697317562606178,1.7140180458227763,0.8874249591678137,-0.891138981143574,7.104684523183549,1.7088722549196904,1.7088722549196904,1.7088722549196904,0.12372154824385181,0.4821899396135446,0.36844700817956666,0.293146494029037,0.0010221516040994426,-0.013419466224649308,0.05425239262588655,-0.09457071938864411,-0.0026039361350092367,0.006576587786830256,0.000141761802104259,532.1469283986835,533.4318443033392,531.7905157235434,534.7571702117394
1.6600000000000001,1.6644790924968114,1.6780364774114789,1.7200568155218474,0.8884342024847579,-0.9073594749265159,7.165771011687832,1.7149802095068607,1.7149802095068607,1.7149802095068607,0.12478758742493595,0.47609479063064447,0.36223269485748055,0.2874556023242672,0.0019845759695422643,-0.013324453570382658,0.05327033888088295,-0.09083345249761052,-0.002465999620415712,0.006417494093343169,0.00013989646880873562,532.2562389547146,533.5340581182036,531.9381767321738,534.8083119495367
1.6800000000000002,1.672857160553758,1.6862140640885828,1.7259818459571636,0.8908335104997087,-0.9236752408171746,7.225749069667041,1.7209782046302446,1.7209782046302446,1.7209782046302446,0.1258344350591521,0.46997339843402164,0.35608103100677674,0.28183222778840966,0.003267953867997257,-0.01347590946339718,0.05230989348998129,-0.08709768104470733,-0.0023834495663830574,0.006293118925047454,0.00013639231387655183,532.3716445008207,533.6356810212704,532.0683493767949,534.8711228416947
1.7000000000000002,1.6811203273714088,1.6942650761658664,1.7317945541352824,0.8948808581940276,-0.940295188902698,7.284637086918867,1.7268674396620585,1.7268674396620585,1.7268674396620585,0.1268623004764415,0.46382702893329436,0.349987358575089,0.2762708373633083,0.0047464026362690715,-0.013787802810512884,0.05136795983951788,-0.08333378787743198,-0.00234964022448844,0.00619843161987161,0.00013154789082022553,532.4931806050809,533.7372742455343,532.1842634392704,534.9450377110483
1.72,1.6892684099895252,1.7021899554392061,1.7374963963181511,0.9007083426072074,-0.9573524368638537,7.342450803476861,1.7326491398962676,1.7326491398962676,1.7326491398962676,0.12787139753094426,0.4576557382643097,0.34394555898640145,0.2707741343789463,0.00631587668806744,-0.014202145922175011,0.05044124573290214,-0.07955439550853807,-0.002358703756259477,0.0061300832348271,0.00012587562589817913,532.6192097603573,533.8380213367739,532.2879532737152,535.0290980166077
1.74,1.6973012114705863,1.7099890159583293,1.7430888728102782,0.9083318932884522,-0.974911640220264,7.399204230051474,1.7383245538905174,1.7383245538905174,1.7383245538905174,0.1288619441370785,0.45145882380950564,0.3379486621055809,0.26534204439791276,0.007873037379611026,-0.014653571263662018,0.0495276983558072,-0.07577576838005286,-0.002403863742450782,0.006084365213269952,0.00011975436373618992,532.7481362796184,533.9373239576491,532.3813266066084,535.1218133434706
1.76,1.7052185185731377,1.7176624446840367,1.7485734540227036,0.9176560113777275,-0.9929634346609905,7.454910600421372,1.7438949509466108,1.7438949509466108,1.7438949509466108,0.1298341618298008,0.44523503899991007,0.33198927561913166,0.25997462550042344,0.009324688569010479,-0.015080839183860367,0.04862578402730776,-0.07198402804471868,-0.0024770435993538703,0.006056111966684526,0.00011338274645069766,532.8795275085038,534.0356926308199,532.4672537724912,535.221765762796
1.78,1.713020102013558,1.7252103086326664,1.75395157377179,0.9284946292862775,-1.0114365009148967,7.509583082948643,1.7493616187234866,1.7493616187234866,1.7493616187234866,0.13078827534799242,0.4389829281711761,0.3260600790551903,0.25467180739163026,0.01059689744211568,-0.01543229355833585,0.04773474263899872,-0.0681618237823308,-0.002570539029932705,0.006040383129692401,0.00010680375134271808,533.0133371240129,534.1339751826828,532.5483343641148,535.3274633241915
1.8,1.7207057198215145,1.732632568371269,1.7592246327134087,0.9405914762475986,-1.0302103827629676,7.563234929757355,1.7547258609768988,1.7547258609768988,1.7547258609768988,0.13172451223995885,0.43270109424046754,0.3201542253702542,0.24943533247250027,0.011632235495080398,-0.015668667338743076,0.046853910215779906,-0.06429251187321308,-0.002677102755101999,0.006032573942654249,0.00010002472288516238,533.1495801304656,534.233040840383,532.6269574243504,535.4374624539857
1.82,1.7282751212664487,1.7399290942298482,1.7643940909280205,0.9536262047362227,-1.0491297304197011,7.6158786195694,1.759988995420227,1.759988995420227,1.759988995420227,0.1326431024900708,0.42638839468363327,0.3142656047754392,0.2442736975183662,0.012372692337908275,-0.015762838341423745,0.04598179139831533,-0.060398745638749425,-0.002789042761562964,0.006028814211753963,9.327907437344927e-05,533.2866160173382,534.3324862887534,532.7047728270475,535.5496801206093
1.84,1.735728055627408,1.747099690715016,1.769461420816912,0.9672396468421828,-1.0680140228005786,7.667527297264701,1.7651523517010774,1.7651523517010774,1.7651523517010774,0.13354427816561448,0.4200442334679989,0.3083892341962652,0.23918758416063285,0.012797940731223737,-0.015694231295763854,0.04511890954847972,-0.05648518272925237,-0.0028995632541519343,0.006025364970393544,8.644879085363934e-05,533.4240249358442,534.4328785308883,532.7831543571197,535.6620918874765
1.8599999999999999,1.7430642811788188,1.7541441225692964,1.7744281021167212,0.9810503457695414,-1.0866661278755172,7.718193727870423,1.7702172694885456,1.7702172694885456,1.7702172694885456,0.13442827308295596,0.41366855687784077,0.30252137852899386,0.2341846305638152,0.012881334866141115,-0.015451362229215079,0.04426405944434915,-0.05255517033356149,-0.0030026080767868455,0.006018895457209712,7.96672364899046e-05,533.5610463131919,534.5343367576136,532.8637564992658,535.7733241812451
1.88,1.7502835736547344,1.7610621408259626,1.7792956744455595,0.9946624099038167,-1.1048822806885366,7.76789081030152,1.7751850966662261,1.7751850966662261,1.7751850966662261,0.13529532249216178,0.40726203218031953,0.2966596992457624,0.22926895657004526,0.012620830766859808,-0.015030386852162365,0.043417351601431856,-0.048635421899874264,-0.0030923265748374652,0.006006739280999174,7.294597658954476e-05,533.6964146596484,534.6366231592165,532.9472421210206,535.8812991181052
1.9,1.7573857395781078,1.7678535152845953,1.7840655879514382,1.007703881747546,-1.1224585283941833,7.8166325971731005,1.7800571876262463,1.7800571876262463,1.7800571876262463,0.1361456627792518,0.4008261176013769,0.2908034285312166,0.22443762326390587,0.012043984297688872,-0.014432451157996368,0.04257975947594343,-0.04469060503159499,-0.0031654210529239255,0.005986270757538113,6.601804222919485e-05,533.831447629943,534.7412679806357,533.0350788570229,535.9855751324085
1.92,1.7643706236098156,1.7745180583936715,1.7887393110595853,1.0198315278103733,-1.139192201042271,7.864433083338424,1.7848349016598015,1.7848349016598015,1.7848349016598015,0.13697953118529457,0.3943629155014466,0.2849531915477275,0.21969923314419648,0.011169506146202931,-0.01365866138004065,0.04175059852200475,-0.040729506986815274,-0.0032195164351680123,0.00595526914203529,5.8890158823933924e-05,533.9658684304073,534.8480429711768,533.1277778398079,536.0851874995881
1.94,1.7712381170123626,1.7810556480806448,1.7933183968111415,1.0307196062261739,-1.1549018280151564,7.9113047857780785,1.7895196014398496,1.7895196014398496,1.7895196014398496,0.13779716554158752,0.3878753468702491,0.27911095663903274,0.21505645192896142,0.01001498526303849,-0.01273646645387926,0.040928773870686955,-0.03679061847031913,-0.0032512751028883867,0.005913129654211282,5.194810813747739e-05,534.0975227251191,534.95567584188,533.2255792969455,536.1791131764041
1.96,1.777988168451798,1.7874662533911367,1.7978043925178886,1.0400787942707905,-1.1694357844963126,7.9572594658959215,1.794112651591799,1.794112651591799,1.794112651591799,0.13859880402019495,0.38136705467344123,0.27327996638114854,0.21051227846891396,0.008617470542193372,-0.011687460313849216,0.040114204761813516,-0.03287666460813229,-0.0032587378280056127,0.005859931075527966,4.5444062751321826e-05,534.225577857156,535.0639890524346,533.3291416425267,536.2674084810158
1.98,1.7846207914452072,1.793749955752086,1.8021988112552436,1.0476728482760405,-1.1826592108382497,8.002309660190942,1.7986154173481987,1.7986154173481987,1.7986154173481987,0.13938468489914724,0.3748422991025338,0.26746466677827285,0.2060636613222265,0.007025444479959902,-0.010524778594620355,0.03930804756837649,-0.02897841101841355,-0.0032418002406294204,0.005794952650894067,3.925098476934282e-05,534.350605783817,535.1733522082108,533.4386302711239,536.3499789208897
2.0,1.7911360694923906,1.7999069645318078,1.8065031728144716,1.0533227340926212,-1.1944624168983662,8.046467329704072,1.8030292632836011,1.8030292632836011,1.8030292632836011,0.14015504634163264,0.36830580777020105,0.261670444885082,0.2017149705196873,0.0052883083259951235,-0.009276083249384118,0.038509851128092555,-0.025103728457316676,-0.0032013775066968685,0.005718449029460861,3.356733307992155e-05,534.4721604177805,535.2831044906397,533.5539768679372,536.4271386191892
2.02,1.7975341599734311,1.8059376284955042,1.8107190446747214,1.056913542584243,-1.2047594324081794,8.089745217266932,1.8073555521259241,1.8073555521259241,1.8073555521259241,0.14091012618854096,0.3617627714949894,0.2559034868521556,0.19746581765065035,0.003465598937298974,-0.007955553953254032,0.03772119651638436,-0.021278915013685985,-0.00313963428886552,0.0056307820317207016,2.825044099789442e-05,534.5900592919639,535.3924808247878,533.6738048559756,536.4983358750379
2.04,1.8038152998106467,1.8118424457110132,1.8148479682774958,1.0583822671633125,-1.213493470307994,8.132155088090927,1.8115956436407945,1.8115956436407945,1.8115956436407945,0.14165016176374456,0.3552187275458937,0.2501704880054737,0.1933149988239966,0.0015936810345537021,-0.006597482834140784,0.036941320722099824,-0.0175005272482086,-0.003058174083320412,0.0055328239307907935,2.359123283136172e-05,534.7040195584252,535.500961290101,533.7983040244012,536.5645600056151
2.06,1.8099798075225917,1.8176220672058494,1.8188914754310606,1.0577108288758879,-1.2206417001769077,8.17370857759034,1.815750893585496,1.815750893585496,1.815750893585496,0.14237538969152808,0.34867946668280136,0.24447843122835913,0.18926064335323103,-0.00028259174414693353,-0.005225022618818033,0.03617116687221882,-0.0137719178927425,-0.0029587659658517986,0.005426330614645966,1.9691508101135613e-05,534.8137802276409,535.6082790714885,533.9269846976255,536.626460854487
2.08,1.8160280838676817,1.8232772980128549,1.8228510808113854,1.0549344521011979,-1.2262022861303064,8.214417785984523,1.8198226527292884,1.8198226527292884,1.8198226527292884,0.14308604572560168,0.34215087153733814,0.23883443693802597,0.185300482581638,-0.0021182239952407685,-0.003856741474242207,0.0354115867743742,-0.010093451193767741,-0.002844462396582395,0.005312257975447441,1.6496215915061152e-05,534.919765692903,535.7141816377607,534.0590929809736,536.6845797718938
2.1,1.8219606119437608,1.8288090946748266,1.8267282620782703,1.0501307580899626,-1.230190016273694,8.25429542550617,1.8238122659369969,1.8238122659369969,1.8238122659369969,0.14378236458915733,0.33563883712738146,0.23324554776136286,0.18143033811055725,-0.003879457912311466,-0.002504827276733848,0.034663578239888804,-0.006456924359270873,-0.002718035178565487,0.005191368733910176,1.3887804200715635e-05,535.0227267418945,535.8187711151712,534.1940796454502,536.7395086872583
2.12,1.827777955726877,1.834218558785179,1.8305244767227176,1.0434156826105652,-1.2326375310693825,8.293354486804047,1.8277210713128995,1.8277210713128995,1.8277210713128995,0.14446457982544889,0.3291491830120497,0.22771854530929225,0.1776482495882124,-0.005531262938054896,-0.001187409025175764,0.033927714913782034,-0.0028607826343794163,-0.0025825617737400045,0.0050647805374413445,1.1807941870432915e-05,535.1231227881494,535.9218750799412,534.3312088087165,536.7918649926307
2.14,1.8334807591816695,1.8395069292571447,1.8342411203637778,1.0349259660498846,-1.2335837301014057,8.331608599558153,1.8315503994020663,1.8315503994020663,1.8315503994020663,0.14513292365839953,0.3226876133046327,0.22225980969761444,0.17394651429127717,-0.007066707631437864,9.999334840154147e-05,0.03320485982697153,0.0007146010964551655,-0.0024400177532791644,0.004932677430668113,1.0085799983514646e-05,535.2220716066545,536.0240330944945,534.4703755181533,536.8422398275117
2.16,1.839069743119954,1.8446755709517488,1.8378795752811465,1.0248240600704797,-1.233082325541449,8.369071250987325,1.8353015724464214,1.8353015724464214,1.8353015724464214,0.14578762686276006,0.3162596097751856,0.2168751883403223,0.17032787223982807,-0.008443335693227244,0.0013250037751682583,0.0324949533124292,0.004269325940060478,-0.0022933325044193387,0.004796227864881788,8.727379633053707e-06,535.319849894271,536.1249551654248,534.6109307075963,536.891304304898
2.18,1.8445456992586513,1.8497259592393887,1.8414413510173748,1.013323787636927,-1.2312298430349906,8.405755288539895,1.8389759036929134,1.8389759036929134,1.8389759036929134,0.14642891864336197,0.3098705201696803,0.2115700224138528,0.16679282917069352,-0.009631298746169822,0.0024637494723047854,0.03179831814900459,0.007742693065513895,-0.0021483864966312283,0.00465948995579072,7.871863882591357e-06,535.4148562780234,536.2224567420601,534.7498500302187,536.9392375463182
2.2,1.8499094898240598,1.854659669146077,1.8449278885819982,1.0006389805091116,-1.2281211341135445,8.44167397152449,1.8425746967512922,1.8425746967512922,1.8425746967512922,0.14705702652302824,0.30352533935825143,0.2063488748253488,0.16333459450728352,-0.01063678715476359,0.003523008673671704,0.031115344655843785,0.01115384743239349,-0.0020066958768840686,0.0045225345025490605,7.3990184677916725e-06,535.5080527538294,536.3170343521033,534.8871970551825,536.9866111765214
2.22,1.8551620417157781,1.859478358538799,1.8483406040825376,0.9869873610846366,-1.223856683235685,8.476840739370855,1.846099244999092,1.846099244999092,1.846099244999092,0.14767217623872328,0.29722865055586367,0.20121548893236754,0.15995283787125114,-0.011444681128507519,0.004486244302977219,0.030446192803438056,0.014504729623268486,-0.0018706667123650205,0.004386471992818775,7.227751434457454e-06,535.5998400426884,536.408672500104,535.0223211820254,537.0339043798134
2.2399999999999998,1.860304338981142,1.864183749601134,1.8516809972470905,0.9726112368591253,-1.2185661504235035,8.511268779518153,1.8495508310315247,1.8495508310315247,1.8495508310315247,0.14827459164554124,0.2909846853915865,0.19617284470961213,0.1566485407891306,-0.012039430481982964,0.005332852157047235,0.029791078104109657,0.017750689284981983,-0.001744899980769598,0.004254766556879964,7.378920692478087e-06,535.6891473524116,536.4959376260132,535.1527411817241,537.0812309103991
2.2600000000000002,1.8653374188115397,1.8687776138403418,1.854950535375514,0.9577422409576445,-1.2123781154660056,8.54497155883253,1.8529307261540833,1.8529307261540833,1.8529307261540833,0.14886449462814866,0.28479720444279616,0.1912230375682436,0.15341640711929305,-0.012438831851273103,0.006071681940566503,0.029150137864664992,0.02089390790825698,-0.0016309626517526559,0.0041282280278167865,7.736102942057536e-06,535.7763558200658,536.5789680329638,535.2779387120913,537.1288333198323
2.28,1.8702623658873907,1.8732617560478868,1.858150606177576,0.942583771572075,-1.2054054593950174,8.577962981849254,1.8562401899157495,1.8562401899157495,1.8562401899157495,0.14944210501931376,0.2786694394295655,0.18636726650735766,0.15025125186572258,-0.012666567093989908,0.006715233206083172,0.02852339527088929,0.023957382542586454,-0.0015289649348695054,0.004006491969624227,8.122933982253094e-06,535.8624711202478,536.6586164330176,535.3982853649536,537.1769966891144
2.3,1.8750803059128915,1.8776379986611362,1.861282543633562,0.9273129039246385,-1.1977491868586492,8.610257150784458,1.8594804696807916,1.8594804696807916,1.8594804696807916,0.1500076405251711,0.27260415449065906,0.18160594425839416,0.14714923826430043,-0.012745408745142208,0.007273465127616782,0.027910729687880432,0.02695492961758935,-0.0014390594893701134,0.0038895025088730305,8.402515246371598e-06,535.9481377108793,536.73546036611,535.5139124584078,537.2258795529237
2.32,1.8797924000403596,1.8819081683926033,1.8643476419626503,0.9120806690150809,-1.189500145855535,8.641868118311757,1.8626528002372185,1.8626528002372185,1.8626528002372185,0.15056131665688383,0.2666036987314618,0.17693880321908062,0.14410739970537342,-0.012698016923752348,0.007755049456190722,0.027311816894155648,0.029895493691699186,-0.0013611706102999422,0.0037772400658204223,8.489074787800264e-06,536.0337370237095,536.8098997192482,535.6249362054328,537.2755639621431
2.34,1.884399840659213,1.8860740856818212,1.867347128723304,0.8970063636782682,-1.1807317131948698,8.672809806590047,1.8657584034400463,1.8657584034400463,1.8657584034400463,0.15110334666838207,0.2606700472742118,0.1723649960803963,0.1411206793429456,-0.012554710936245952,0.008179008340281978,0.026726195773235317,0.03280033636240802,-0.0012943946112779787,0.0036688768192029305,8.31374308682852e-06,536.1199541988525,536.8826439780499,535.7321007763695,537.3262334921777
2.36,1.8889038464796926,1.8901375548739434,1.8702822109520603,0.8821811597953059,-1.1715061120950456,8.703096073326277,1.8687984878876083,1.8687984878876083,1.8687984878876083,0.15163394149986836,0.2548048428211553,0.16788319715123806,0.1381896463437901,-0.012335316732486615,0.008547996326356114,0.02615362748212489,0.03567238779168904,-0.0012379145193005163,0.0035640799433039843,7.788618449835442e-06,536.2069408710577,536.9540009311635,535.835523407146,537.3776337390736
2.38,1.8933056587021837,1.8941003570530575,1.8731540985298165,0.8676786289399541,-1.1618858492615762,8.732739706392417,1.8717742486292177,1.8717742486292177,1.8717742486292177,0.15215330972679508,0.24900949598587335,0.16349175390398177,0.13531220469718996,-0.012055630895928926,0.008864469853375644,0.025592933543108893,0.03850460304191438,-0.001191508859455217,0.0034634081327965375,7.089782292566066e-06,536.2940791631299,537.0236048162152,535.9352601126113,537.4299263206613
2.4,1.8976065379468459,1.897964245035259,1.8759639851687013,0.8535531081274058,-1.1519309809968385,8.761752839452782,1.8746868669025643,1.8746868669025643,1.8746868669025643,0.15266165751403157,0.2432851594052488,0.15918873550386245,0.13248862072667697,-0.01173222622057702,0.009128332702482155,0.025043598516608912,0.041297503411202745,-0.0011545623099252214,0.0033671527012262025,6.320077980701778e-06,536.3810623374874,537.0914409502254,536.0315546021579,537.4832480935459
2.42,1.901807760215068,1.9017309387088877,1.878713072329785,0.8398379284232047,-1.1416979862155956,8.790147178183224,1.8775375098992977,1.8775375098992977,1.8775375098992977,0.15315918857495076,0.23763275249277876,0.15497200926084775,0.12971809058426617,-0.011384753815423383,0.009346011881629245,0.024505176656997647,0.04404126536796357,-0.0011261505291904476,0.0032755786621673612,5.542601329659195e-06,536.4673241970193,537.1573260148439,536.1243543267597,537.5373331210491
2.44,1.9059106141489368,1.9054021231083895,1.8814025346124834,0.8265437398788165,-1.1312329287263436,8.817934206344543,1.8803273305573178,1.8803273305573178,1.8803273305573178,0.15364610413517682,0.23205296509615075,0.1508393142271395,0.12699924405504565,-0.01103230135197395,0.00952615686493952,0.023977309516427462,0.04674021171936456,-0.001104850323644687,0.003188239413177439,4.776796956386063e-06,536.5527929482338,537.2215019394301,536.2141125766253,537.5920321264396
2.46,1.9099163982477396,1.9089794475977053,1.8840335086321327,0.8136607363153279,-1.1205697870318359,8.845125318174047,1.883057467378355,1.883057467378355,1.883057467378355,0.15412260290074714,0.22654629561956097,0.1467883473725217,0.12432977673858965,-0.010692438018695214,0.009680587953400297,0.023459769194664304,0.04940378672176492,-0.00108916831135421,0.003104466000043496,4.009603479498444e-06,536.6376161815838,537.2843807932095,536.3014135224931,537.6472330396211
2.48,1.9138264179687705,1.9124645258238444,1.886607118169923,0.8011628238916233,-1.1097359605702266,8.871731703010871,1.8857290442694896,1.8857290442694896,1.8857290442694896,0.15458888103045207,0.22111309008243843,0.14281683288959268,0.12171033890652383,-0.010377705018005976,0.00981080806565418,0.022952262097072323,0.05203126710861616,-0.0010777496158155546,0.003024005381448179,3.256043902101024e-06,536.7215720335977,537.3460944760635,536.3865225339102,537.7026839157086
2.5,1.9176419829608151,1.9158589366709673,1.889124508874515,0.7890120712074064,-1.0987595884000931,8.897764253145812,1.8883431704073135,1.8883431704073135,1.8883431704073135,0.15504513211212678,0.21575358764360505,0.13892259389117306,0.1191417193843978,-0.010098251487450218,0.009917527197882725,0.02245453953175689,0.054606843820259765,-0.001069415920518037,0.0029472189969194595,2.5578155442439327e-06,536.8039121399158,537.4063891976826,536.4692119893796,537.7578947909334
2.52,1.9213644059188,1.9191642277817091,1.8915867925548222,0.7771563640295808,-1.0876557570853225,8.923234209731609,1.8909009401235013,1.8909009401235013,1.8909009401235013,0.1554915471426796,0.21046791288482494,0.13510359798660557,0.11662146461533729,-0.009867654219612046,0.010016730109307778,0.021966820790678847,0.05713752374941737,-0.0010624650595286072,0.002873131536140456,1.790266901539503e-06,536.8849236246426,537.4657845559209,536.5498916023863,537.8124154592413
