Time_s,X,Y,Z,Roll_deg,Pitch_deg,Yaw_deg,Ref_X,Ref_Y,Ref_Z,Ref_Yaw,vx,vy,vz,p,q,r,T_pert,tau_x,tau_y,tau_z,RPM_0,RPM_1,RPM_2,RPM_3
0.052000000000000046,-1.3751498389738394e-20,-6.0,0.012210873669684924,-7.721732664252323e-16,2.1955256606714416e-17,1.6216926300527057e-18,-1.360274288106087e-20,-6.0,0.01622186231512252,0.0,4.2714340314443555e-20,-1.3464849937621669e-20,0.0009999487034574248,0.0,0.0,0.0,1.246406296090957,5.400358432631985e-17,-3.5087987298793226e-20,0.0,568.6303146934046,568.6303146934047,568.6303146934046,568.6303146934046
0.10400000000000009,-1.3834266652349844e-20,-6.0,0.012264646555081722,-7.811978530026661e-16,3.690424816888057e-17,2.866322655939394e-18,-1.3528106032218434e-20,-6.0,0.027106648589033687,0.0,-1.1129218726066307e-20,-1.5945782184349524e-20,0.0011773762242589872,0.0,0.0,0.0,2.583622585026044,6.042478376469123e-17,-1.935868349502187e-17,0.0,602.0355646799258,602.0355646799258,602.0355646799258,602.0355646799258
0.1559999999999997,5.866128748494021e-09,-6.000000005865835,0.014127380542431442,0.0003599534740379038,0.00036003202013049887,2.5952314064235608e-05,-1.3411978866000949e-20,-6.0,0.04404224279586785,0.0,1.3394961071436762e-07,-1.3398668232034178e-07,0.07758512205236541,0.0,0.0,0.0,3.2717428834958033,-9.810178867769353e-05,-9.813160038616831e-05,-5.139114754098404e-06,618.5578789869809,618.5032074178253,618.5153606213948,618.5153523155052
0.20799999999999974,2.1190279852791836e-07,-6.000000211840422,0.022660397108528844,0.0005931428922404639,0.0005935632639294617,4.7569223960577505e-05,-1.3259448199584751e-20,-6.0,0.06628680067722371,0.0,4.463925767817859e-06,-4.462931612202191e-06,0.22604745887997071,0.0,0.0,0.0,3.278738927393582,-6.0592844671289597e-05,-6.066247034837076e-05,-2.8322963362876886e-06,618.7093898438532,618.6756163714048,618.6841451452214,618.6841257519874
0.2599999999999998,7.215391324086831e-07,-6.000000721196008,0.03927288369919088,-0.00030521620323010633,-0.000305130624076737,1.82368122207562e-05,-1.307516387974001e-20,-6.0,0.09316220426476936,0.0,1.1789230364120766e-05,-1.1783304499751448e-05,0.38210851486627867,0.0,0.0,0.0,3.0298317895840836,8.11287310272056e-05,8.114937931033899e-05,2.7317112218849423e-06,612.7504248991517,612.7960611473137,612.781389112231,612.7813949189145
0.31199999999999983,1.0504196833060725e-06,-6.000001067683428,0.06370888411113709,-0.0007722115879321433,-0.0010992049524856619,-2.7262391564618858e-05,-1.28633707063308e-20,-6.0,0.1240494062646742,0.0,1.2040106924873796e-05,-1.0402697079959043e-05,0.5274097352648492,0.0,0.0,0.0,2.659352486479261,5.1375077686923675e-05,0.00011845906183777347,4.4264627807668824e-06,603.84116762958,603.8896333455846,603.8692278520085,603.8883712421014
0.3639999999999999,7.931033935008241e-07,-6.000000996838861,0.09518266557453825,-0.00012861987009931149,-0.00037821613101483696,-3.667008505683762e-05,-1.2627938264492557e-20,-6.0,0.15838407943347604,0.0,-3.1570615838868912e-06,1.1684555651847004e-06,0.6554035833399902,0.0,0.0,0.0,2.2321279898709903,-5.7397960953450215e-05,-4.905144134595439e-05,1.6107641930315428e-06,593.449992712995,593.4190812048869,593.4382867350121,593.4407104344019
0.4159999999999999,3.331152474539247e-07,-6.000000842589995,0.13267234968121755,0.0005272449335885501,0.0007806375363223757,-2.8815164691310422e-05,-1.237238879033475e-20,-6.0,0.19565255273800025,0.0,-1.673080415715546e-05,8.160161599028213e-06,0.7623197499234585,0.0,0.0,0.0,1.8011612902112704,-8.55760141957228e-05,-9.582926783782109e-05,2.768527115000297e-06,582.7437135787302,582.6900669905941,582.7270913092483,582.7240591821183
0.46799999999999997,2.2532265987138646e-07,-6.000000934317372,0.17501472454905018,-8.017732193680579e-05,-6.945328276261764e-05,-5.38058879149882e-05,-1.2099923188247414e-20,-6.0,0.23538801707913404,0.0,-8.918045125726867e-07,-2.8470538649698313e-06,0.8465257855371497,0.0,0.0,0.0,1.4064324457678867,9.343227147479625e-05,0.00013315828360830768,6.2545447174464705e-06,572.6865279286076,572.7547066371454,572.7346034654056,572.7465561869104
0.52,8.896406453154803e-08,-6.000000974556835,0.22109108848716613,-0.0011278383624468004,-0.0011433677545373492,-6.374055040864077e-05,-1.1813445311445898e-20,-6.0,0.27716698429908265,0.0,1.1564535413158597e-05,-1.4683808045338626e-05,0.91029079987283,0.0,0.0,0.0,1.0576478888869678,0.00014140414462651872,0.00015170886821579442,3.0169223973019517e-06,563.705810552602,563.7954084585681,563.7588182362008,563.7619680985126
0.5720000000000001,-5.586302534530202e-07,-6.000000496773458,0.26991884019848306,-0.0005169189326332766,-0.00020426177527327165,-4.8439237570072096e-05,-1.1515584611255843e-20,-6.0,0.3206059840860475,0.0,-9.940229907574356e-06,2.634239215089991e-06,0.9562505053393124,0.0,0.0,0.0,0.7584617838684815,1.0046533400245744e-05,-2.398554166523119e-05,2.7405258912778034e-06,555.938912220577,555.9345914990679,555.9510368816357,555.9404880152663
0.6239999999999997,-1.3085991185766651e-06,-5.999999764924137,0.32066225833905004,0.0005542325989184965,0.0009884261761626456,-4.2535241170335017e-05,-1.1208717254807782e-20,-6.0,0.3653584842408797,0.0,-2.7818980889636334e-05,2.1570517303236683e-05,0.9872579083521659,0.0,0.0,0.0,0.507346487390839,-7.925693185817855e-05,-0.00010344394556860079,1.6482514846731728e-06,549.3226560662782,549.2653387873594,549.3032769830827,549.2956890613062
0.6760000000000002,-1.5994072713233905e-06,-5.9999992912687015,0.3726524414636351,0.0009524159791849698,0.0009586743552665948,-3.346649213884983e-05,-1.089498580526552e-20,-6.0,0.4111120205789559,0.0,-1.9144259219396743e-05,2.240163934677829e-05,1.0069115562415123,0.0,0.0,0.0,0.2919143916704132,-5.3089648745707334e-05,6.847978365055743e-06,2.2833421671325102e-06,543.5351632974697,543.5205023678124,543.526010150112,543.5450131167707
0.7279999999999998,-1.4549939355463794e-06,-5.999999257603598,0.4252836904669554,0.0003178771327074677,-0.00027265210855225,-2.736263473033157e-05,-1.0576317553443066e-20,-6.0,0.45758552350900145,0.0,6.8047960058252145e-06,5.115047386299885e-06,1.0141847415049188,0.0,0.0,0.0,0.1366014043051491,4.3091325528451754e-05,0.00012595514979661855,9.41406838265429e-07,539.308591821794,539.3626046375612,539.3255512754379,539.3520273198762
0.7799999999999998,-1.4002093571739752e-06,-5.99999938495068,0.477999266800453,-0.0003671870918374783,-0.000609444321049105,-2.0915675544064236e-05,-1.025444158465928e-20,-6.0,0.5045268290605786,0.0,9.881006671362983e-06,-7.71027948261288e-06,1.012540707037254,0.0,0.0,0.0,0.025633304746755625,7.63149753499677e-05,7.418936047162735e-05,1.610776632072664e-06,536.2933047505765,536.3416636981392,536.3233161070815,536.3226331271156
0.8319999999999999,-1.596852747873694e-06,-5.99999936308606,0.5304459527322496,-0.0002727791875558717,0.00028550673500573313,-1.8580773527048443e-05,-9.930904659927158e-21,-6.0,0.5517103628250074,0.0,-7.637087574409538e-06,-3.596583626922697e-06,1.0052502074628997,0.0,0.0,0.0,-0.05802488626267632,1.1237920348982004e-06,-7.232906018086758e-05,1.0677550502522868e-06,534.0441510561459,534.0211740155968,534.0481682985642,534.024466153235
0.8839999999999999,-1.6668651347212973e-06,-5.999999231392859,0.5823693948577976,0.0004693944191939141,0.0011419547703576147,-1.1306517272557568e-05,-9.607085986064121e-21,-6.0,0.5989349859323075,0.0,-1.7355510774572762e-05,9.0838965640966e-06,0.9934392417758147,0.0,0.0,0.0,-0.11756639743970865,-7.514703738172482e-05,-0.00010565482263919888,6.672531660553691e-07,532.429811895215,532.3712905659561,532.4077801880724,532.3979055747194
0.9359999999999999,-1.2566851680916898e-06,-5.999999292937053,0.633575032169807,0.0005602134283401856,0.000525954197756304,-2.8444096556063822e-06,-9.284210945030669e-21,-6.0,0.6460219928107551,0.0,5.252669678409544e-07,6.6022926454651886e-06,0.9784514977867141,0.0,0.0,0.0,-0.16002089033240946,-2.403532285154918e-05,3.552481268470814e-05,-2.1963480741782657e-07,531.232927594967,531.236654634678,531.2243750277796,531.2436955815532
0.988,-6.234345095406213e-07,-5.9999995873349,0.683927299550877,-0.00019412633989485765,-0.000738847514134681,1.0463324469325373e-06,-8.963363848747317e-21,-6.0,0.6928132510674094,0.0,2.2124240037972555e-05,-8.236254145228929e-06,0.9611741789351529,0.0,0.0,0.0,-0.18979134009925464,7.267693130154327e-05,0.00013217504034346712,1.8105546813217764e-07,530.3807538531645,530.447307970655,530.4049906874792,530.4243209357684
1.04,-2.934641172775297e-07,-5.999999804689628,0.7333266569120903,-0.0006173570022342567,-0.0007650790300395585,2.9068571992647075e-06,-8.64549978179318e-21,-6.0,0.7391694743888965,0.0,1.6452108108363984e-05,-1.234718813135444e-05,0.9422203441489871,0.0,0.0,0.0,-0.21024655707939088,5.6871149778491033e-05,2.9414175205403022e-05,9.158891975024094e-08,529.8359506013925,529.8640135822344,529.8547632014703,529.8458332462104
1.0919999999999996,-2.879537235842392e-07,-5.9999997664929285,0.7817041317649562,-4.71405554995901e-05,0.00041220065739453057,5.022907962149699e-06,-8.331455590745305e-21,-6.0,0.7849686198932274,0.0,-5.241045765828237e-06,1.2104909631065343e-07,0.9221688081371286,0.0,0.0,0.0,-0.22509841023879323,-4.825676554196059e-05,-0.00011501247682966733,-2.5989608013253224e-08,529.4667291352805,529.4135872102338,529.450933040569,529.4292049578531
1.1439999999999997,-1.2400135924419664e-07,-5.999999704595774,0.8290140785477804,0.00064365816074044,0.0009654978360606412,6.467351411694351e-06,-8.021960075465955e-21,-6.0,0.8301044018668409,0.0,-9.007949079897695e-06,9.283835137587966e-06,0.9013404523425879,0.0,0.0,0.0,-0.236356115639708,-8.327472299482275e-05,-8.39949813791921e-05,-7.144621312891126e-08,529.1564630442216,529.1019870299893,529.129096212004,529.1288616397939
1.1959999999999997,4.278297817172334e-07,-5.999999902638521,0.8752224107431844,0.0003243033629362515,-8.964586709559628e-05,7.167415120740421e-06,-7.717643434376887e-21,-6.0,0.8744849142976624,0.0,1.1691320082282994e-05,1.3393850830156955e-07,0.8799336235031501,0.0,0.0,0.0,-0.24527680051171924,1.518491847674523e-05,9.42064505075054e-05,-2.7288419413818135e-08,528.8647500216537,528.9003929671277,528.8696035464809,528.8953511048587
1.2479999999999998,9.403180678141913e-07,-6.000000233282638,0.9203016120818359,-0.0005692429569127693,-0.001181994123011097,6.520938842979992e-06,-7.419046012666573e-21,-6.0,0.9180313550660697,0.0,2.3752861920531183e-05,-1.3072484971842773e-05,0.8580345152636637,0.0,0.0,0.0,-0.2522616278893557,9.688344062839712e-05,0.00013308861552781476,1.0519834856051441e-07,528.6517131932903,528.726672303037,528.683657243508,528.6954582677298
1.2999999999999998,9.620212927543652e-07,-6.0000003248868286,0.9642329371834211,-0.000806569481719432,-0.00053119344355343,5.552606595143152e-06,-7.126626399450327e-21,-6.0,0.9606768450823756,0.0,6.384473265098176e-06,-1.0895082779832888e-05,0.8358530249375955,0.0,0.0,0.0,-0.25870671859299293,5.882050221277563e-05,-5.770799450331259e-05,1.1274604723529255e-07,528.5107133967749,528.5110761396322,528.5302819186901,528.4922868123809
1.3519999999999999,7.665738981071754e-07,-6.000000083210657,1.0069991145276043,0.00010201928554677394,0.0011431302241039956,5.351329877920208e-06,-6.840768917135839e-21,-6.0,1.0023653360630196,0.0,-1.6593798949814132e-05,5.9296070048501445e-06,0.813278329853875,0.0,0.0,0.0,-0.26327716412568647,-7.821488638830281e-05,-0.00019669619770783502,5.494186201945306e-08,528.4293564963807,528.3396978983826,528.4040393568021,528.3653982651032
1.404,1.0226387825009235e-06,-5.999999878756604,1.0485815720699523,0.0008745886336344033,0.0009309998460770358,5.708107512179902e-06,-6.561790543630785e-21,-6.0,1.0430506010191596,0.0,-4.832365436571205e-06,1.3264895200968394e-05,0.7904109897682401,0.0,0.0,0.0,-0.26634543165938585,-9.233300617966512e-05,-2.171216411270449e-05,4.758388719496566e-09,528.318298845627,528.2810985561289,528.288197493016,528.3112332399916
1.456,1.6527452757059229e-06,-6.000000030258813,1.088969363326554,0.000320852778860504,-0.0009657205203269396,5.969938408008613e-06,-6.2899473055570745e-21,-6.0,1.082695301891873,0.0,2.2303959809430444e-05,1.4089472485397591e-07,0.7673740048231383,0.0,0.0,0.0,-0.26836870387454537,3.43927502856087e-05,0.0001842766678080708,-1.0058444824822081e-08,528.2080526706885,528.2793878062661,528.2192382307103,528.2681339124298
1.508,1.8890604099570717e-06,-6.000000318357856,1.1281555901757985,-0.0006863378160923833,-0.0016197162748744329,6.0907024759493475e-06,-6.02544017830108e-21,-6.0,1.121270129108731,0.0,2.027214297283563e-05,-1.2464058543066077e-05,0.7442266754905524,0.0,0.0,0.0,-0.26934443926725027,0.00010522136248269356,0.0001067000340933123,-6.072028140545064e-09,528.1821347437578,528.2512720511334,528.2164423152119,528.2169247175516
1.56,1.4552520279212146e-06,-6.0000003309388426,1.1661361642473993,-0.000624620165788133,-8.416267446045867e-05,6.1418989071871985e-06,-5.768420526524257e-21,-6.0,1.1587530081580835,0.0,-8.183691343802023e-06,-5.926374345011082e-06,0.7210225494080791,0.0,0.0,0.0,-0.26920938381613163,1.6835442362792776e-05,-0.00011766613987498912,-2.8788934525610208e-08,528.2369296277955,528.204034822606,528.242322170444,528.1984426348395
1.612,9.675072091160298e-07,-6.000000083223336,1.2029099376923302,0.00030240483693938383,0.001215258729708519,6.261448176059851e-06,-5.518995116676997e-21,-6.0,1.1951283685809437,0.0,-2.0516057987203968e-05,7.801183979976621e-06,0.697820338521541,0.0,0.0,0.0,-0.2679374300864154,-8.070399003627719e-05,-0.00013947615332195136,-4.160972322985278e-08,528.2916259312834,528.2197995920441,528.2651561359767,528.2459836964683
1.6639999999999997,9.700898032073202e-07,-5.999999951709623,1.2384787666449595,0.0006740363642323293,0.0005033083191937182,6.282768241163004e-06,-5.277230731094723e-21,-6.0,1.2303864710667805,0.0,-3.759157771519658e-06,8.287677456610728e-06,0.6746761015855364,0.0,0.0,0.0,-0.2654884707769632,-5.049080144635169e-05,4.256638140950759e-05,-3.7134301875757496e-08,528.3247823516056,528.3221976087024,528.3081848481942,528.3385377258124
1.7159999999999997,1.1872246110825633e-06,-6.000000095202709,1.2728473995719167,2.1180758715276007e-05,-0.0009527789704087665,6.134051439166931e-06,-5.0431584114026e-21,-6.0,1.2645227886096884,0.0,1.2447499879570832e-05,-2.934868809389913e-06,0.6516469810996416,0.0,0.0,0.0,-0.2618552956966414,5.3247689845971376e-05,0.00015155074264006785,-3.063100805134461e-08,528.3906291783145,528.4574164741981,528.407888759282,528.4399466041584
1.7679999999999998,1.0270408884221972e-06,-6.000000253253607,1.306023862021517,-0.000604435334715256,-0.0009054630120550774,5.932856184226763e-06,-4.816777357208635e-21,-6.0,1.2975374379361346,0.0,3.639399731914553e-06,-7.88325619254432e-06,0.6287986159545268,0.0,0.0,0.0,-0.25713815949410745,7.046895781366694e-05,2.7991691080526657e-05,-1.1525504479914797e-08,528.5384542990093,528.5705556048629,528.5613897630213,528.5475408208414
1.8199999999999998,4.961987331171558e-07,-6.000000168068221,1.3380194466260678,-0.00028110807429635896,0.0004627453908150411,5.870981760549508e-06,-4.598058504418509e-21,-6.0,1.3294346576555987,0.0,-1.4252930743606891e-05,-1.351937580638348e-07,0.6061897297220946,0.0,0.0,0.0,-0.2514155809663762,-1.6386929554253275e-05,-0.00012150995088727711,-4.855373382935727e-08,528.7353312007504,528.6903858935333,528.7298224838653,528.6955592868113
1.8719999999999999,1.493724723106487e-07,-5.999999965933227,1.368847387735211,0.00048048471865434853,0.0010937123838946176,5.7973434249365655e-06,-4.386947805954314e-21,-6.0,1.3602223298116123,0.0,-1.4266083769308102e-05,7.5589848207727375e-06,0.5838461194763037,0.0,0.0,0.0,-0.2445395310682822,-8.22963716934103e-05,-8.838514900187929e-05,-2.4003721570009195e-08,528.9307541687505,528.8751432205771,528.9038583817266,528.9018745540071
1.9239999999999995,2.515222411733967e-07,-5.9999999560810675,1.3985239540078473,0.0005212396799547018,0.00012144356054726088,5.4208168518027925e-06,-4.183369236198408e-21,-6.0,1.3899115417238077,0.0,1.915843007479868e-06,3.43624271989197e-06,0.5618514093234613,0.0,0.0,0.0,-0.23688338203708123,-2.2777460074878005e-05,7.590328784832953e-05,8.157309761616167e-09,529.1058659448033,529.1231683236662,529.0984756354777,529.1306146471072
1.976,4.1592799378868563e-07,-6.00000015977759,1.4270691864528728,-0.00021063985808731086,-0.0008982687792308458,5.035755568879562e-06,-3.987227539107915e-21,-6.0,1.4185161852121644,0.0,9.09759496645446e-06,-5.671013855073388e-06,0.5402619917463891,0.0,0.0,0.0,-0.22867857253173232,6.191848501259848e-05,0.00011017967615223407,1.5106159349859085e-08,529.3131863640923,529.3692124544712,529.3333966065529,529.3491079050835
2.0279999999999996,2.226271752181868e-07,-6.000000283115162,1.4545049221545927,-0.000567117760032092,-0.0004648038837782498,5.109992669285009e-06,-3.798410738650959e-21,-6.0,1.4460525904834594,0.0,-1.5546689613374557e-06,-5.685594320395775e-06,0.5190969504135692,0.0,0.0,0.0,-0.21988037176780406,4.453744829303238e-05,-1.7357840759675933e-05,-6.861286760965103e-08,529.5799047629939,529.5887489484809,529.5941602588059,529.5740196566525
2.08,-1.6413147520362347e-07,-6.000000174128486,1.4808536319936438,-0.00010999382820264145,0.0006115302837509884,5.803128834025885e-06,-3.616792428997457e-21,-6.0,1.4725391921375661,0.0,-1.134683627364151e-05,1.9168139782103544e-06,0.49837447556448905,0.0,0.0,0.0,-0.2104763303466695,-3.2182684471812736e-05,-0.00010252937069664677,-1.091018077999038e-07,529.8658936577716,529.8220801286502,529.8550505656395,529.8321711079014
2.1319999999999997,-3.062750389421651e-07,-6.000000013451388,1.5061396009392793,0.00038838816505877116,0.0007140218070429127,5.983229517030082e-06,-3.442233860752031e-21,-6.0,1.4979962249182848,0.0,-6.088576421565881e-06,5.283745038207562e-06,0.4781330647560066,0.0,0.0,0.0,-0.20063543877155127,-5.140874870751464e-05,-3.127020125662283e-05,-1.1961517514573684e-07,530.1289569606041,530.1020803673396,530.1118331408389,530.1183796193557
2.184,-1.5064865470995647e-07,-6.000000008469068,1.530388218207115,0.000242580178780846,-0.00015147715708233397,5.878928309577186e-06,-3.2745858384394038e-21,-6.0,1.52244544699047,0.0,4.404239502359721e-06,9.781962587916501e-07,0.4583849297561605,0.0,0.0,0.0,-0.19035607874675414,3.3441377969207013e-06,7.225900600827912e-05,-5.244344883878639e-08,530.3865837099142,530.4111470291981,530.3874895010472,530.4098798197933
2.2359999999999998,-4.661776941912421e-08,-6.000000105743269,1.5536259608260763,-0.00023696045068532688,-0.0006352353492903689,6.063010073189191e-06,-3.113690443440799e-21,-6.0,1.545909888672802,0.0,4.890548582922156e-06,-3.233748528620464e-06,0.4391546046008516,0.0,0.0,0.0,-0.17975552012449353,4.479857384489437e-05,5.767512926999077e-05,-1.38228944687063e-07,530.6745366435867,530.7078118187436,530.6886077447185,530.6927890127743
2.2880000000000003,-1.988291812459344e-07,-6.000000109939319,1.5758800424024677,-0.0003272260445839043,-0.00010883696693187029,6.024790440091238e-06,-2.9593825956288166e-21,-6.0,1.56841362469422,0.0,-3.0630773641905612e-06,-1.3201985588778753e-06,0.42045791685033845,0.0,0.0,0.0,-0.16893596952137357,1.8484193330488826e-05,-3.8131003327855845e-05,-1.2333643933699957e-07,530.992367920091,530.9859918048427,530.9979420851116,530.9795683487422
2.34,-4.0049882766138127e-07,-5.999999979958587,1.5971794644504775,5.4353747506649474e-05,0.0005265008654788123,6.427638634928926e-06,-2.8114914660556703e-21,-6.0,1.5899815681722382,0.0,-6.177346496711378e-06,3.052166978130974e-06,0.4023258236801495,0.0,0.0,0.0,-0.1581248305726749,-3.2149760333367684e-05,-6.739023089021197e-05,-2.1523798272999168e-07,531.303113202375,531.2708269068348,531.291944964669,531.2805145253169
2.3919999999999995,-3.893353309117264e-07,-5.999999869728611,1.6175526811636265,0.00032133486322448565,0.0003431861559976019,6.381550714637132e-06,-2.6698417522112246e-21,-6.0,1.6106392846336122,0.0,-5.563168781717187e-07,3.3010352678535e-06,0.3847259233428614,0.0,0.0,0.0,-0.14706652112570162,-3.1679151170662576e-05,4.842284223761902e-06,-9.640813845028673e-08,531.5953803163911,531.5866806228723,531.5847793818156,531.5966185243494
2.444,-2.3393974648594568e-07,-5.999999890962964,1.6370277552153312,0.00010414294195927507,-0.000311635120117798,5.538075404930583e-06,-2.5342548265810187e-21,-6.0,1.6304128245125147,0.0,4.472223845070066e-06,-3.859835162156584e-07,0.3676788617156795,0.0,0.0,0.0,-0.13594205240556423,1.4468246528296656e-05,6.354150604614071e-05,-4.2350299687296686e-08,531.8842098623239,531.9094837045081,531.888751879722,531.904650791265
2.4959999999999996,-2.0118321091101218e-07,-5.9999999576159855,1.655633933811838,-0.00023657441531832495,-0.0004380026469187003,4.852269298622222e-06,-2.404549768496552e-21,-6.0,1.6493285726689664,0.0,1.7226914998544005e-06,-2.176008191694346e-06,0.35120785881604083,0.0,0.0,0.0,-0.12500519071019978,3.41564935863767e-05,2.493527167187899e-05,-4.3939458735112764e-08,532.1878616213205,532.2069955423284,532.1987706679854,532.1957848343259
2.548,-3.474624946033962e-07,-5.99999993062058,1.6734012366511313,-0.0001786178715053756,0.00011018879364643213,4.368803296575359e-06,-2.280544288578415e-21,-6.0,1.6674131135711712,0.0,-3.6574728066793945e-06,2.516441058572348e-07,0.33529756035381875,0.0,0.0,0.0,-0.11416519300517272,9.891931744088152e-07,-4.7180119498539406e-05,-7.243913588791412e-09,532.5025892249596,532.4876409585836,532.5028844764968,532.4872959657671
2.5999999999999996,-4.518117529755563e-07,-5.999999829754579,1.6903582881930386,0.00014059727453912972,0.00047906063681356283,4.5287394041446755e-06,-2.162055554424539e-21,-6.0,1.6846931108799261,0.0,-3.21438821012236e-06,2.537483915404125e-06,0.31994194134871434,0.0,0.0,0.0,-0.10347565728281621,-2.9528864486445353e-05,-4.585737889431419e-05,-8.591028345833068e-08,532.8008951456054,532.776512160204,532.7910497007938,532.7857683904283
2.652,-3.6069473377133684e-07,-5.99999978447307,1.706534190368054,0.00022576317540932755,0.000143398965426879,4.485661751806105e-06,-2.04890092558828e-21,-6.0,1.7011952002618957,0.0,1.9589640281853043e-06,1.2692841479393155e-06,0.3051411046395401,0.0,0.0,0.0,-0.09299961598292575,-1.42740036199755e-05,2.033969645160539e-05,-7.059089346204584e-08,533.0751330645384,533.0770938992014,533.0702766758061,533.0814661269734
2.7039999999999997,-2.065829407619545e-07,-5.99999983277933,1.7219569685961555,-1.0182009696630214e-05,-0.00034033326513532327,4.1578567477854235e-06,-1.9408986053222607e-21,-6.0,1.7169458943414897,0.0,3.906646069480099e-06,-1.228410957830079e-06,0.29087047164730945,0.0,0.0,0.0,-0.0826176779451454,1.8959839517615052e-05,4.8604657933210237e-05,-1.5958214554221623e-08,533.3498061087101,533.3716357855334,533.3558773162795,533.3654553771864
2.7560000000000002,-1.8960169579186536e-07,-5.9999998794173175,1.7366536393638452,-0.0001991326393884323,-0.00027447570072941475,3.5330406794563786e-06,-1.8378682160312066e-21,-6.0,1.7319714987787629,0.0,4.485927125431523e-07,-1.2905274648598778e-06,0.27711202077311503,0.0,0.0,0.0,-0.07225226057250368,2.2055520505010388e-05,2.678399974799809e-06,2.530406755505495e-08,533.6407534870569,533.6487406125119,533.6479623773514,533.6417050811167
2.808,-2.8752651739094255e-07,-5.999999845422329,1.75065111913541,-7.410503056178602e-05,0.00019181966457107325,3.1913559611517285e-06,-1.7396313048787306e-21,-6.0,1.746298038533425,0.0,-2.5984166683842627e-06,7.808132579053961e-07,0.26387787892546577,0.0,0.0,0.0,-0.06207978010683772,-7.39705146946663e-06,-4.5687121113407245e-05,-1.6831372447586748e-08,533.9320473685699,533.9149142738285,533.9296023568517,533.917244107119
2.8599999999999994,-3.1022008695924764e-07,-5.999999779846235,1.7639768195695804,0.00015424070658098154,0.00034136750687200495,3.2765456700262573e-06,-1.6460117855267491e-21,-6.0,1.7599511934430576,0.0,-7.289671659801979e-07,1.6071000702103088e-06,0.25117634723785803,0.0,0.0,0.0,-0.0522824747954086,-2.280821064486504e-05,-2.3986921064269336e-05,-2.430811931412727e-08,534.1992882924853,534.1841925913246,534.1918474390467,534.1914671972916
2.912,-1.9365568477132203e-07,-5.9999997764749535,1.776657778391309,0.00014313758241281862,-3.595910717283804e-05,3.18770019276764e-06,-1.5568363215504252e-21,-6.0,1.7729562423071688,0.0,2.7532553762318527e-06,6.082274165288297e-08,0.23898012530839963,0.0,0.0,0.0,-0.0427442302890285,-3.751632862255582e-06,3.0514369344439364e-05,-6.577725017377329e-09,534.4484200230928,534.4570492323143,534.4471878621779,534.4582363778957
2.9639999999999995,-8.915675784593579e-08,-5.999999833053112,1.7887199787378816,-6.112617812644485e-05,-0.000330297764916291,3.0783541156346125e-06,-1.471934656664105e-21,-6.0,1.7853380147281583,0.0,2.3530199143956747e-06,-1.3500618410951986e-06,0.2272785785788749,0.0,0.0,0.0,-0.03349778167978098,1.826800091123987e-05,3.318537845138971e-05,-4.915075901589807e-08,534.6974336562475,534.7140161122761,534.7031531259271,534.7079607175351
3.016,-1.194495175485316e-07,-5.99999986581419,1.8001884328780247,-0.000153422838742439,-0.00011939065420732444,3.533369442269278e-06,-1.3911398965131736e-21,-6.0,1.7971208500157434,0.0,-9.179559617490706e-07,-6.976389005512943e-07,0.21605099682946585,0.0,0.0,0.0,-0.024476420846015264,1.287422221521471e-05,-1.285646350284099e-05,-7.419497265797064e-08,534.9524103205121,534.9524160411718,534.9563039947965,534.9480152990226
3.0679999999999996,-2.0150059843825156e-07,-5.99999983601325,1.8110859306130718,7.3770081127022145e-06,0.0002620617090330044,3.5505096736544053e-06,-1.314288746431444e-21,-6.0,1.8083285625132237,0.0,-1.9972518475868073e-06,8.178719943528425e-07,0.20522944725820294,0.0,0.0,0.0,-0.015179281942391064,-1.4944141534412033e-05,-4.430589537222992e-05,-5.726522280835529e-08,535.2159891512555,535.1969118441615,535.210981929924,535.2015280387762
3.12,-1.774776149889768e-07,-5.999999807895449,1.8214361889188675,0.00015754829431555452,0.0002625692365935795,3.968862543386564e-06,-1.2412217092319357e-21,-6.0,1.8189844127523405,0.0,6.652272265551075e-07,6.294840768067289e-07,0.1949202921017123,0.0,0.0,0.0,-0.006606909044857723,-1.695764614314543e-05,-1.144038707928694e-05,-1.4393555376348653e-07,535.4453218500612,535.4361822619188,535.439372872958,535.4411485424699
3.1719999999999997,-4.534267898429981e-08,-5.999999843678528,1.8312647737921455,6.365476764649572e-05,-0.00012986316457842253,4.397844550101385e-06,-1.1717832467895718e-21,-6.0,1.829111083888601,0.0,2.9864458230126155e-06,-8.804080814214706e-07,0.18506738304523723,0.0,0.0,0.0,0.0015722139562924231,4.379216274383601e-06,3.282380552739306e-05,-1.3252935884397236e-07,535.6580648794773,535.6700332631093,535.6590214635972,535.6681722268244
3.224,3.526036073196679e-08,-5.999999906858191,1.8405938431004267,-0.00010589170818974583,-0.00031646444202134446,4.0362032267563785e-06,-1.1058219088856866e-21,-6.0,1.8387306629110314,0.0,1.4724988101568887e-06,-1.3406426284685737e-06,0.17562456736036344,0.0,0.0,0.0,0.009612117566865669,1.652480631663577e-05,2.4402154077434047e-05,-3.6708754334235954e-08,535.8767298008486,535.8898908055527,535.8819185579345,535.884451700737
3.276,-1.5704768425337435e-08,-5.999999926994576,1.8494444682061157,-0.00010911892234559504,-6.147016946182034e-05,3.5826441858399165e-06,-1.0431904325153961e-21,-6.0,1.8478646261595246,0.0,-1.4294897602436649e-06,-2.470713918062691e-07,0.16658626800790685,0.0,0.0,0.0,0.017467518146859765,3.5805661608332637e-06,-1.893132080014239e-05,-4.933593191406268e-08,536.1001016068831,536.0951671924323,536.1010843379737,536.0938480152129
3.3280000000000003,-9.515516549517746e-08,-5.999999901481342,1.8578376232849998,4.5226626742491574e-05,0.00023833713452164518,3.754450791521017e-06,-9.837458146082592e-22,-6.0,1.856533828719502,0.0,-1.6197707836343778e-06,6.576447438649179e-07,0.15794985962992786,0.0,0.0,0.0,0.025062786924279684,-1.4434950374556228e-05,-3.301146179272965e-05,-1.2847718499124038e-07,536.3125164304722,536.2972709399602,536.3074403491247,536.3014713359402
3.38,-7.834915783970816e-08,-5.999999893797333,1.8657919660100268,0.0001347728701941587,0.00014055296844652093,3.7679617497660386e-06,-9.2734936087946e-22,-6.0,1.8647584972976252,0.0,7.275950495950438e-07,7.66456194869817e-08,0.14964724563472437,0.0,0.0,0.0,0.032872714862725784,-1.3775401757935643e-05,3.943923270114617e-06,-6.730100325453717e-08,536.5192632515246,536.5161054518447,536.5146093949525,536.5203007162414
3.4320000000000004,-2.4597824701736e-09,-5.999999941158819,1.8733284915473518,2.580560960081705e-05,-0.00017436109011364996,3.6922516939915107e-06,-8.738667133115609e-22,-6.0,1.872558226213947,0.0,1.6351520028431802e-06,-1.1272734599705907e-06,0.14179070802293864,0.0,0.0,0.0,0.03987618215792138,6.869729641044315e-06,3.0639833781005544e-05,-9.273673618470618e-08,536.7025451977428,536.71458871298,536.7044351016797,536.712067176109
3.484,3.3506127431724052e-09,-5.999999999325278,1.8804681083422141,-0.0001232210678478681,-0.0002122314771699021,3.991655419951371e-06,-8.231678585650043e-22,-6.0,1.8799519761753543,0.0,-2.390734350699502e-07,-1.1134120530362437e-06,0.1343075943833827,0.0,0.0,0.0,0.04650225438374009,1.497292178033821e-05,1.009575681022685e-05,-1.7773447898596452e-07,536.8851816315836,536.8932279377764,536.889382400182,536.8878169723598
3.5359999999999996,-7.86498469381657e-08,-6.000000006853336,1.8872291213288752,-8.820753191895646e-05,6.988599094169375e-05,4.4854166440483614e-06,-7.75127119427731e-22,-6.0,1.886958075522526,0.0,-1.8844076977448617e-06,9.011811071562094e-08,0.1271601316304637,0.0,0.0,0.0,0.05295622281129833,-4.802053760581489e-07,-2.570334972775683e-05,-1.6902984062409602e-07,537.0691373465538,537.0607359477974,537.0684079818705,537.0603147370937
3.588,-1.3376525691674996e-07,-5.9999999764557845,1.8936286309032861,5.820425709296474e-05,0.00023340100517769936,4.679681508992697e-06,-7.296231312399057e-22,-6.0,1.8935942236680705,0.0,-8.074349961338104e-07,6.863959517370692e-07,0.12033349605575146,0.0,0.0,0.0,0.05927829268369827,-1.4453617517911407e-05,-2.1573568680304617e-05,-2.0446666700550128e-07,537.2428742428905,537.2313180672048,537.2375424192705,537.2352586019168
3.6399999999999997,-9.259231584123788e-08,-5.999999968683095,1.899683047053404,9.535523233379855e-05,4.483337920047646e-05,4.197424195636038e-06,-6.865388050677097e-22,-6.0,1.8998774964671388,0.0,1.2051106070766507e-06,-2.239242809155698e-08,0.1138290995695546,0.0,0.0,0.0,0.06536925459892806,-6.127495444842983e-06,1.4264573321989575e-05,-5.574337270987102e-08,537.4012944977706,537.4039037646077,537.3991400199723,537.4056790218533
3.692,-3.2469320528104536e-08,-5.999999999459512,1.905408266327728,-3.8013125490750234e-05,-0.00022945272397142274,2.646152780010662e-06,-6.45761279249828e-22,-6.0,1.9058243532837167,0.0,1.0622162374022129e-06,-7.327924717894597e-07,0.107618434875524,0.0,0.0,0.0,0.07137537858379364,1.3275680816733555e-05,3.250189855025572e-05,7.455833066865143e-08,537.5584373456865,537.5731121053816,537.5629466481095,537.569109927075
3.7439999999999998,-6.570715568392761e-08,-6.000000014755651,1.9108199887889266,-0.0001333011269172379,-0.00015278683060168845,1.3668359970452242e-06,-6.071818608008358e-22,-6.0,1.9114506455361608,0.0,-1.1719084961180409e-06,-1.1970542893006197e-07,0.10170871720113417,0.0,0.0,0.0,0.07717275835409074,1.3438544572818286e-05,-1.5966327006464214e-06,7.369829482891249e-08,537.7215499716406,537.72534497911,537.7261071758161,537.7212888167466
3.7960000000000003,-1.606995720848248e-07,-5.999999975722724,1.9159335670898339,-1.9114976601813877e-05,0.00021007835511377795,1.1630928137272892e-06,-5.706959580263901e-22,-6.0,1.9167716265243713,0.0,-1.909813357298491e-06,1.005674406851267e-06,0.09609319260913583,0.0,0.0,0.0,0.08269878646453828,-9.763735913420263e-06,-4.069098387874154e-05,9.958630380238824e-09,537.8818864082195,537.8657215764272,537.8787921542977,537.8688835920913
3.848,-1.6892140078404072e-07,-5.999999929165705,1.9207645013021275,0.00014744093553361698,0.0003030641046359854,1.5947221556137048e-06,-5.362030055854384e-22,-6.0,1.9218019623584648,0.0,5.104749961769799e-07,7.731147892595039e-07,0.09078466003523303,0.0,0.0,0.0,0.08772618981533545,-1.9233384500502235e-05,-2.0602195930541614e-05,-6.41119102540332e-08,538.0169641239665,538.0042047280256,538.0105858603428,538.0101474278187
3.8999999999999995,-5.197135079373697e-08,-5.999999942920991,1.9253280494034877,9.14095246411897e-05,-5.929683374618527e-05,2.0125910585918545e-06,-5.036063831237603e-22,-6.0,1.926555743824986,0.0,2.6993080862902228e-06,-6.231869390343386e-07,0.08574465146336803,0.0,0.0,0.0,0.09248563078607755,1.3773154088480912e-06,3.072581092331134e-05,-4.960780946888532e-08,538.1347585412173,538.1450387496427,538.1350310923297,538.1444292033487
3.952,4.187886454052853e-08,-5.999999995122999,1.9296368189336637,-0.00010803043753272925,-0.00034505383526687894,2.063448503779438e-06,-4.728133285006546e-22,-6.0,1.9310464990416345,0.0,1.2878237076563939e-06,-1.0377398642106023e-06,0.08093311497167247,0.0,0.0,0.0,0.09722523014723067,2.179307139973429e-05,3.6052664173565876e-05,-5.12545416964208e-08,538.2594105509949,538.2779297428151,538.2662135781122,538.2707787585286
4.004,-7.48626653390568e-09,-6.00000000280559,1.933702755237078,-0.00016127440194503844,-0.00014476427329129042,1.996474901892422e-06,-4.437348465357561e-22,-6.0,1.9352872067653204,0.0,-1.7115226242165151e-06,2.4928660009055e-07,0.07637141839440008,0.0,0.0,0.0,0.10166649464961489,1.1045350557457349e-05,-9.302455348140782e-06,-2.0673487243859385e-08,538.3889748218322,538.3895326811329,538.3924399778784,538.3859271283451
4.056,-1.1968672903458195e-07,-5.999999943826547,1.9375392518462073,2.7595662410332545e-05,0.0002270956770595343,1.678146832953764e-06,-4.162856141153984e-22,-6.0,1.9392903102311332,0.0,-2.0678204233274104e-06,1.3709135178507795e-06,0.07205218621746767,0.0,0.0,0.0,0.10582314750532218,-1.5078363044914074e-05,-3.581143145444331e-05,-1.8296648507966746e-09,538.5102445366491,538.4939593373101,538.5054131634531,538.4987783919996
4.108,-1.39680123586926e-07,-5.999999895289542,1.941157856190883,0.00017196152042767244,0.0002379798328325611,1.6123943422529245e-06,-3.903838824171261e-22,-6.0,1.9430677314115887,0.0,3.5412892521895857e-07,6.352483399805362e-07,0.06794710420160209,0.0,0.0,0.0,0.10983027141420855,-1.6961137125815466e-05,-8.627168933534795e-06,-2.2757873628588673e-08,538.6150280670249,538.6068412298073,538.6095242250809,538.6121906325637
4.16,-5.967286791486695e-08,-5.999999917996105,1.9445690740943127,6.548626815359474e-05,-9.341799535193183e-05,1.5469951404317781e-06,-3.6595137693637155e-22,-6.0,1.9466308855964018,0.0,1.8044848349703608e-06,-8.304298739823654e-07,0.06403768435578171,0.0,0.0,0.0,0.11378388769904707,6.758535915069138e-06,3.0903491688623124e-05,-8.081694205593712e-09,538.7122088833635,538.7242562411332,538.7143434071457,538.7220669141856
4.212,-1.5216420525393517e-08,-5.999999969654748,1.9477834806838146,-0.00011144573113650286,-0.00024723979244587786,1.371590389613592e-06,-3.429131959306432e-22,-6.0,1.9499906962030422,0.0,2.750249980950287e-07,-9.123545253141851e-07,0.060335837189175026,0.0,0.0,0.0,0.11752694021935997,1.771493105520464e-05,2.0567804773120487e-05,5.344668209436294e-09,538.8136752666497,538.8259188687487,538.8193590298007,538.8202714371486
4.264,-7.195406931344857e-08,-5.999999976403796,1.9508104425817259,-9.004881971333687e-05,4.3450268552291827e-05,1.1996281295202629e-06,-3.212789627519706e-22,-6.0,1.9531457597943112,0.0,-1.5452136682619124e-06,2.3765139525004375e-07,0.05678353728020276,0.0,0.0,0.0,0.12106605808621833,-7.701414942995104e-07,-3.586237480563562e-05,1.0902724213909962e-08,538.9216793544877,538.9099656139105,538.9214700732927,538.9102488597209
4.316,-1.02371049462077e-07,-5.999999948263884,1.9536559711596406,0.00015866433477375948,0.0005649443724596704,1.093855286805521e-06,-3.0082095705707976e-22,-6.0,1.9561292863369364,0.0,2.64878453276329e-07,5.003426447061986e-07,0.05336450056854356,0.0,0.0,0.0,0.12538603410286137,-3.341259374938044e-05,-8.519164509663478e-05,7.974907589237494e-09,539.0519861071909,539.0140690503779,539.0413316160581,539.0247781677893
4.368,-1.3199314068713326e-08,-5.999999984217494,1.9563318505605016,0.00019713738436262968,0.011189485369826292,1.120468338354582e-06,5.121097322815157e-06,-6.0,1.9589395369744662,0.0,-7.768550494855937e-06,-1.3370689098135108e-06,0.05013116483055642,-3.206536063852558e-05,0.018875827667182907,-6.174445878872195e-09,0.13058396740377293,-1.2157867200006218e-05,0.03716223893885605,-3.5661039195055985e-08,533.2042636247048,545.0785322651033,533.2002120737953,545.0822563531236
4.42,4.475772224292621e-05,-6.00000009550046,1.9587727549536997,-0.00016099466478796594,0.9598140238362058,1.3898835848300024e-05,5.6115264155870965e-05,-6.0,1.9615856080131187,0.0,0.0019166099161397657,-2.139489710013217e-06,0.045358555453424966,-4.6574144598501363e-05,0.3642445850788107,1.9426769929452994e-05,0.15009983920147082,1.6425932749519413e-06,-0.13615659350946782,-6.756419645933276e-06,561.0300334701799,517.5217220777226,561.0085245737123,517.4973108796465
4.4719999999999995,0.000491903559438803,-6.000000197694431,1.9610498328528636,0.0006506273852171406,1.1616345326998196,8.687186439797634e-05,0.00016671569837338707,-6.0,1.9640761796273287,0.0,0.01224383297104298,-2.693058721201003e-06,0.04317013137364099,0.00019230262283568392,-0.17654731111347963,1.3599408556079997e-05,0.1525989858349853,-0.00012089257061125468,-0.011296918112535293,-7.734550798715656e-06,541.6033337811708,537.9581853104896,541.5387609736881,537.9706303812897
4.524,0.0014279295077753108,-6.000000537405682,1.9632208186486095,-0.00010589091227624439,0.1862699811246015,8.4388763512127e-05,0.0004125138740125149,-6.0,1.9664195305857313,0.0,0.01985248524176672,-8.273074127057935e-06,0.04108676250803851,-0.0005762351090111925,-0.3250830549413597,-2.429627542373572e-07,0.15137294251624064,0.00011198145144959239,0.09032226688821765,-5.16035996826243e-06,525.1113158855075,553.9947339361502,525.1301015076593,553.9428721328493
4.576,0.0024598741851530864,-6.0000008027757135,1.9652960422343608,-0.001881350014236981,-0.1580974005944043,6.793706816763154e-05,0.0007981836168790896,-6.0,1.9686235528034215,0.0,0.019231520091214028,-1.846835677706733e-06,0.039116434923286154,-0.0004451316814977393,0.0527362982966866,-1.1406841332378767e-05,0.14930677687151228,0.00026999694879481376,0.09318611289046108,-6.84985595581427e-07,524.5498501399711,554.4026556544538,524.6361557304649,554.3164670799329
4.628,0.0034511986526314063,-6.000000276708682,1.967216950675532,-0.0014213413853500644,1.2124179294031532,1.6437115395806157e-05,0.0014168748190947632,-6.0,1.9706957656863398,0.0,0.019905767760464356,1.643761120819758e-05,0.03595805533630492,0.0007123633253469507,0.6166159004615636,1.9869692289087034e-05,0.16359882702135636,1.5194315205195553e-05,-0.160367396555471,-4.209066542620169e-06,565.0793047940552,513.8570264670731,565.0703231065633,513.8369581114439
4.68,0.0049462526543303425,-5.999999208360963,1.9690006439941807,0.0018994934231128,2.1361013455845947,0.00011699452109933633,0.00229265490558617,-6.0,1.972643330238246,0.0,0.034474170017346324,1.9193023499959287e-05,0.03487881644023138,0.0008337497850634337,-0.010065853941231656,2.5473298350232887e-05,0.1660570032906756,-0.0003140235699861603,-0.1408475741545387,-1.3750884654567885e-05,562.2249711433938,517.1512407137593,562.0839968146558,517.2072739848707
4.732,0.007317621058431647,-5.999998893820685,1.9707008828727544,0.0018142970937658042,0.7307428860700268,7.924276852000822e-05,0.0033934282538436947,-6.0,1.9744730629049394,0.0,0.05020420903866518,-1.6827486846639082e-06,0.03294820316654208,-0.0006924263792246004,-0.6819157625069997,-4.0864609660360885e-06,0.16389936145171735,1.0229877825253649e-05,0.09108135953903412,1.7901398653431213e-06,525.3401213087643,554.4159698259878,525.3497055679045,554.4186921475223
4.784,0.00998579064379907,-5.999999278146068,1.9723033386910132,-0.003566171728291637,-0.6902227315830518,-9.567506192159569e-06,0.004750582394158765,-6.0,1.9761914491341832,0.0,0.0498098728675191,-5.687579743324697e-06,0.028680615260772646,-0.002075347139601094,-0.0792920744604359,-4.211206137629262e-05,0.17504957752393807,0.0008285066999502386,0.13692010608662009,1.0797202186990261e-05,517.9301726711445,561.8957971491494,518.2438438576074,561.6767870845598
4.836,0.012381877582616304,-5.999998307533104,1.9737635284929174,-0.0029710611058596497,0.6163438776853811,-0.00013475185376860308,0.006483329361618174,-6.0,1.9778046566332785,0.0,0.04498464526928363,3.312663755984789e-05,0.027936438479856007,0.0015800974477090412,0.6533741312120245,1.4071675632722456e-05,0.17672619213311686,5.981319816025576e-05,-0.12531251475656421,1.2818720716794187e-05,560.0168375889489,520.0484265400081,560.0770798731024,520.0736616895173
4.888,0.01501058076605261,-5.999996145179284,1.9751688279494726,0.004047107964729832,2.243042401085753,1.171331902744069e-05,0.008550584595839903,-6.0,1.9793185483093532,0.0,0.05540247497494296,3.919267267944126e-05,0.028683922994859546,0.002251830359513258,0.29146356420367725,6.389507009861865e-05,0.17393446869926066,-0.0007006225424632476,-0.2183505032470212,-2.1362367891420588e-05,574.2504364937068,504.24927664801567,573.9721225504319,504.4112483238001
4.9399999999999995,0.018527789724117602,-5.999995633960604,1.9765120316720377,0.004844639401784982,1.325478542106363,1.4900826085768546e-05,0.010924289680739404,-6.0,1.9807386948802925,0.0,0.07369266004884242,-9.166036958984108e-06,0.02711116768589608,-0.0014130738229136016,-0.6331359213348534,3.22195132885378e-06,0.17519098092015897,-5.0708029832523336e-05,0.07782983748067254,1.2462770331337898e-05,527.8134437766445,552.6243758879705,527.8400476481788,552.6814077395051
4.992,0.022593727425827277,-5.999997100755081,1.9777369153331537,-0.002958300012533685,-0.06459884483878428,-5.055529693579676e-06,0.01376370965652275,-6.0,1.982070387146805,0.0,0.07888332078631541,-3.0739841965496216e-05,0.023020444449723655,-0.0027135367135627244,-0.2811694672538727,1.222842920391613e-05,0.18101119189574583,0.0008869373670699478,0.11914586117369391,-6.259711694298411e-06,521.0662868030365,559.356346080906,521.337582741365,559.0625669831406
5.044,0.026606939665080723,-5.999997392471136,1.9789187438018467,-0.006241548872213754,0.12004674287638895,-1.7953129223856956e-05,0.01706302165607758,-6.0,1.9833186479184273,0.0,0.0760296785013357,1.3725871457906375e-05,0.02261789645116032,0.0002852862693669275,0.2670936130813482,8.926869049978459e-07,0.17447772949459078,0.0006596684166265178,-0.002762591293304431,8.563519846914128e-06,540.6838467902172,540.0131917938744,540.922992637245,539.8316386501967
5.096,0.03061853869092007,-5.999995090205503,1.9800687682378584,-0.00048670324079023525,1.2535460660188031,-5.627913720741607e-05,0.020789150844520432,-6.0,1.9844882435883693,0.0,0.07877088004391967,5.631912434670049e-05,0.023036296595513407,0.0025706793102415527,0.42698311938721434,2.1355973441246004e-05,0.17385075730103386,-0.00022068810378453465,-0.07900830968297876,-9.989313426627811e-07,552.8371933694391,527.5628816865923,552.7650948546567,527.6315027412494
5.148,0.03512911060507963,-5.99999252869522,1.981107091520049,0.004864149324304829,2.449918012900473,5.3926034304295046e-05,0.025128512158457097,-6.0,1.9855836953539459,0.0,0.09260203813563243,3.848427014854609e-05,0.023187489625454315,0.0008424499048536302,0.23662956245212205,1.2875946188292333e-05,0.18091678251831553,-0.00032304803588765503,-0.16177893121170434,-1.0746501768882566e-05,565.8043467824614,514.0680101465675,565.6712235770931,514.1380857126381
5.2,0.04061370935401637,-5.999991978292624,1.9820815117357777,0.0019346926296678277,1.8426510011995365,-2.4494996355932786e-05,0.030049231157407378,-6.0,1.986609290081039,0.0,0.11240522790988097,-3.666600334624061e-06,0.022327570937317742,-0.0021414708386648757,-0.48896940618618345,-3.200641255243076e-05,0.17888680104688565,0.0005358683760639195,0.015883221008884424,1.4499399880033659e-05,537.8338934409528,543.0691996440534,538.0548216616047,542.9479481831186
5.252,0.04681235411161513,-5.999992263264434,1.9830224524450486,-0.00456845183748309,0.007943146683003579,-2.3213600524345484e-05,0.03546789034447687,-6.0,1.9875690908125045,0.0,0.12095314464184789,1.3931474151627366e-06,0.01816485015106282,-0.001599167556203093,-0.5673732611347629,-4.36709924106358e-06,0.1746874568858756,0.0010408040064616422,0.18776437270734259,-8.712603477811077e-06,509.39020668974257,569.6931728508081,509.7109432935464,569.3502837087744
5.304,0.05295756344558674,-5.999990730710268,1.9838808992776193,-0.00349607069148925,0.12698381922494528,-3.6777391063436154e-05,0.04146347597470146,-6.0,1.9884669469217608,0.0,0.11572531091488947,4.658196036566744e-05,0.015007867247443152,0.0016732667627887994,0.6232139734142499,-4.6812208503711565e-06,0.18961386123159746,0.0003789674934516319,0.007306295711131894,1.4573525553446839e-05,539.5219477077962,541.9710943903475,539.6923393460492,541.8997444649133
5.356,0.05911827954322407,-5.999987778490236,1.984619254505045,0.0035322574119879147,2.9576802504371416,8.870153246606036e-08,0.04817914411381315,-6.0,1.9893065039139721,0.0,0.12311617988828734,5.5191870606273746e-05,0.019610988226873356,0.002212434311027539,0.8921300616698205,2.102074121033329e-05,0.19495035831847066,-0.0003126006423622337,-0.3020899915602116,-1.8146181105693097e-05,587.1421273724267,490.42070202236465,586.9938681479758,490.46290873597417
5.4079999999999995,0.06642329330973837,-5.999986346866278,1.985300138656425,0.006638383091838659,3.5261467004603775,3.002265459438567e-05,0.055511450932429096,-6.0,1.9900912128782664,0.0,0.1518254882077224,6.7431954177306175e-06,0.022432849070712628,-0.0002934619922085436,-0.3652872224145466,-2.7204050002955023e-05,0.19753663453993173,-0.00012515503250456843,-0.13343020600243094,1.8689788509258633e-05,561.82513383709,519.2470193651645,561.8475520945043,519.3543371961882
5.46,0.07511188979688878,-5.99998769238372,1.9859582617463503,0.00016276803317719839,0.6195925644762195,-0.00019378742944636023,0.063364127193819,-6.0,1.9908243395953198,0.0,0.17309652268475811,-3.8282707498143035e-05,0.015488251952386104,-0.0030532545902347214,-1.2335308394632851,1.2600687057677749e-05,0.193334390578611,0.0009607062570459921,0.28126296310622023,1.0053557970602583e-05,493.85322268660144,584.0888019685223,494.2255230474154,583.8367696131145
5.512,0.08397044157904669,-5.999989164743306,1.9865401463968577,-0.006196835184753428,-1.14051573647096,-5.2056699262843205e-06,0.07182679246066273,-6.0,1.9915089733054387,0.0,0.1654793998323938,-1.2515028780540188e-05,0.006185638942391035,-0.0007819148826158046,0.15848232009259433,3.693234365397494e-05,0.21440160523863924,0.0011595624883277695,0.16769845489958676,-2.7657910076534422e-06,513.8738599670127,567.6825347964182,514.2527369342417,567.3215178544764
5.564,0.09227356881076654,-5.999988104940557,1.9870251673564006,-0.002499994286102601,1.4648401501511992,-8.735411119842097e-05,0.08106265819494884,-6.0,1.9921480351429275,0.0,0.15865605976875966,3.8535157609732146e-05,0.012660947258608873,0.0025492326446924294,1.0989795489170835,7.920123160278834e-05,0.21384169720935065,0.00020348790404341502,-0.21422128314626493,-2.5709740362308134e-06,574.4814317816945,506.22863214486597,574.5342887189591,506.15007335693326
5.616,0.10104312128405288,-5.9999860206053155,1.9875212207302586,0.005705651777283499,3.5149617121565075,0.00020319078564700786,0.090953335245165,-6.0,1.992744286243126,0.0,0.17731544898499663,3.116569401769835e-05,0.02039212721349208,0.002057557100846672,0.2409852602028557,6.434983582043488e-05,0.20888818739718779,-0.0003865240979071365,-0.22225373831988032,-3.179114977497663e-05,575.6937856801826,504.668310728455,575.4771043848232,504.6851480212326
5.668,0.11114791483075986,-5.9999862565115265,1.9880322354207607,0.00324664709760938,2.157298741456896,0.00010730925532662667,0.10139813960098822,-6.0,1.9933003355289847,0.0,0.2032661899940297,-2.6574582232574738e-05,0.018405100699190595,-0.0031332053249491254,-0.8173756132515182,-9.544054555923063e-06,0.2018351772395668,0.0009160812316402278,0.17079308813840177,9.389142346760184e-06,513.0158859258814,567.7720215778677,513.3569443043382,567.5241532917921
5.72,0.12205761831300733,-5.999987831093071,1.9885097774415987,-0.0061589114007911,0.5155540323160792,0.00013135459876022543,0.11262717812934925,-6.0,1.9938186471844515,0.0,0.21127528933398043,-2.091757818619388e-05,0.011005535496157449,-0.002134629372684082,-0.17994020742518005,2.5250830621456278e-06,0.2057920405497913,0.0015711218375644058,0.19250939512093504,-1.2003225019656213e-05,509.3966659063515,571.2924330342594,509.88486071401894,570.7798822438707
5.772,0.1330902273071636,-5.999986972208889,1.9889960177385424,-0.0034640590141403103,1.7793202852444379,6.47495093994245e-05,0.12466853675649645,-6.0,1.9943015478222887,0.0,0.21360377862524862,3.801758965310933e-05,0.015518149191333746,0.002839846431188679,0.724403230898258,3.566589111447593e-05,0.19578637036183172,0.0003957638633219485,-0.08930617448247213,-1.7963103189676983e-06,554.9236648815095,526.5901586326705,555.0406358362641,526.4543928786027
5.824,0.14472876537587206,-5.999984712925343,1.9894916370309534,0.006932850693280643,3.671054967974095,0.0002693884510775642,0.13738661450974526,-6.0,1.994751233354208,0.0,0.2320050822301405,3.413842938117182e-05,0.023879790700925385,0.0028610784686791705,0.4051634627887849,3.6996226451869324e-05,0.1918471124208864,-0.0005195643987930486,-0.205283543987646,-3.6141913854656314e-05,572.740303440605,507.0514464167681,572.4685668962749,507.0977333683456
5.8759999999999994,0.15774356339450507,-5.999985272169771,1.9899429867602176,0.0071348728555761035,3.415239663243098,0.00017911819179775514,0.1508103134252358,-6.0,1.9951697755714195,0.0,0.26074708743864117,-3.991600397109951e-05,0.023832628505760227,-0.0018930158751947319,-0.29596377446614686,-4.172804694088486e-05,0.19853577074302647,0.0003492789534468891,0.010816432166893035,9.229270177861767e-06,539.216884356382,542.7735476065715,539.3597759317628,542.6937300972224
5.927999999999999,0.17206372740687914,-5.999988818891077,1.9903366959280349,-0.0030749789109668184,2.418400989561776,3.53796693832067e-05,0.1651934239356385,-6.0,1.9955591284438539,0.0,0.2827326643573501,-7.443121680935903e-05,0.019878928819637803,-0.003741770393810573,-0.2926050741515417,-2.0052009644827584e-05,0.19617525506857636,0.0015998931292652485,0.07794267096071039,-2.133173918556431e-06,528.1320889920225,553.4780417155179,528.646488773775,552.9726387395069
5.98,0.18724791913193903,-5.999991119321923,1.9907397618499003,-0.008657550344282663,2.0977841639467965,4.659966533899986e-05,0.18039388717100915,-6.0,1.9959211341464211,0.0,0.2968272651506683,-1.8831890813264604e-05,0.01869407118348842,-4.793817299949635e-05,0.027806854117913105,-3.964714266092081e-07,0.1886923747804593,0.001473046935452163,0.02711514920146708,-2.444531934752358e-06,536.1771911130437,545.2879386537902,536.6420883551148,544.8140159834012
6.032,0.2031261415189106,-5.999989787787766,1.991150587224947,-0.00168315023279044,2.5034236478636274,3.186220856088858e-05,0.1962676927477258,-6.0,1.9962575288207474,0.0,0.3106284077479595,4.498270760096481e-05,0.0212353688188645,0.0035199007003040733,0.153595975684846,1.4657307105796118e-05,0.18306918607645262,0.0002543415144851624,-0.008283687561240738,-5.838875503989396e-06,541.8836373462843,539.3241629733798,541.9448218486468,539.2230967432957
6.084,0.21984305155702716,-5.999987661564106,1.991510545039115,0.006577002881923418,3.216416154847448,0.00010485839124291532,0.21305341606021763,-6.0,1.9965699480808408,0.0,0.32827458216562483,2.7917774918121036e-05,0.024160188750013186,0.0015226340878326974,0.32327513733556384,-2.8252085953275735e-06,0.19202462858187164,-3.443093089664206e-05,-0.0792377138895024,-1.5911187991924928e-05,553.3490251504988,528.0851301821077,553.2857392801807,528.0412897660194
6.135999999999999,0.23769936751154278,-5.999988208475589,1.991808934710773,0.003922133580628147,3.725069924150993,0.00010608940016192417,0.2308185484873828,-6.0,1.9968599322711502,0.0,0.3527265490658509,-3.1640799856461956e-05,0.02853076439532013,-0.002300490510114121,-0.001932375439110875,-3.0992416268510835e-05,0.19363036379257728,0.0009306984962696426,-0.08628986723857301,7.053147295840138e-07,554.3109954651516,527.1067640903528,554.6025824917076,526.8048527464733
6.188000000000001,0.25688115941378153,-5.9999904214133535,1.992088241014949,-0.004871616495046762,2.885503688855183,9.083940098999155e-06,0.2493876270674558,-6.0,1.9971289314854344,0.0,0.37734123290210164,-3.983688576507561e-05,0.025100291104274954,-0.002830884094812299,-0.43007642215710834,-4.3714726580966815e-05,0.19178740949750192,0.001869677983354323,0.039542513205241596,-3.1651283429282265e-07,534.1935052486116,547.3896801687112,534.7952231365689,546.7997056669847
6.24,0.2770179641075789,-5.999990576686844,1.9923674666872282,-0.007966769772271723,1.6464448153017222,7.345277105784657e-05,0.26860192688680046,-6.0,1.9973783103547933,0.0,0.3914152182313856,2.3417448696685234e-05,0.017215411110024854,0.0007160823367958339,-0.32322202264402455,-2.5408812929949435e-05,0.18741854017004314,0.0015897303342630386,0.10055294923727329,-1.077480931004489e-05,524.2028559574735,556.7694586538925,524.6876655608041,556.2417975931845
6.292,0.2975799620435962,-5.9999882761360706,1.992589884603554,0.044078679180437355,2.2350119293215074,0.0008842251302007305,0.28868200828627716,-6.0,1.9976093526131362,0.0,0.3978048327668876,1.047786998912824e-05,0.017950173471421593,0.027168455220582664,0.5698468274469756,0.00021354236265521976,0.20114682978422327,-0.009964523899022828,-0.052362107895035495,-0.00021902317344997497,551.2830842424144,531.4434036264217,547.4285844583158,533.9154215552876
6.343999999999999,0.3187927586345759,-6.000004256991465,1.9927575886140947,0.062211290144596934,4.000884996489908,0.00234299008479039,0.3097563547800039,-6.0,1.9978232654482404,0.0,0.4156749057167051,-0.0005430037322726531,0.03142255257946447,-0.013831570650320693,0.4449342208028755,-0.0005549485804448206,0.20283472962432295,-0.0038223128264062087,-0.20368785425890787,-0.0001085725481882809,573.3928398339258,507.20875691549406,571.8960286475585,508.11531291385313
6.396000000000001,0.34136387919236394,-6.000044937432059,1.9929156579638752,-0.038997073951859626,3.7594955679531927,0.00020815922970483016,0.33163563601156915,-6.0,1.9980211836464397,0.0,0.444526353795584,-0.0008303947220919181,0.03321010641891553,-0.03923450560349337,-0.45294606877474297,-0.0008087567447664669,0.20264290862726228,0.00995186929563977,-0.04327920691248548,0.0001047153709643085,546.2304581453749,535.6131130689909,549.7094255646119,532.7610147919938
6.448,0.36518094173918586,-6.000069110533732,1.9930573808583647,-0.1030618889463204,1.882959084172694,0.0011309568965968035,0.3543461164582731,-6.0,1.9982041735388323,0.0,0.4633498515382275,-0.00017575101507143984,0.01816609704827769,-0.003654141872318697,-0.4741842340847814,-0.0005160112472319639,0.21076573165900908,0.009595046522021096,0.1954458070434581,-0.00013870131846374962,507.91068126279555,573.2720418639532,510.659518530775,569.9358115927612
6.5,0.3894873408921674,-6.000049828787626,1.9931657879045535,-0.03272233472791865,2.058406941818042,-0.0004363167406088799,0.37820800262494325,-6.0,1.998373236756751,0.0,0.46946203974207446,0.000627800235325183,0.018403200759420132,0.03743526828209991,0.3955444761104663,-0.00044722080544093944,0.2066624757451879,-0.003544914970945217,0.0034953418153496896,0.00019930476214669106,540.9045710211067,540.8887773882363,540.4485254450497,542.688715124451
6.552,0.41430856453151277,-6.000015833159286,1.9933146632207506,0.06497046267011447,3.6473436735872293,-0.0003782699923208371,0.4030283418050806,-6.0,1.9985293138040645,0.0,0.48332660838014335,0.0005690369337969136,0.03288320171509244,0.021532325044793056,0.46915522244099217,-9.456472049086254e-05,0.20048687079481245,-0.008762156902511102,-0.16684846206809847,-8.245567144735875e-05,568.4767710857269,512.4855419898417,565.5479752433389,515.1309341947546
6.603999999999999,0.44027244135081917,-6.000008291993477,1.9934747535970858,0.04954435217616423,3.796575390643807,-0.0008164859340082473,0.4286368690630436,-6.0,1.9986732874537088,0.0,0.5084616170215938,-7.044021954061877e-05,0.03741626053736667,-0.02182252215303578,-0.25876924974731835,-0.00026911860541380974,0.19948615649278778,0.0007019062016556912,0.029892333392700372,0.00017761132266652533,535.8421652868219,545.5924918216775,536.6731272279329,545.9657140411861
6.656000000000001,0.4674640483778833,-6.000021986575505,1.9935788792865055,-0.03885407629025446,3.0962566289270805,-0.001018962522065178,0.4553960911907104,-6.0,1.998805985975664,0.0,0.5299308708819954,-0.00026130076198220054,0.030912859109896836,-0.0280820751795349,-0.17400933206858732,0.00015487677017303708,0.20747830474941129,0.009545377097795828,0.05310567465327075,-1.4186013707578832e-05,531.2126956040611,551.1621244320351,534.2517128588909,548.1222500593416
6.708,0.4955782152423674,-6.000020197601325,1.9936965758974505,-0.06494514993071848,2.9693466772179016,1.539545417491459e-05,0.4832780469617589,-6.0,1.9989281862034018,0.0,0.5461745297315087,0.00024243790986578614,0.03080960896047379,0.007019395796853548,0.04142601981406999,0.00036950219366063756,0.20021465922393655,0.0056362479016098446,0.0037657875941574416,-8.64645802564906e-05,539.7062078181945,542.6999294859353,541.2108973985617,540.61500080485
6.76,0.524529660366779,-5.999991580625513,1.993852473275224,0.01358673892594296,3.24022378508158,0.0008963090176044902,0.5120538849890257,-6.0,1.9990406164456402,0.0,0.5625781682508227,0.0006408732379842153,0.03486415284470761,0.03479132217097593,0.08635709976721143,0.0002822871838491805,0.19281305543216218,-0.006572898412771533,-0.055821551113848566,-0.00013228139027901626,550.9287190752265,531.053794192225,548.4282137060553,532.7287291958814
6.811999999999999,0.5543995495573414,-5.999968709517577,1.9940114781173275,0.0817000980803926,3.306463592447269,0.000970510747856815,0.5416998370367605,-6.0,1.9991439592500337,0.0,0.5805260198614111,0.000239426828961261,0.03573351921606199,0.006913041353852981,0.07719341616971402,-0.00021718469399607077,0.1972546518573584,-0.007372566297025766,0.019864039915180525,-3.804897250050101e-05,539.050404855406,543.0290417662213,536.5587356975243,545.2361007408032
6.863999999999999,0.5852332187199437,-5.9999795112858045,1.9941175370074282,0.022587830480711016,3.8202438556855225,0.0002232145859533583,0.5726088160863102,-6.0,1.9992388540252435,0.0,0.59980468169344,-0.000404304180100301,0.041600854069317135,-0.03354480845847715,0.1727788613965606,-0.0005126287203837123,0.19850282271339667,0.005310645359318,-0.0597222976740587,9.113436013283299e-05,549.458669741819,532.1200890062167,551.4238990765792,530.7114426638483
6.916,0.6172121663834103,-6.000000317217147,1.9942256353427237,-0.06846422704441764,3.877145968562807,-0.0006242950192217468,0.6045719295022157,-6.0,1.999325899527622,0.0,0.6228464972906297,-0.0003038335774018011,0.04470444123037485,-0.02080499309309406,-0.11156850817851396,-0.00010324756343269375,0.19576571414402036,0.010939528123730505,-0.03600967105307525,9.792106978661512e-06,544.901069361945,536.9140721186593,548.3824345059825,533.4249686565603
6.968,0.6503357679517345,-5.9999930646295345,1.9943436670714485,-0.05393803040309231,3.0594037556397597,0.0008285526439399472,0.6373695217416835,-6.0,1.9994056562185398,0.0,0.6434052416806695,0.00036170068554806613,0.03776047493107921,0.02146725284706842,-0.3428954955481881,0.0001923090355513321,0.19186972123040136,0.0022387457912827324,0.16001112857973845,-0.0001924186278209253,514.677397486365,566.403068048943,514.7435974924153,565.0994694534626
