Time_s,X,Y,Z,Roll_deg,Pitch_deg,Yaw_deg,Ref_X,Ref_Y,Ref_Z,Ref_Yaw,vx,vy,vz,p,q,r,T_pert,tau_x,tau_y,tau_z,RPM_0,RPM_1,RPM_2,RPM_3
0.052000000000000005,5.789607583274685e-22,-6.0,0.010054997739031915,-8.776255103712237e-18,2.5481407981099704e-18,8.286393125154354e-21,2.3064772856435758e-22,-6.0,0.014025464799603952,0.0,2.4667101485409127e-21,-1.53622316059034e-22,0.000999982223965322,0.0,0.0,0.0,1.2455710769913042,4.871616804188544e-19,-2.8659737181290816e-19,0.0,568.6088366535985,568.6088366535986,568.6088366535985,568.6088366535986
0.10400000000000001,3.1016761706840193e-10,-6.000000000310227,0.01033964514860618,0.00010924422712890073,0.00010926121034301286,4.3798623524104374e-06,2.293827467834844e-22,-6.0,0.024917493175272976,0.0,3.5161130036997e-08,-3.516661394670636e-08,0.017409509470330254,0.0,0.0,0.0,2.419073005929831,-3.587783297509782e-05,-3.588557114276926e-05,-1.3101650462511031e-06,598.0379521603526,598.0172730629432,598.0236092505692,598.0236070207503
0.156,6.237979579307027e-08,-6.000000062363948,0.014104706996354558,0.0002786990232890486,0.0002788688678663149,1.4146091880657479e-05,2.274141915644817e-22,-6.0,0.04186758655104354,0.0,1.7453844403438383e-06,-1.74495564960854e-06,0.11735142237664908,0.0,0.0,0.0,2.8915626791417344,-3.329258605844282e-05,-3.332467436197897e-05,-1.7007027745738625e-06,609.4809280645211,609.462092304699,609.4664141383573,609.4664050654438
0.20800000000000002,2.6074309884150495e-07,-6.000000260624677,0.024285614117397252,-5.5801379612287964e-05,-5.5701799586302064e-05,3.2491102533900096e-05,2.2482832029034675e-22,-6.0,0.06413303236186244,0.0,4.431107644432978e-06,-4.428871925002612e-06,0.25108050300750984,0.0,0.0,0.0,2.969555984787273,2.749834108764115e-05,2.749838614840793e-05,-2.9580937715246235e-06,611.3339739177324,611.349476448164,611.3328805848923,611.3328805975945
0.26,4.256668602897406e-07,-6.000000425398183,0.0417017686673484,-0.00039053330238920887,-0.00039071262992622304,2.7691590583755677e-05,2.217039806924742e-22,-6.0,0.0910349182781676,0.0,4.352664323230727e-06,-4.349060665748626e-06,0.39159212905239443,0.0,0.0,0.0,2.818980951544895,4.165247404399056e-05,4.167404695697236e-05,3.9013786326746495e-07,607.7126915229115,607.7363194860958,607.725675998601,607.7256821157772
0.312,3.816542346019861e-07,-6.000000381323107,0.06627042118863737,-0.0001825642081773309,-0.00018258691151643657,-1.4944663471421963e-05,2.1811315217017517e-22,-6.0,0.12195347121578076,0.0,-3.471449922904046e-07,3.481458742593496e-07,0.5257806939284062,0.0,0.0,0.0,2.5327372245094284,-1.0932274312542607e-05,-1.0965452438760245e-05,4.9118385748876106e-06,600.7940522403351,600.7877712885105,600.8058604493156,600.8058509330297
0.36400000000000005,2.262388491459082e-07,-6.000000247109195,0.09741871145251078,0.0005626929321433298,-9.740350871491556e-05,-6.392631117043138e-05,2.1412145164827775e-22,-6.0,0.1563237016879291,0.0,-2.3018380503299205e-06,7.151998885847998e-06,0.6464047656513776,0.0,0.0,0.0,2.174767234097139,-0.0001303158810934924,4.2647212148379295e-05,7.712517410637637e-06,592.0228124463812,591.9972933603583,592.0086926240413,592.0590376626756
0.41600000000000004,-2.2659508258113027e-09,-6.0000004137573795,0.1342993397684546,0.0009343169115182597,-0.0005198034775807381,-8.785142874221904e-05,2.0978860608980535e-22,-6.0,0.19363133527115453,0.0,5.5999847522667e-07,5.266996882565216e-06,0.7493136847367949,0.0,0.0,0.0,1.7948088048444573,-9.996921430285199e-05,9.052603009370482e-05,5.232912285296918e-06,582.5549944759939,582.5522010809553,582.5418417736704,582.5981907193128
0.468,-4.7444580949649705e-07,-6.00000103317372,0.17593265694630156,-0.0002793636981438645,-0.00014479331876189594,-6.429847996608427e-05,2.0516889366594897e-22,-6.0,0.23340901394518368,0.0,-7.77171082674983e-06,-1.532889052868271e-05,0.8327261939100875,0.0,0.0,0.0,1.429700562828622,0.00010938918292342718,4.410958574285642e-06,1.5857116972944112e-06,573.3047159712426,573.3389213274023,573.3426510106452,573.3110975710671
0.52,-1.0161856193619591e-06,-6.000001502243656,0.221312068779447,-0.0016054094861121687,0.00042823592729676033,-4.064485361162056e-05,2.0031155547627542e-22,-6.0,0.2752327510077251,0.0,-1.5554075736601988e-05,-2.8232298903101675e-05,0.8973611085403995,0.0,0.0,0.0,1.0971476191079508,0.0001856864103186604,-2.5893479666853032e-05,9.579973840683158e-07,564.7531615812759,564.8019177901986,564.8129183884536,564.748361235309
0.5720000000000001,-1.3467157161818984e-06,-6.000001208721619,0.2695234361520003,-0.0007217672994209942,0.0004083017813575108,-3.143439807543635e-05,1.9526117960813146e-22,-6.0,0.3187186241604964,0.0,-1.1433401667620558e-05,-3.411962065577469e-06,0.9451861920100164,0.0,0.0,0.0,0.8042916527992463,-5.110805015364454e-05,1.5041697730727135e-05,2.7753514311175307e-06,557.1463908296042,557.1352353811704,557.139688424345,557.1601484374072
0.624,-1.4678457761232443e-06,-6.000000568416598,0.3197505652531678,0.0010984785106999378,6.0801773607319497e-05,-4.452959183901983e-05,1.9005805922530138e-22,-6.0,0.3635196922143678,0.0,-3.0059616491773575e-06,2.733389075108433e-05,0.9781216560239974,0.0,0.0,0.0,0.5558308385549752,-0.0001712205090834397,4.86981461261748e-05,3.642798708473775e-06,550.5990110228005,550.5606628349806,550.557514552815,550.6263452255366
0.676,-1.5416475363042035e-06,-6.00000040898443,0.3713001548215016,0.000989557361345732,2.9953247487899653e-05,-3.599642407392215e-05,1.847385262819484e-22,-6.0,0.4093231216711241,0.0,-1.6926540899905113e-06,1.6874366319625575e-05,0.9985997966538654,0.0,0.0,0.0,0.35009511134831783,-2.4654947656463953e-05,9.966498474877524e-06,7.765987894902288e-07,545.0956463653001,545.09100276462,545.0904561610546,545.1014013194409
0.7280000000000001,-1.5878124651113968e-06,-6.000000698761859,0.4235581120794369,-0.00048134386859612863,0.0003543750255158947,-1.5820256647951664e-05,1.7933526236851818e-22,-6.0,0.4558475102087095,0.0,-5.858078890922576e-06,-1.2436789828468823e-05,1.0079854789733016,0.0,0.0,0.0,0.1907387646851022,0.00012151336955227222,-2.597397814763967e-05,-2.0593272076416084e-07,540.7880807395405,540.8185241231461,540.8261043570313,540.7791078290201
0.78,-1.4747558003085004e-06,-6.000000797432891,0.4760345746339322,-0.0009852629963754103,0.0004078947878623544,-7.593854631277517e-07,1.7387758811140739e-22,-6.0,0.5028403948276294,0.0,-3.5971126710670877e-06,-1.5984116245831552e-05,1.0089810749709982,0.0,0.0,0.0,0.06820825926842067,6.980419398180063e-05,-1.5458565800927645e-05,-7.056660596865707e-07,537.4722337183716,537.4896578572933,537.4922142339118,537.464877411159
0.8320000000000001,-1.1800123743645447e-06,-6.000000472688138,0.5283574925538601,-4.021967985985181e-05,0.00014152511814633024,7.889263596275063e-06,1.6839173246761544e-22,-6.0,0.5500759331100548,0.0,3.6550692178072457e-06,5.597282257945488e-06,1.0035880658666165,0.0,0.0,0.0,-0.024643900269590846,-7.263988087839022e-05,1.4892377877376499e-05,-6.069950350605613e-07,534.9580467345594,534.9394442556293,534.9325726753355,534.9607699692123
0.884,-8.212082097348695e-07,-6.000000120791448,0.5802431152227979,0.000797891009720659,-0.00011225339241080551,9.77743508260908e-06,1.6290108317911557e-22,-6.0,0.5973527467017147,0.0,8.456440812102906e-06,1.7972011424472994e-05,0.9933102093327856,0.0,0.0,0.0,-0.0933773280696355,-9.141866233692916e-05,2.0981436169900766e-05,-2.445955150425274e-07,533.0774361345545,533.0546657164606,533.0470440586171,533.0833799764822
0.936,-5.111068880383481e-07,-6.000000102335774,0.6314776004531995,0.00035711503749483,-8.620153785153818e-05,7.922910585741834e-06,1.5742641957912498e-22,-6.0,0.6444919167514036,0.0,7.124845597164443e-06,5.336323851027689e-06,0.9794265231280083,0.0,0.0,0.0,-0.14369285567318152,2.3303436992809143e-05,-2.3286060133831136e-06,3.873459290496223e-08,531.6801893464772,531.686987563104,531.6878754547787,531.6795677769969
0.9880000000000001,-2.439627267252964e-07,-6.000000241638728,0.6819056362011161,-0.0005571615936639702,4.271130043414348e-05,3.2787166190485e-06,1.519861288736502e-22,-6.0,0.6913351216353639,0.0,4.4910682463125775e-06,-1.0235274694126941e-05,0.9629228494348585,0.0,0.0,0.0,-0.18028140071477328,9.185697376066857e-05,-1.0706196217865051e-05,5.550054378392685e-07,530.6623144660556,530.6886664574502,530.694054595709,530.6607495046333
1.04,3.1759031469142254e-08,-6.0000001561074034,0.7314118370117154,-0.0005838120290260539,-3.0221058453771145e-06,-1.1515574335860079e-06,1.465964069564635e-22,-6.0,0.7377429078553682,0.0,5.2765623162816254e-06,-6.1192423725581386e-06,0.9444541271567409,0.0,0.0,0.0,-0.20630200273156854,2.537419508330873e-05,4.178441140957045e-06,6.110987891824782e-07,529.9531285351354,529.9627381197395,529.9634871656664,529.9565950028448
1.092,2.9955449184774127e-07,-5.999999827058811,0.7799128865475952,0.00022950565621653344,-0.0001242090647209624,-1.2469132896363243e-06,1.4127144475386834e-22,-6.0,0.783593085531442,0.0,6.705917060551055e-06,9.274793294254654e-06,0.9246073265329222,0.0,0.0,0.0,-0.22504535539967832,-7.019460629437129e-05,1.1738031317764288e-05,2.7114542101209124e-07,529.4506245116445,529.4315977231977,529.42871322517,529.4553810928519
1.1440000000000001,5.1030227342683e-07,-5.999999590115302,0.8273498794677141,0.0006689389905915755,-0.0001243056456114451,6.846381609844791e-07,1.3602360103708164e-22,-6.0,0.8287792404141329,0.0,5.562625024540652e-06,1.2943165037201476e-05,0.9037630159784198,0.0,0.0,0.0,-0.23862124528933792,-5.586663132998553e-05,1.430358265381433e-06,3.356009626799815e-08,529.0753098481833,529.0575790637066,529.0572291143463,529.0758916768965
1.196,6.629617073705468e-07,-5.999999632117894,0.8736793457582533,0.0001481347886266469,-3.172040601512319e-05,3.29419778894471e-06,1.3086356258464144e-22,-6.0,0.8732093548184101,0.0,3.263637203418434e-06,9.192957655906088e-07,0.8821917277053368,0.0,0.0,0.0,-0.2485862235331364,3.665222601506555e-05,-8.575410361534858e-06,-9.089326181625337e-08,528.7866014071406,528.7957512457854,528.7982316308199,528.7834925725829
1.248,7.954155893347318e-07,-5.999999743947184,0.9188704421042405,-0.0004848389494794319,-8.88450384824107e-06,4.254552815084464e-06,1.2580049252480404e-22,-6.0,0.916804530332861,0.0,2.607127015315149e-06,-7.931570553272246e-06,0.8601092189607741,0.0,0.0,0.0,-0.2562242825989565,6.874305550330851e-05,-3.5628635863638105e-06,2.81029957591474e-09,528.5691369427785,528.5903867448168,528.5915579897392,528.5679850852496
1.3,9.18554433147721e-07,-5.999999661034287,0.9629008607584628,-0.00032856842585879105,-8.452249283053078e-05,4.033587999045876e-06,1.2084216763827453e-22,-6.0,0.9594978055850835,0.0,3.305423431549861e-06,-2.1164450127414007e-06,0.8376292308511155,0.0,0.0,0.0,-0.26201903858704695,-1.5763222407282957e-07,6.82760367774903e-06,7.030574932534341e-08,528.4182306735868,528.4204058529457,528.4184224664136,528.420700457266
1.352,1.002731055109326e-06,-5.999999442539441,1.00575185227496,0.00033970883700086356,-0.0001335999729943233,3.922974667957758e-06,1.1599510535469247e-22,-6.0,1.0012330627482091,0.0,3.0608730553328894e-06,8.034953858185788e-06,0.8148276742771783,0.0,0.0,0.0,-0.2662057246551417,-6.375183468298509e-05,6.449066441881325e-06,2.7786564437130274e-08,528.3128716137671,528.2941802117592,528.2921727118043,528.315071309304
1.404,1.0281502988703514e-06,-5.999999360716615,1.0474097970865155,0.0004921310024055775,-8.16948638244914e-05,4.200124869910208e-06,1.1126468113193652e-22,-6.0,1.0419640168554254,0.0,1.3139907721018422e-06,6.7561284630973605e-06,0.7917995025506955,0.0,0.0,0.0,-0.2691134591811091,-2.7674875156133427e-05,-3.0166816766581182e-06,-1.2968957056823243e-08,528.2281168360736,528.2181041337469,528.2190434147736,528.227087815178
1.456,1.0162292905045662e-06,-5.999999483158688,1.0878652064363081,-4.436582798660671e-05,-8.183930249799752e-06,4.3492202748784615e-06,1.0665523686539284e-22,-6.0,1.0816532823503031,0.0,-1.7869030471694138e-07,-2.9671420135607042e-06,0.7686160849830894,0.0,0.0,0.0,-0.270880028223673,4.4208806743765346e-05,-6.793043965299711e-06,-1.12983411481837e-09,528.1680816704983,528.1802891840995,528.182501587148,528.1658613867453
1.508,9.980647534700865e-07,-5.999999593438556,1.1271118633182806,-0.0004217478859555431,-1.2589639730387222e-05,4.334663554554305e-06,1.0217018093473686e-22,-6.0,1.1202715116416742,0.0,-2.298705468025808e-07,-6.3030415310824456e-06,0.7453367610006882,0.0,0.0,0.0,-0.2715297387639521,4.383244080947662e-05,-2.2592956427921967e-07,7.3730176313903e-10,528.1490809594487,528.1633087921111,528.1633850585737,528.1490097944188
1.56,9.73251790497172e-07,-5.99999953358402,1.1651465654685442,-8.796604022031315e-05,-7.409482551610208e-05,4.270678689734153e-06,9.781208045838655e-23,-6.0,1.1577966007537543,0.0,2.2718410658408167e-07,4.6078514665072386e-07,0.7220185543607668,0.0,0.0,0.0,-0.2710528467799625,-2.9885918765678533e-05,7.500933036067271e-06,-1.4399149575785148e-10,528.1730510727183,528.1657475334152,528.1632996864195,528.1754978778822
1.612,9.17368736768587e-07,-5.999999436984526,1.2019690445568263,0.00042846476285055506,-9.010174600619616e-05,4.2378037883392605e-06,9.358274629049225e-23,-6.0,1.194212957466096,0.0,-2.7230395085915675e-07,5.8345746756604135e-06,0.6987193648393786,0.0,0.0,0.0,-0.26944723852147795,-5.765361012140349e-05,4.114666840721212e-06,-1.929944263470094e-08,528.2226149324117,528.205148276321,528.2037390878853,528.2238905014428
1.6640000000000001,8.245820456471733e-07,-5.99999951125716,1.2375821576369679,0.0002648713925487691,-1.6721094808015986e-05,4.636945746242834e-06,8.948331126202487e-23,-6.0,1.2295108276247133,0.0,-1.6700540279623729e-06,6.974279101620621e-07,0.6754986299417138,0.0,0.0,0.0,-0.26672972755058044,2.7725818897349097e-06,-5.4425677186040296e-06,-6.876388846354005e-08,528.2896250184797,528.288754080926,528.2902914976565,528.2876117510272
1.7160000000000002,7.248109037531105e-07,-5.999999695375487,1.2719916986452648,-0.0002799024529171981,4.167230095200382e-05,4.658240176438507e-06,8.551430213611278e-23,-6.0,1.2636856755761856,0.0,-2.2639956930215187e-06,-6.019606089427628e-06,0.6524107480986105,0.0,0.0,0.0,-0.2628968387479513,5.138410672645484e-05,-5.9531306141204465e-06,-2.826412594545535e-08,528.3877896343886,528.402606044501,528.4044497361346,528.3857503320476
1.768,6.428449318563234e-07,-5.9999997676167816,1.3052063130946978,-0.0003844790649952466,1.4857833611841636e-05,4.432523651813305e-06,8.167570571815869e-23,-6.0,1.2967376149315784,0.0,-1.6582522128347816e-06,-4.302329650775741e-06,0.629513589660307,0.0,0.0,0.0,-0.2580105725801696,2.0654007910873273e-05,1.4722687038034463e-06,-1.335710589746641e-08,528.5267656372088,528.5339798371134,528.5334536174222,528.5271994737333
1.82,5.686588358540452e-07,-5.999999680701645,1.3372376016593839,5.2410760488099124e-05,-4.068498623542937e-05,4.086442892325899e-06,7.796702953335136e-23,-6.0,1.328670886107394,0.0,-1.0936074644267686e-06,2.304355908743243e-06,0.6068572252425412,0.0,0.0,0.0,-0.2520858413338032,-3.6865102984595515e-05,5.7956820778611305e-06,-6.918736764158267e-09,528.6993131626684,528.6891862198815,528.6872732001383,528.7011782983517
1.8719999999999999,4.798553585319996e-07,-5.999999611914429,1.3680984000724972,0.000400179370770579,-3.30169450017601e-05,4.070787329668453e-06,7.438735745788401e-23,-6.0,1.3594933773172408,0.0,-1.4813307238455645e-06,4.198307989475316e-06,0.584447703472957,0.0,0.0,0.0,-0.24479912180595895,-4.6828491579379456e-05,2.3019388645357427e-08,-4.741340922126031e-08,528.9034381140161,528.8881878877755,528.8880165223253,528.9032817537159
1.924,3.793497284126884e-07,-5.99999970540407,1.3978054360568495,0.00017129594485571498,2.973082955241559e-05,4.719921943799651e-06,7.093540066541739e-23,-6.0,1.3892161859012317,0.0,-2.1477858289664496e-06,-8.92181525404829e-07,0.5624328594247208,0.0,0.0,0.0,-0.23709573010016222,9.888627985686131e-06,-6.100784156497674e-06,-1.3858515262812667e-07,529.1082854804471,529.1095191441328,529.1110273427116,529.10581974286
1.976,2.924731384167679e-07,-5.999999870410769,1.4263805484855026,-0.0002992439790818837,5.318406556019674e-05,5.46745184663065e-06,6.760954422700038e-23,-6.0,1.417853217080949,0.0,-1.9850938632125067e-06,-5.242283336352978e-06,0.5408289074233699,0.0,0.0,0.0,-0.22886995534299406,4.5313972639908974e-05,-3.8112300766235106e-06,-1.8682250891222314e-07,529.3295064290938,529.3430176605832,529.3436132706273,529.327620525237
2.028,2.288844599586774e-07,-5.99999991449353,1.4538448543433622,-0.0003215999126143903,5.788153971029906e-06,5.64990637382075e-06,6.440788968070843e-23,-6.0,1.4454208174168446,0.0,-1.206200916553914e-06,-2.5931079846394946e-06,0.5196353414366893,0.0,0.0,0.0,-0.21994308759568468,1.0977551384011435e-05,3.2063382486839066e-06,-1.4843026520449238e-07,529.5804252613243,529.5850406822142,529.5834850321697,529.580956286172
2.08,1.7014474760295056e-07,-5.999999824973138,1.4802210363013693,9.006608320402332e-05,-2.50359002516434e-05,5.458983925587314e-06,6.132829386660672e-23,-6.0,1.4719374404227774,0.0,-9.732402244454774e-07,2.5039815882619032e-06,0.49889748179905213,0.0,0.0,0.0,-0.21051575025766714,-3.520802632117652e-05,2.542793954311046e-06,-1.1834083186725527e-07,529.8482273725389,529.8376033641522,529.8363680746687,529.8486461241787
2.132,1.0322396141059476e-07,-5.999999767309491,1.5055336009012916,0.00028720710390355074,6.461990464523934e-06,5.107651065372688e-06,5.836840430322001e-23,-6.0,1.497423341959636,0.0,-1.3394297362090989e-06,2.5937505199442963e-06,0.4786354282941911,0.0,0.0,0.0,-0.2006011265336497,-2.4673246220999507e-05,-3.411029105411769e-06,-7.639931340902866e-08,530.1209554461869,530.1118260558927,530.1126714586638,530.1195831974492
2.184,4.025060494789996e-08,-5.999999825061717,1.5298066983751146,4.094059029354128e-06,4.7450384622302406e-05,4.66466168386036e-06,5.552569136343074e-23,-6.0,1.5219003031872462,0.0,-1.446291080224912e-06,-1.3629435467069596e-06,0.45884030961749367,0.0,0.0,0.0,-0.19002192841673676,2.4833964551436502e-05,-5.977120244218838e-06,-7.687745138973728e-08,530.4050563317469,530.4111827781187,530.4128597528606,530.4028494589925
2.236,-2.257402346598456e-09,-5.9999998869314695,1.553067364078348,-0.00028237012639165614,3.1217605873168946e-05,4.249467369853836e-06,5.279747749056401e-23,-6.0,1.5453913790015132,0.0,-9.16359420962294e-07,-2.5552185591971946e-06,0.4395864254252245,0.0,0.0,0.0,-0.17929008774282282,3.357356403317813e-05,-3.9921974344550764e-07,-8.701879098263048e-08,530.6985242897412,530.7092963765487,530.7091262934435,530.698094938026
2.288,-3.0314146746520977e-08,-5.999999835865157,1.5753444429083778,-0.00011813740545833188,-1.4919506164252282e-05,4.1120800796714145e-06,5.018096367929699e-23,-6.0,1.5679206700225885,0.0,-4.387850402565684e-07,7.313570455934293e-07,0.42090791668532346,0.0,0.0,0.0,-0.1686993779868327,-8.293298649154194e-06,3.871606678525268e-06,-5.121124033271288e-08,530.9962884102572,530.9948534252256,530.9934206688365,530.997368583564
2.34,-6.304901367392034e-08,-5.999999735358485,1.5966673883484839,0.0002296841675593492,-1.645015299457088e-05,5.1395592570674685e-06,4.767325343088924e-23,-6.0,1.5895131163302016,0.0,-5.802976458335467e-07,3.021668820209477e-06,0.40277809335488735,0.0,0.0,0.0,-0.15802839968117732,-3.5938574757864505e-05,-8.124929916756881e-07,-2.5849970714177694e-07,531.295658859148,531.2837385271672,531.283112694133,531.2945059755368
2.392,-1.0168585637979872e-07,-5.999999727392559,1.6170646052315347,0.0002461867781254876,2.599604361312197e-05,5.682803065905255e-06,4.527137437801867e-23,-6.0,1.6101943112646715,0.0,-8.612385615622369e-07,8.768699475319816e-07,0.3851994670112455,0.0,0.0,0.0,-0.14731853594752112,-1.083639773195468e-05,-5.314323946110084e-06,-2.0615949451598696e-07,531.5869048536774,531.5816692160234,531.5826830911194,531.5844732040676
2.444,-1.2917148710546847e-07,-5.999999821754932,1.6365644551158607,-6.673662143289845e-05,3.7915397336177515e-05,5.058206407220902e-06,4.297229776117073e-23,-6.0,1.629990333726955,0.0,-6.343103178252837e-07,-2.3137671132412564e-06,0.3681599189783916,0.0,0.0,0.0,-0.13647634080328166,2.6676535504455446e-05,-2.7853135148513146e-06,-8.180396294254089e-08,531.8783561706625,531.8860967358107,531.8867180197243,531.8771726108558
2.496,-1.4038267415975126e-07,-5.99999989092933,1.6551949398790982,-0.00025360429847562984,2.5025681739293523e-06,4.421504193063671e-06,4.077295592601935e-23,-6.0,1.6489275975187931,0.0,-1.8161806026169126e-07,-2.096709493577428e-06,0.35165549222711323,0.0,0.0,0.0,-0.12547773284697408,2.4030881244737968e-05,2.254056507580128e-06,-1.387535705825977e-07,532.18035242373,532.1888636949083,532.187657247085,532.1806057323178
2.548,-1.49548322191481e-07,-5.999999856702511,1.672984866702185,-5.884205478796722e-05,-2.3185634342781386e-05,4.4387123276349426e-06,3.8670257999507956e-23,-6.0,1.6670327163650214,0.0,-1.0318444017470339e-07,7.716230543923087e-07,0.33572867271518636,0.0,0.0,0.0,-0.11473065736111185,-1.2760297873303388e-05,2.470911294961836e-06,-1.0290742635652082e-07,532.4814164336431,532.4780864954607,532.4769335747957,532.4818628306107
2.6,-1.677766021246906e-07,-5.999999795769836,1.689964120152993,0.00019210288485306038,-1.056548253168672e-05,3.668998081898691e-06,3.6661103891344894e-23,-6.0,1.6843323833547694,0.0,-3.45950146311776e-07,1.7720246229955698e-06,0.3203624344410682,0.0,0.0,0.0,-0.10416289393867922,-2.5136270196969058e-05,-3.880137578637057e-07,-5.772535875766227e-08,532.773921922205,532.7656660348629,532.7655934876018,532.7735983700655
2.652,-1.9021579673561427e-07,-5.999999812011409,1.706160901589113,0.00014033982625413836,1.6790038943783914e-05,3.3854750332885998e-06,3.4742396757327374e-23,-6.0,1.7008532636269673,0.0,-4.853453562512311e-07,-1.8584945707688336e-07,0.30552858151356166,0.0,0.0,0.0,-0.09361515625000588,-6.25555986337002e-07,-2.5921911377072207e-06,-7.398497681837039e-08,533.059754837088,533.0587146146345,533.059298911595,533.0586631441039
2.704,-2.052402391478052e-07,-5.999999887607947,1.721603075106513,-8.266736380022108e-05,2.9622302866920442e-05,3.2997850385630028e-06,3.291105405126093e-23,-6.0,1.7166218992086442,0.0,-3.398470152652688e-07,-1.802039621076237e-06,0.2912349859178992,0.0,0.0,0.0,-0.08322934673660384,1.8783397592709562e-05,-2.583973818077127e-06,-1.0532012606027525e-07,533.3414877104437,533.3467218084725,533.3471957431427,533.3402918560771
2.756,-2.0713334739032387e-07,-5.999999931556501,1.736318192651942,-0.00013753653717766076,2.1964299885906294e-05,3.567059008951573e-06,3.116401728321086e-23,-6.0,1.7316646249922543,0.0,-5.208898663864042e-08,-1.0161263332887828e-06,0.2774623377094624,0.0,0.0,0.0,-0.0729179198073677,8.412312576712203e-06,-1.0641566117459198e-06,-1.1880583699157663e-07,533.6255674698494,533.6279404306003,533.6278771240663,533.6248168587838
2.8080000000000003,-1.99318347670258e-07,-5.999999918173486,1.7503336625746102,7.404143128517073e-06,2.713398527859759e-06,3.6341201836711695e-06,2.949826059337092e-23,-6.0,1.7460074949110393,0.0,1.674801105984924e-07,4.4898154841889675e-07,0.26422311715087043,0.0,0.0,0.0,-0.06287303624214889,-1.21115655340638e-05,5.226366958852842e-07,-1.202319762871956e-07,533.9038031729249,533.9000626563155,533.8994823338106,533.9035602326729
2.86,-1.8967184370424997e-07,-5.999999906362044,1.7636765250623685,0.0001272897396739623,-2.047617721452781e-06,3.6344738976371676e-06,2.791079824293004e-23,-6.0,1.7596762174394964,0.0,1.8700147765704044e-07,4.2467562881005015e-07,0.25149464366669333,0.0,0.0,0.0,-0.05301958664883849,-1.4403564877681744e-05,-3.5609881165106636e-07,-8.505876339277774e-08,534.1740480106447,534.1692864930072,534.1691103076271,534.1736420703617
2.912,-1.810936235325389e-07,-5.999999945645185,1.7763730232079786,4.3539784101731824e-05,-1.2497536233920379e-06,3.3067839920213255e-06,2.639869111592604e-23,-6.0,1.772696099609665,0.0,1.6227614260119646e-07,-8.667672122138843e-07,0.2392584180092392,0.0,0.0,0.0,-0.04328493643318444,4.804687656966151e-06,-5.700168286501741e-07,-1.3690100896581181e-07,534.4374811858083,534.4388466237879,534.4385621927023,534.4368291578669
2.964,-1.7295399049391377e-07,-6.000000002965165,1.788448349545657,-0.00010687666641779661,1.5398577423264758e-05,5.0524309267577056e-06,2.4959052319169048e-23,-6.0,1.7850919987934202,0.0,1.209531829956877e-07,-1.2909598714641097e-06,0.22751695755096613,0.0,0.0,0.0,-0.03380294453415974,1.4853042160129576e-05,-4.159594800052567e-06,-3.798525290090987e-07,534.6962218406214,534.6996681876429,534.6997102251413,534.6935827059533
3.016,-1.5823146921547173e-07,-6.000000017272678,1.799928197841667,-8.392108012420474e-05,2.8386848432840916e-05,5.7844268452964835e-06,2.3589051960862802e-23,-6.0,1.796888281556519,0.0,2.7137387388154975e-07,-2.0727081104683648e-07,0.21625899052861558,0.0,0.0,0.0,-0.02457773412834815,1.7828379536961917e-08,-3.2927869772277364e-06,-2.152227451745104e-07,534.9504123198346,534.949357344028,534.9496826621619,534.9486161986316
3.068,-1.3266512782178114e-07,-5.999999996196495,1.8108358935033648,6.935611651533829e-05,-1.4426893709135297e-05,4.023802321854805e-06,2.2285921182527492e-23,-6.0,1.808108788942039,0.0,5.527094827845562e-07,5.977985038554007e-07,0.20541482949627912,0.0,0.0,0.0,-0.015108140263229389,-1.7603300407926193e-05,3.7908021342183546e-06,4.176216034731752e-10,535.2105193904819,535.2060720622342,535.2048529250782,535.2117413673017
3.12,-1.1317293673786313e-07,-6.000000002496418,1.821195396934938,0.00011781064596013404,-4.5165412639812936e-05,2.6484942328615184e-06,2.1046955513203103e-23,-6.0,1.818776807589269,0.0,3.84822457826826e-07,-1.463512029547975e-07,0.19509779352067064,0.0,0.0,0.0,-0.006490439100933262,-9.535083241879734e-06,3.2338380365512425e-06,-6.44716123115945e-08,535.4448110847253,535.4427831112389,535.4415222470534,535.4456317593174
3.172,-1.1221479345041792e-07,-6.000000056896022,1.831033476400412,-1.8500405000229038e-05,-8.439931568705878e-06,2.6145087475554277e-06,1.9869517609665495e-23,-6.0,1.8289150461392876,0.0,-4.240832381600341e-08,-1.229817546061683e-06,0.18525220765787656,0.0,0.0,0.0,0.0016074983245617444,9.7276229261413e-06,-3.1498985996258873e-06,-9.032142539428375e-08,535.663882224442,535.6659983051628,535.666703428524,535.6625606749883
3.224,-1.1540100313415636e-07,-6.000000104191554,1.840372688671678,-0.00012857698217550448,3.145130419675533e-05,2.4566075248322515e-06,1.8751039441494816e-23,-6.0,1.8385456164206018,0.0,-8.159006922439208e-08,-9.30174843558017e-07,0.17582572408835465,0.0,0.0,0.0,0.009458726829736468,1.1799288778496535e-05,-4.6479710891633315e-06,-8.739595769077083e-08,535.8780614523221,535.8803611404683,535.8815577019443,535.8762686641421
3.2760000000000002,-1.0574242334802268e-07,-6.000000097883755,1.8492340768240898,-6.435440921763645e-05,2.706693501040416e-05,3.2621659668332397e-06,1.7689023975275435e-23,-6.0,1.8476900189474714,0.0,2.2013111051795718e-07,2.942345148475496e-07,0.1667970636899543,0.0,0.0,0.0,0.01714295459811942,-3.7936024602549404e-06,-1.9250711396799345e-06,-2.0152683141074975e-07,536.0899603031401,536.0881220379448,536.0880537113144,536.0886543506822
3.328,-8.490122389569718e-08,-6.000000063326745,1.8576381552017613,6.126234129235009e-05,-1.2848012246425143e-05,3.17723014126711e-06,1.6681046407958527e-23,-6.0,1.856369132300136,0.0,4.436847392572277e-07,7.487798185451257e-07,0.15815901531816307,0.0,0.0,0.0,0.02463829372151655,-1.1964193518803944e-05,3.137901664046209e-06,-6.962935572459555e-08,536.2946376143921,536.2918014868172,536.2905558662737,536.2954085822554
3.38,-6.948316691250077e-08,-6.000000052602807,1.8656049154431318,6.404121161703235e-05,-3.653655799673523e-05,2.249350089438515e-06,1.5724754995462428e-23,-6.0,1.8646032059902138,0.0,2.7275257988766246e-07,9.832280158948643e-08,0.14990367695799695,0.0,0.0,0.0,0.0319092822719084,-2.7400717055335037e-06,2.6133807619149483e-06,1.2708356433674442e-09,536.4913297455736,536.4912890513598,536.4904539403196,536.4921735149964
3.432,-6.945213985553522e-08,-6.000000068531081,1.873153999244622,-3.5024284978841397e-05,-1.16343215222512e-05,1.3392945078742955e-06,1.481787151890493e-23,-6.0,1.8724118564462475,0.0,-5.5038150925791e-08,-4.017739637631378e-07,0.14201862422609818,0.0,0.0,0.0,0.038970798304025916,8.825665981779528e-06,-1.614493390536494e-06,3.890158424819894e-08,536.6825178636909,536.6848333237247,536.6854842196872,536.6821319540887
3.484,-7.466368012264159e-08,-6.000000070860142,1.8803041172418609,-7.844063970402977e-05,2.4153786745639757e-05,1.1233579547822416e-06,1.3958191427436774e-23,-6.0,1.879814065783844,0.0,-1.1061916888052992e-07,3.583883163361622e-08,0.13449267224393777,0.0,0.0,0.0,0.045802838851260734,5.935649954690386e-06,-4.252130788524522e-06,-4.427542818557802e-08,536.8696583207916,536.8701987001745,536.8714128107426,536.8681427153813
3.536,-6.997180037494172e-08,-6.00000004085793,1.8870740052619956,-1.1260339863676899e-05,2.596634235921718e-05,1.774654697705698e-06,1.3143583693462695e-23,-6.0,1.8868281830522846,0.0,1.3879025811325383e-07,6.985505481103693e-07,0.12731997245883686,0.0,0.0,0.0,0.052366148659454964,-4.442244013110903e-06,-1.6743862718192175e-06,-1.449405592066823e-07,537.0498112063731,537.0478485320508,537.0478924848486,537.0487806222794
3.588,-5.456188792201942e-08,-6.0000000055507074,1.89348102233288,5.6971243255661606e-05,-9.302930013922619e-06,2.3830350516820607e-06,1.2371990413078015e-23,-6.0,1.8934719276749339,0.0,3.3135897187387637e-07,6.564805792918486e-07,0.12047443369227429,0.0,0.0,0.0,0.05876661759909449,-6.808407952294812e-06,2.498015186654009e-06,-1.354177423630943e-07,537.223743286649,537.2223606375022,537.2210985884434,537.2240838219824
3.64,-4.2622842868130354e-08,-5.999999993806115,1.8995424251794564,3.550224284603583e-05,-2.429506019619732e-05,2.4068832049111976e-06,1.1641426181802168e-23,-6.0,1.8997623948244389,0.0,1.9448287486406855e-07,1.0651876628168442e-07,0.11395768002154849,0.0,0.0,0.0,0.06490506389814041,1.1007413608013897e-06,1.2750268090140038e-06,-8.080630307711506e-08,537.3896304164232,537.3903922572704,537.3897085369799,537.389764425363
3.692,-4.0855134657517326e-08,-5.999999997297618,1.9052744145130793,-3.484394314274019e-05,-3.866032002811799e-06,1.8002169757282893e-06,1.0949977273141132e-23,-6.0,1.9057160624956546,0.0,-6.054000286271322e-09,-9.478393242324303e-08,0.1077496216327691,0.0,0.0,0.0,0.07083087319199766,7.147382497363547e-06,-1.70352130676971e-06,1.4817557423876094e-09,537.5502151559439,537.551960323307,537.5525114675168,537.5496740865169
3.744,-4.1249142142722305e-08,-5.999999987409502,1.9106934189468292,-3.9341528382920894e-05,1.2207285970002885e-05,9.981556859563552e-07,1.0295800645146219e-23,-6.0,1.9113488000595915,0.0,1.4281681514310374e-09,2.8723482699970534e-07,0.10185500847687953,0.0,0.0,0.0,0.07641855360828363,1.9359526466758016e-06,-1.6492508616043931e-06,3.513001826061442e-08,537.7029576143788,537.703049497919,537.7036974793684,537.7025484766968
3.796,-3.677778977354982e-08,-5.999999961677169,1.91581492047144,2.4685886569925165e-05,5.696270358414316e-06,6.953724173708346e-07,9.677122797944867e-24,-6.0,1.9166758781005604,0.0,1.1189151177250798e-07,5.380159792779454e-07,0.09624791205846481,0.0,0.0,0.0,0.08177589323547323,-5.744204805702231e-06,1.4215759553402114e-07,8.57870328301153e-09,537.8496140375403,537.847819153432,537.8478027612514,537.8496887392449
3.8480000000000003,-3.0003499605334145e-08,-5.9999999460810995,1.9206532189002428,5.539794086696448e-05,-1.0711081370912967e-05,6.189783599505227e-07,9.09223850318859e-24,-6.0,1.9217119793561621,0.0,1.2891591324605684e-07,2.00150654390894e-07,0.09090925132984566,0.0,0.0,0.0,0.08697304320049265,-4.084899804719001e-06,1.6558430610730588e-06,2.7378286301084013e-09,537.9903901568817,537.9896120966099,537.9890910087865,537.9909298476241
3.9,-2.748670851308307e-08,-5.999999953786698,1.9252212950163743,1.2031545620956973e-05,-4.834982136029023e-06,1.2139368199228405e-06,8.539509424483763e-24,-6.0,1.9264712105959627,0.0,1.6119964721048056e-08,-2.5045590981401594e-07,0.08581072247836394,0.0,0.0,0.0,0.0921757519515145,3.137146353982188e-06,-1.2668609997355484e-06,-1.0765638334806181e-07,538.1312777185227,538.131876639026,538.1319166458601,538.1305063519249
3.952,-2.692933402856147e-08,-5.9999999670177075,1.9295324253165287,-4.116002190470672e-05,1.7465972455853415e-05,1.7126738188989085e-06,8.017362646131686e-24,-6.0,1.9309671152896641,0.0,1.973394870171489e-08,-2.221580543476526e-07,0.08096483271128428,0.0,0.0,0.0,0.097238299802939,6.222398252733658e-06,-3.322624682020079e-06,-8.673470574946571e-08,538.2686213342855,538.2695496900411,538.2703188805004,538.2672630619647
4.0040000000000004,-1.919585608627396e-08,-5.999999963342316,1.9335979865289241,-3.224266123863215e-05,1.8335181716221487e-05,1.6604019816379066e-06,7.524289125897406e-24,-6.0,1.93521268692942,0.0,2.0107977724569592e-07,1.8427707121611206e-07,0.0763420994733183,0.0,0.0,0.0,0.1022879299956,8.733665332033345e-07,-1.428047001659596e-06,-8.836420896472252e-08,538.4063349499146,538.4061574154936,538.4063144889474,538.4055778840536
4.056,-4.22833354400769e-09,-5.999999946538656,1.9374326771745025,3.289513140660955e-05,-1.4390600183249157e-05,2.199384710447647e-06,7.058842086041256e-24,-6.0,1.9392203828837324,0.0,3.0400551270242204e-07,3.383173777013125e-07,0.07202289230848741,0.0,0.0,0.0,0.10657843700846333,-6.394518166176299e-06,2.997471056573037e-06,-1.2774604330798254e-07,538.5233677127313,538.5222806684404,538.520887880785,538.5238932899409
4.1080000000000005,4.663038203481306e-09,-5.999999943089393,1.941050850237269,5.1893025537554845e-05,-3.156031396026236e-05,1.9640441044166327e-06,6.619635355476772e-24,-6.0,1.9430021386721763,0.0,1.005300827610947e-07,-6.661309637618714e-08,0.06795347127120024,0.0,0.0,0.0,0.11041570841886601,-2.982116574217229e-06,2.154046494127592e-06,-4.4620873826003404e-08,538.6269975455021,538.6267326168887,538.6258920355568,538.6275352744275
4.16,3.024266569762758e-10,-5.999999961202646,1.9444635030274675,-2.7544240798840864e-06,-4.8141537878870914e-06,1.265648656676958e-06,6.205341674654323e-24,-6.0,1.9465693825610675,0.0,-1.4487474132712083e-07,-4.275650370211798e-07,0.06407872822084783,0.0,0.0,0.0,0.11414649065497261,4.266372374904381e-06,-2.3392576000031214e-06,-2.923592773489625e-09,538.7277575904467,538.7283740261213,538.7291123753664,538.7269994000018
4.212000000000001,-6.302221133203244e-09,-5.999999978845267,1.9476805636892436,-4.1291240991647395e-05,2.6966298290841716e-05,8.528397408119662e-07,5.814690973604661e-24,-6.0,1.9499330503902363,0.0,-9.195276875761494e-08,-2.647431071081692e-07,0.06039309639844189,0.0,0.0,0.0,0.11776787075202663,4.5018205317488354e-06,-3.862688850646872e-06,-3.2072459235338617e-09,538.8262476581384,538.8264520630395,538.8276765332162,538.8250014244752
4.264,-2.027363909751492e-09,-5.999999979432882,1.9507117704080197,-1.479478594469631e-05,1.4151920116706514e-05,5.756523033435098e-07,5.446468632504211e-24,-6.0,1.9531036005502969,0.0,1.5535454496500213e-07,8.655379448177458e-08,0.05689497535451745,0.0,0.0,0.0,0.12124271995520047,-1.570779689796716e-06,4.165473069700082e-07,5.965624455711529e-09,538.9208087429295,538.9204396648645,538.9203267033189,538.9209621722124
4.316000000000001,8.152884827931873e-09,-5.999999973442786,1.9535667380849282,3.075652284816539e-05,-2.2428439232424123e-05,6.18005234744243e-07,5.0995137331368044e-24,-6.0,1.9560910290383011,0.0,1.831439205548825e-07,8.752560480485664e-08,0.053576919131252385,0.0,0.0,0.0,0.12457536929407816,-4.621668094665371e-06,3.6228191601921396e-06,-2.1566279603425903e-08,539.011246374843,539.0109270358901,539.0096956583894,539.0123314786772
4.368,9.155300589401341e-09,-5.999999979823655,1.9562544769169292,2.740836639159852e-05,-2.6358902821674236e-05,6.083370883642806e-07,4.772717308720163e-24,-6.0,1.9589048845274735,0.0,-6.601847995996723e-08,-2.2450145185505853e-07,0.050429660797496854,0.0,0.0,0.0,0.12778634059745225,-7.811283400761579e-07,1.1315636868359928e-06,-2.3599809924239896e-08,539.0981344476234,539.0982464661396,539.0978047372868,539.0984161395227
4.420000000000001,-7.320034442359652e-10,-5.9999999978136715,1.9587837279474287,-1.1055737493401714e-05,9.07825947569449e-06,9.189798710783998e-07,4.46502059873252e-24,-6.0,1.9615542833938917,0.0,-2.1889775105766608e-07,-3.693696667502665e-07,0.04744879317479288,0.0,0.0,0.0,0.13085625346334315,3.0213873333200227e-06,-3.1771667409616186e-06,-5.51625480870046e-08,539.1815296692043,539.1814798811855,539.1823083145753,539.1803272193876
4.472,-7.177988920335307e-09,-6.000000011343548,1.961162906156454,-2.977689738954398e-05,2.755780845862544e-05,9.826141022801966e-07,4.175413314611623e-24,-6.0,1.9640479246495526,0.0,-5.6386792150340745e-08,-1.8513582290772147e-07,0.044625679442077223,0.0,0.0,0.0,0.133803433842635,2.349451449397042e-06,-2.5982328707053688e-06,-4.2056872340860156e-08,539.2614423326759,539.2613628324447,539.2620505631711,539.2604694879049
4.524000000000001,-2.120671442725478e-09,-6.000000012345693,1.9633999745200974,-6.178187521175357e-06,6.975170686126865e-06,8.7310124304115e-07,3.902931921498605e-24,-6.0,1.966394104737285,0.0,1.5737571976459825e-07,4.500073169654157e-08,0.04195257472740102,0.0,0.0,0.0,0.1366409053080296,-1.9188911080005085e-06,1.131038635531785e-06,-2.251238933165426e-08,539.3384291341399,539.3381774050404,539.3377397258678,539.3387142181789
4.5760000000000005,6.010669847527579e-09,-6.000000010431532,1.9655021006952806,2.4122408769163023e-05,-2.306284734760115e-05,6.080467204685986e-07,3.646657940559562e-24,-6.0,1.968600732148477,0.0,1.2626677853309026e-07,1.122536127947475e-09,0.03940797915338652,0.0,0.0,0.0,0.13950526636157273,-3.69917822955028e-06,3.4262184464259014e-06,3.2698962244054433e-09,539.4159549401504,539.4158677385019,539.4147842540267,539.4170605832282
4.628,4.680177295027234e-09,-6.000000018328681,1.9674763215780273,1.8534000879867498e-05,-1.8548750941720227e-05,5.395168079142274e-07,3.405716275832595e-24,-6.0,1.9706753418296343,0.0,-1.0609720775617217e-07,-2.3035559102969385e-07,0.03701211497632369,0.0,0.0,0.0,0.1421687928497396,-8.288571456585108e-07,9.466977990486527e-08,-2.654960477309332e-08,539.4882762954044,539.4880417781645,539.4879215833031,539.488216580237
4.680000000000001,-4.235447236587865e-09,-6.0000000338387425,1.9693306705158695,-1.4890660579816567e-05,1.9223371195897308e-05,8.231586469719248e-07,3.1792735690145866e-24,-6.0,1.9726251093483587,0.0,-1.691688291442903e-07,-3.0070398459653485e-07,0.03476344517110649,0.0,0.0,0.0,0.14459363790352037,2.6014371020792733e-06,-4.112397387464911e-06,-5.9560507327990346e-08,539.5541753502142,539.5536927717129,539.5548044328543,539.5526601320214
4.732,-5.430634226280442e-09,-6.000000043142993,1.9710721392396082,-2.7948206441712945e-05,2.8401740441652688e-05,9.750027220508107e-07,2.9665365851154997e-24,-6.0,1.974456864793551,0.0,7.080768301347053e-08,-9.628415680969822e-08,0.032643149850983134,0.0,0.0,0.0,0.14686723497933632,1.6196127075680353e-06,-1.9247630890270077e-06,-5.521825848926781e-08,539.6155880794503,539.6154906300313,539.6159182551849,539.6147863625089
4.784000000000001,5.158266698869021e-09,-6.000000040499762,1.9727069933422186,-7.3317859596261634e-06,-5.275713983624248e-06,8.427679306393899e-07,2.7667506314654623e-24,-6.0,1.9761771063884257,0.0,2.43480849130984e-07,1.1071299765236555e-07,0.030639297551593718,0.0,0.0,0.0,0.14903752313345026,-1.4567499412727753e-06,2.6927437473737203e-06,-1.401019409747763e-08,539.6740787319134,539.6744734021368,539.6735661179443,539.6748911098144
4.836,1.381677742140461e-08,-6.0000000342705,1.9742410537538995,1.2550321156260131e-05,-2.780584793194704e-05,6.044125131915096e-07,2.579198012157974e-24,-6.0,1.9777920137984106,0.0,9.523495599942507e-08,1.0083892888329458e-07,0.028743174694594188,0.0,0.0,0.0,0.1511432502257861,-2.0252276198999327e-06,2.4254686665779445e-06,-5.125442145465028e-09,539.7312481518434,539.731375940939,539.7305841778754,539.732005197723
4.888000000000001,1.0992670634031061e-08,-6.000000033015667,1.9756790626654668,6.155954561086552e-06,-3.2330371001755507e-06,4.811205164999398e-07,2.4031965196478625e-24,-6.0,1.9793074611191277,0.0,-1.1916377216918288e-07,-1.5960291335881693e-08,0.02692783617709888,0.0,0.0,0.0,0.1533824091856546,3.9025601766491706e-07,-2.9557603684721014e-06,-2.7754401317414166e-08,539.7924193876319,539.79160036465,539.7924499905284,539.7913817932383
4.94,6.9652873651216355e-09,-6.0000000341970505,1.9770262107458447,-1.76118310046608e-05,3.6610091489324055e-05,6.946378493726803e-07,2.2380979648928524e-24,-6.0,1.9807290295324944,0.0,-7.576429251007441e-09,-1.8755255141641224e-09,0.02523267338556781,0.0,0.0,0.0,0.15538694965642857,3.004626979942503e-06,-5.605899036808134e-06,-6.280627282853286e-08,539.8467822386285,539.8459518806228,539.8475286932577,539.8447801064614
4.992000000000001,1.7769591554366314e-08,-6.0000000281931305,1.978288940479801,-1.867790642283196e-05,1.888681447869792e-05,8.815177316888411e-07,2.083286747129383e-24,-6.0,1.9820620196215593,0.0,3.2120443460738947e-07,1.88788347362248e-07,0.02365471293235046,0.0,0.0,0.0,0.1571325679091099,8.590198214465486e-07,2.964341887049734e-07,-4.7294138878937546e-08,539.8934362508782,539.893805053715,539.8935503155901,539.8933707470077
5.0440000000000005,3.62891340001137e-08,-6.000000014597564,1.9794727127043528,1.0011418598167232e-05,-3.352399902184286e-05,7.927115004649436e-07,1.9381784641049245e-24,-6.0,1.9833114633369906,0.0,3.173142696622275e-07,2.7267365773193504e-07,0.022173964121255732,0.0,0.0,0.0,0.15872227797014996,-2.5148120851916926e-06,4.864697143929444e-06,-2.321876824470186e-08,539.9362584048691,539.9370083916529,539.9353771746601,539.9377324112177
5.096,4.084630807653966e-08,-6.000000005122206,1.9805820617999395,2.3713587554431257e-05,-4.142266290167349e-05,4.7572326927542857e-07,1.8022185633473984e-24,-6.0,1.9844821356102165,0.0,-6.302333718666413e-08,1.0973364873424126e-07,0.020774546566557833,0.0,0.0,0.0,0.16024772322145756,-1.76504298645076e-06,1.8289754656672528e-06,4.783622991015135e-09,539.9778856162629,539.977906019325,539.9773385229091,539.9784854982788
5.148000000000001,2.7841960258149556e-08,-6.000000005623157,1.9816210259974845,3.4712250339565166e-06,4.8114559680527786e-06,2.719921535152978e-07,1.6748810348359934e-24,-6.0,1.9855785656100828,0.0,-3.1189909920906403e-07,-5.988035410676732e-08,0.019451795233843737,0.0,0.0,0.0,0.1617199202893223,1.5908009684059412e-06,-4.243007178823216e-06,-6.643930730018181e-09,540.0182031667507,540.0173568186711,540.018688319387,540.0168266871698
5.2,1.63828924695676e-08,-6.00000000793868,1.9825936061866771,-1.7283175538548904e-05,3.60923009601732e-05,2.7082729295845533e-07,1.5556671452440217e-24,-6.0,1.986605047641558,0.0,-1.2285449081581666e-07,-9.076667275633887e-09,0.018206704019144364,0.0,0.0,0.0,0.1631052023722914,2.3220295076354513e-06,-3.867659799156344e-06,-1.2468250760362627e-08,540.055545067976,540.0550518746695,540.056243800412,540.0542687397582
5.252000000000001,1.970689139584282e-08,-6.000000003305826,1.9835036748717756,-8.394278172969998e-06,6.5044130985994814e-06,2.885057542603497e-07,1.4441042137520897e-24,-6.0,1.9875656516864986,0.0,1.4829637088657847e-07,1.4179826931114504e-07,0.017032808059899922,0.0,0.0,0.0,0.16443030330735234,-4.011527801202595e-07,2.0627398410679115e-06,-2.0129986965197393e-08,540.0909230446374,540.0914532032178,540.0907269216664,540.0915130700481
5.304,2.606226695772915e-08,-5.999999995201688,1.9843548447972912,1.4187061883814665e-05,-3.203257279430734e-05,4.0436700076596563e-07,1.3397444292768368e-24,-6.0,1.9884642335878113,0.0,5.7732997754077335e-08,1.3697581874553442e-07,0.015927881154817865,0.0,0.0,0.0,0.16568542888109145,-2.1354308180763343e-06,3.966622383709597e-06,-3.074585868181592e-08,540.1248938967207,540.125478133825,540.1241085420194,540.1260553872573
5.356000000000001,1.934514212714812e-08,-5.99999999291938,1.9851505852413938,1.4920566020194898e-05,-2.1440940229136045e-05,4.2022591259170677e-07,1.2421637088251079e-24,-6.0,1.9893044448795065,0.0,-2.3716999755862706e-07,-1.7248039295936238e-08,0.014887724824936856,0.0,0.0,0.0,0.16688080298509952,-4.916431596358535e-07,-1.229921370039477e-07,-2.000274881117066e-08,540.1576261735496,540.1574300874317,540.1574016363625,540.1575192465245
5.408,3.5905257239341367e-09,-5.99999999701359,1.9858941261059793,-3.6446443683395677e-06,1.7916982804047176e-05,3.2987305522347915e-07,1.1509605965645092e-24,-6.0,1.9900897422661659,0.0,-2.9645649120419463e-07,-9.5190258475522e-08,0.01390800819943451,0.0,0.0,0.0,0.16802843509276388,1.5646308015605523e-06,-3.642167408096459e-06,-4.421493448584583e-09,540.1888991792099,540.1882364241065,540.1893833502633,540.187722329143
5.460000000000001,-4.903255043539748e-09,-5.9999999998427445,1.9865885506241932,-1.2074647938914155e-05,2.6864396712446814e-05,2.0197089776559155e-07,1.0657552030970034e-24,-6.0,1.9908233967562465,0.0,-6.451950183316343e-08,-1.646007521281213e-08,0.012986914476653672,0.0,0.0,0.0,0.1691199209270664,1.0054243789571246e-06,-1.574159561204365e-06,1.5222206268845903e-09,540.218192972744,540.2180115504115,540.2185188461574,540.2176959778953
5.5120000000000005,-2.0239041121628233e-09,-5.99999999769507,1.9872367972932443,-1.432965227418338e-08,-2.8716677941952985e-06,1.1764940824264621e-07,9.861881843317569e-25,-6.0,1.991508502454417,0.0,9.764654653428642e-08,6.510893258394803e-08,0.012119754842701037,0.0,0.0,0.0,0.17017574001941402,-1.1282777565475958e-06,2.6434102409648873e-06,3.8363487887462995e-10,540.2464400878624,540.2469233783935,540.2460814923331,540.2472845693637
5.564,-2.297553946264255e-10,-5.999999995584537,1.9878412863908617,1.6544636168155314e-05,-3.071490817865354e-05,1.208818921428433e-07,9.119197592751536e-25,-6.0,1.9921479850188015,0.0,-4.209515279311119e-08,4.759748661124778e-09,0.011297338229044338,0.0,0.0,0.0,0.17124896709481122,-2.40062146363412e-06,3.8535332234438965e-06,-9.502590021622666e-09,540.2755139204712,540.2759773391687,540.2747160710762,540.2767108876035
5.6160000000000005,-1.0926833912284315e-08,-6.00000000027604,1.9884048847206215,9.701338225483717e-06,-1.0160637916961631e-05,1.4489691693378573e-07,8.426287659891023e-25,-6.0,1.9927446097895778,0.0,-2.9158807285719504e-07,-1.463352700166139e-07,0.010534530861183505,0.0,0.0,0.0,0.1722004114760684,1.3663435621049425e-07,-1.3068322225913776e-06,-5.687047509810543e-09,540.3016755747583,540.3013023478717,540.3016999136065,540.301239529451
5.668,-2.5688188267204823e-08,-6.000000008891285,1.988930448126476,-1.526893351953557e-05,3.220661798607643e-05,1.0471849943107302e-07,7.780117549120907e-25,-6.0,1.9933009895958667,0.0,-2.257176762759228e-07,-1.4757129457751233e-07,0.009824234672867896,0.0,0.0,0.0,0.17305572805736244,2.492505000740365e-06,-4.468945020766231e-06,5.320965475345861e-10,540.324940760834,540.3243104153257,540.3257374938133,540.3235172803518
5.720000000000001,-2.7109926658756944e-08,-6.000000011199059,1.989420550164125,-1.877575849149244e-05,2.912910951155701e-05,6.577806974332044e-08,7.177821186901579e-25,-6.0,1.9938195922482567,0.0,1.0212235767406116e-07,2.9741103452574446e-08,0.009160184379465518,0.0,0.0,0.0,0.17384345392092682,8.37771623356957e-07,-7.318942417491343e-07,-2.5218952445812323e-09,540.3459309552891,540.3459647214029,540.3461896038949,540.34568901051
5.772,-1.623923308922412e-08,-6.000000005696012,1.989877167116577,9.337933516624754e-06,-1.9778148304707002e-05,1.2340399643453986e-07,6.616692576261658e-25,-6.0,1.9943027477246362,0.0,2.2377783125556943e-07,1.24628362116221e-07,0.008527829183365315,0.0,0.0,0.0,0.17466933304621302,-3.494610364114344e-06,5.9219105024094136e-06,-1.1329481596892077e-08,540.367924364853,540.3686984404785,540.3667715938481,540.3697745598515
5.824000000000001,-1.3571500199255122e-08,-6.000000004056204,1.9903022610922623,2.7723726359211248e-05,-4.535358720830149e-05,1.570135889658279e-07,6.094177798244911e-25,-6.0,1.994752655057289,0.0,-1.0107467727392137e-07,-5.694980969979413e-08,0.007942514034666384,0.0,0.0,0.0,0.1753858293654253,-2.74959908807197e-06,4.123172725793329e-06,-1.0204246409648843e-08,540.387478458207,540.3879164805647,540.3865671141566,540.388758789814
5.876,-2.9385634157359718e-08,-6.000000013685482,1.9906982289971231,-7.927926475749114e-07,6.121362355696108e-06,1.845936939724049e-07,5.607867350840548e-25,-6.0,1.995171388929397,0.0,-3.795666971700002e-07,-2.3747263833201135e-07,0.007397284895993292,0.0,0.0,0.0,0.1760360353284772,2.145509956951126e-06,-4.301393995215195e-06,-1.1619868353393926e-08,540.4056371895304,540.4049497166237,540.4062820500737,540.4042262474226
5.928000000000001,-4.267288086334965e-08,-6.0000000229862795,1.9910668414617583,-3.356263026184342e-05,5.8154220612157725e-05,1.57022059974865e-07,5.1554888157446825e-25,-6.0,1.9955609059892716,0.0,-1.0577017093896426e-07,-9.818210939612697e-08,0.0068835682149240175,0.0,0.0,0.0,0.17667022634382049,3.958200420411702e-06,-6.503017612722002e-06,-5.066540344267122e-09,540.4228478032991,540.422036332308,540.4240928235785,540.4207570337775
5.98,-3.174120809558305e-08,-6.000000018267808,1.9914097355488678,-2.1421757305764516e-05,3.003143371082848e-05,1.2018509414349502e-07,4.734899843176619e-25,-6.0,1.9959230508907213,0.0,3.9212211611968183e-07,2.0528150598946292e-07,0.006402352443267192,0.0,0.0,0.0,0.17726856301834903,-2.7110952112236043e-07,1.3234022500722648e-06,-2.121891930943797e-09,540.4384583851937,540.4387939218504,540.4383647617849,540.4388731917504
6.032,-8.245233876514123e-09,-6.000000004576965,1.9917285660474517,2.1700108373587033e-05,-4.276268611157863e-05,6.162215842526598e-08,4.344081444898303e-25,-6.0,1.9962595620680477,0.0,3.98310156295169e-07,2.471557541067692e-07,0.0059522575660042485,0.0,0.0,0.0,0.177829187298076,-4.318859204223211e-06,7.535651421793742e-06,2.3560659948740106e-09,540.4532739873622,540.454299672895,540.4519048693813,540.4556847218073
6.0840000000000005,-2.2063432437741145e-09,-5.999999999705498,1.9920248973653656,3.0235381263551916e-05,-4.827338475820212e-05,1.4693782959635104e-08,3.981131585555766e-25,-6.0,1.9965720772541697,0.0,-8.732389964575211e-08,-2.416190360965634e-08,0.005531128637530953,0.0,0.0,0.0,0.1783572887549987,-1.8438113657046226e-06,2.2741149896276044e-06,1.6644732436237907e-09,540.4680073225165,540.4681445227159,540.4674250612418,540.4687380418417
6.136,-1.6270267412005655e-08,-6.000000007416054,1.992300205196339,-8.253369801756198e-06,2.203373296638137e-05,1.6672547398485797e-08,3.644259062470808e-25,-6.0,1.9968621387503827,0.0,-3.064539462396871e-07,-1.8457997993968507e-07,0.005137871655361475,0.0,0.0,0.0,0.17884906944387974,3.3630721470819016e-06,-6.438760758064268e-06,-9.175571330915388e-10,540.4818755258225,540.4808948817489,540.4829446933018,540.4798195039144
6.188000000000001,-2.1781566557921283e-08,-6.000000012041959,1.9925559033342586,-3.213160337110454e-05,5.599969649983536e-05,7.035020774741808e-08,3.3317776640563487e-25,-6.0,1.997131198456211,0.0,7.832364343272519e-08,9.269774877384517e-09,0.004771113583875751,0.0,0.0,0.0,0.17930392667187126,2.93856721247309e-06,-4.639337917881378e-06,-1.1438603188237636e-08,540.4939797979533,540.4934375412765,540.4948780160472,540.4924619525913
6.24,-4.1020877434110365e-09,-6.0000000034225565,1.9927932586319224,-7.031986405160101e-06,6.475783905481989e-06,1.2330466080726966e-07,3.0421005971052363e-25,-6.0,1.9973806226677469,0.0,4.5752250376595735e-07,2.419530122618926e-07,0.004427729787313683,0.0,0.0,0.0,0.17973594419387687,-1.6744372783747284e-06,3.5056349875906716e-06,-7.748125481032793e-09,540.5050980269269,540.5056818550242,540.504537974397,540.506189501081
6.292000000000001,1.663604532386816e-08,-5.99999999166065,1.9930134320138515,2.5768704325993668e-05,-4.8038679969646456e-05,1.0656128434136862e-07,2.7737351733056483e-25,-6.0,1.997611696652785,0.0,2.863410249140811e-07,1.7209159799949025e-07,0.004105894508312726,0.0,0.0,0.0,0.1801518841475848,-3.45531225900987e-06,5.918390830714117e-06,-2.7935730202299547e-09,540.5162412496652,540.5170265196307,540.5151301901943,540.5181186809854
6.344,1.75027501916083e-08,-5.9999999905076535,1.9932175435752366,1.8513025884117204e-05,-2.9416449996302676e-05,6.28031950927298e-08,2.5252777454640923e-25,-6.0,1.9978256290109515,0.0,-1.480723392570431e-07,-7.356051212158107e-08,0.0038055594343806426,0.0,0.0,0.0,0.1805434026156849,1.3993053893187235e-08,-5.889290851676036e-07,-1.2303607488811019e-09,540.5273143283265,540.5271310328532,540.5273146287773,540.5271224110455
6.396000000000001,5.790852427033047e-09,-5.999999997229157,1.9934066471529022,-1.5023496837188883e-05,3.0354943047334177e-05,5.681345645103324e-08,2.295408884064989e-25,-6.0,1.9980235558268864,0.0,-2.0025289213927113e-07,-1.2394820020016445e-07,0.003524915056834781,0.0,0.0,0.0,0.18091574538564564,3.24332867890894e-06,-5.946554190473485e-06,-2.57866158972439e-09,540.5377283615351,540.5368665617211,540.5387536267239,540.535823852851
6.448,6.187510054174364e-09,-5.999999997991572,1.9935817479616333,-2.2678004898856598e-05,3.852617004240952e-05,4.883564007571984e-08,2.0828887849623707e-25,-6.0,1.9982065446244188,0.0,1.6591881450766303e-07,7.289175735711116e-08,0.0032630031498273155,0.0,0.0,0.0,0.18126902819533366,1.4325259017934485e-06,-2.018316752836504e-06,-1.8941131000419727e-09,540.5469464028052,540.5467596534868,540.5473966847912,540.5462965608805
6.5,2.2505323297341773e-08,-5.999999989386723,1.9937437932803916,5.877791121274857e-06,-1.540617424825402e-05,3.932016791170665e-08,1.8865528991803784e-25,-6.0,1.998375598129492,0.0,3.481646385571924e-07,1.9374696372213401e-07,0.003019220821371635,0.0,0.0,0.0,0.1816000971802963,-2.534911415717169e-06,4.9659418767343115e-06,-1.7925383896735707e-09,540.5554210179424,540.5561960142742,540.5546068423992,540.5569980645349
6.5520000000000005,3.2594767797733244e-08,-5.9999999831266795,1.9938936834718184,2.6675860420633103e-05,-4.8144981186094415e-05,3.953422871803448e-08,1.7053077759938843e-25,-6.0,1.9985316578494456,0.0,4.217482192929925e-08,4.132226149343384e-08,0.0027920703152076983,0.0,0.0,0.0,0.18191254035642185,-2.651968076546659e-06,4.401674228573447e-06,-2.877847361868562e-09,540.5639831400566,540.5645409260102,540.5631279911156,540.5653766102135
6.604,2.2669183256905568e-08,-5.999999987937299,1.9940322887307218,8.445209254987171e-06,-1.0569289705554605e-05,4.0905367064830654e-08,1.5381271106654748e-25,-6.0,1.9986756074760847,0.0,-3.057677878866668e-07,-1.62927625646969e-07,0.0025819420916869517,0.0,0.0,0.0,0.18219501372001484,1.086121554900668e-06,-2.4776196644839336e-06,-2.2905305746587803e-09,540.5721237093487,540.5716801222188,540.5724622019342,540.5713261387577
6.656000000000001,7.97560813085856e-09,-5.999999996470798,1.994160411678276,-2.0846022097676116e-05,4.042217297352925e-05,4.363135075528341e-08,1.3840479884289191e-25,-6.0,1.9988082761197659,0.0,-2.005086385687859e-07,-1.2717891844542593e-07,0.002385410730593803,0.0,0.0,0.0,0.18246947798042737,3.276064681060503e-06,-5.879479504241539e-06,-3.793263744424518e-09,540.5797435407418,540.5789136255332,540.580775054802,540.5778564551706
6.708,1.0069028092472929e-08,-5.999999996353841,1.9942787380875389,-2.0393111391933376e-05,3.395934452357386e-05,6.566091316790302e-08,1.2421673165301743e-25,-6.0,1.9989304413815623,0.0,2.0290554699667153e-07,9.375370062906906e-08,0.002203178914096773,0.0,0.0,0.0,0.1827213332940055,8.048941062482124e-07,-9.236127518049135e-07,-5.729298736464535e-09,540.5861632546637,540.5861254100735,540.5864004625861,540.5858494570061
6.760000000000001,2.6427922449670507e-08,-5.9999999877022105,1.9943880188437455,1.1116700480294173e-05,-2.3383578396582656e-05,7.669087962982041e-08,1.1116384363630576e-25,-6.0,1.9990428322703575,0.0,3.1917935209633105e-07,1.7699233434257318e-07,0.002034309133775309,0.0,0.0,0.0,0.18295399605417384,-2.9582241305790812e-06,5.439663542527093e-06,-5.378235972344804e-09,540.5920414893653,540.5928325021354,540.5910803043005,540.5937573136938
6.812,3.327161211980105e-08,-5.999999983554302,1.9944888942602519,2.6840783192902063e-05,-4.658117548681278e-05,8.069877609729384e-08,9.916679079670727e-26,-6.0,1.9991461319715302,0.0,-3.253549894555064e-08,-1.0156797117434927e-08,0.0018776340405470796,0.0,0.0,0.0,0.1831690951048894,-2.213234896658177e-06,3.44928158612691e-06,-5.077480195939373e-09,540.5980575951017,540.5984516076211,540.597334917078,540.5991399479677
6.864000000000001,2.0664319356040054e-08,-5.999999990583894,1.9945819835647196,3.670730472548346e-06,-2.3394094831609094e-06,7.498978348620949e-08,8.815124593875465e-26,-6.0,1.9992409804736833,0.0,-3.3282892274175184e-07,-1.9323596181767247e-07,0.0017323584272180101,0.0,0.0,0.0,0.1833681973189328,1.6374695411499868e-06,-3.3648513595186586e-06,-4.255257815492749e-09,540.6039138930195,540.6033632639136,540.6044214728734,540.6028269073121
6.916,6.637870245957567e-09,-5.999999999372543,1.9946678397699142,-2.146974126873906e-05,3.8801668071870865e-05,5.068299292524476e-08,7.804760936327509e-26,-6.0,1.9993279770596752,0.0,-1.6959579300297575e-07,-1.1813507390921944e-07,0.0015973488896518738,0.0,0.0,0.0,0.18355529190700362,2.6381140432099363e-06,-4.461828037629395e-06,-6.011047841379997e-10,540.6089835993143,540.6084022683042,540.6098224967074,540.607559303832
6.968000000000001,8.596746326995469e-09,-5.999999999322917,1.9947469681878491,-1.2783263794023974e-05,1.861219029759733e-05,2.4532553276615353e-08,6.879073461973452e-26,-6.0,1.99940768266801,0.0,1.5849546027000593e-07,7.417360312595677e-08,0.0014717429553860945,0.0,0.0,0.0,0.18373312108759643,-2.7132221392868253e-07,9.746906015988411e-07,-9.980498673653312e-11,540.6133898622485,540.6136140674801,540.6133030382842,540.6137002164867
7.0200000000000005,1.867615419150364e-08,-5.999999993737606,1.9948198540423687,1.2421742837016615e-05,-2.527580739184972e-05,3.953632262313976e-09,6.031966863559774e-26,-6.0,1.999480622130433,0.0,1.603652324654859e-07,9.737533898316309e-08,0.0013552926343283474,0.0,0.0,0.0,0.18389980865173644,-2.4084603302642597e-06,4.299629119590987e-06,8.588749944209849e-10,540.6177074167748,540.6183102394334,540.6169426069685,540.6190808551864
7.072,1.8529239141745035e-08,-5.999999993137067,1.9948869434155543,1.6774752097907023e-05,-2.78230811587793e-05,-1.5078783766045896e-09,5.257740556638756e-26,-6.0,1.999547286291386,0.0,-1.2301535416263452e-07,-5.566326320737365e-08,0.0012472631033908755,0.0,0.0,0.0,0.18405680083552098,-9.534160300280981e-07,1.1621820547201038e-06,-7.40452205829669e-10,540.6222244731118,540.6222910181509,540.6219180641524,540.622592419848
7.1240000000000006,6.712208003983996e-09,-5.9999999995407824,1.9949486767084643,-3.501402638930033e-06,9.737575314911886e-06,9.211898876873647e-10,4.551065373324827e-26,-6.0,1.9996081340147716,0.0,-2.514101932744574e-07,-1.4428836957509994e-07,0.0011475283610580284,0.0,0.0,0.0,0.18420163348155355,1.649879500496235e-06,-3.1867885496118733e-06,-5.589830095974029e-10,540.6264196866339,540.6259297940289,540.6269436983363,540.6254020014348
7.176,-1.3179974384923551e-09,-6.000000004627699,1.9950054541212787,-1.6753821861112366e-05,2.8887330671143302e-05,-1.6048204114997215e-09,3.9069615037664267e-26,-6.0,1.9996635940832896,0.0,-5.945874009527691e-08,-4.695100965706672e-08,0.0010551083094121584,0.0,0.0,0.0,0.184338409034057,1.5719973086709877e-06,-2.4193336454264373e-06,-3.0946501581030007e-10,540.6300087171915,540.6297386290132,540.6305087441489,540.6292365087195
7.228000000000001,2.6880418433120197e-09,-6.000000002749354,1.9950576359883505,-4.614517641376103e-06,4.080408053318994e-06,3.3593616000613073e-09,3.3207776265522115e-26,-6.0,1.9997140669953943,0.0,1.419450842678213e-07,7.951107883201124e-08,0.0009694305117802249,0.0,0.0,0.0,0.1844685553924322,-9.007761316651854e-07,1.9980416044312e-06,-1.2544195727738938e-09,540.6332204270784,540.6335701778083,540.6329290654771,540.6338530566643
