Time_s,X,Y,Z,Roll_deg,Pitch_deg,Yaw_deg,Ref_X,Ref_Y,Ref_Z,Ref_Yaw,vx,vy,vz,p,q,r,T_pert,tau_x,tau_y,tau_z,RPM_0,RPM_1,RPM_2,RPM_3
0.0519999999999996,4.1055335462774755e-22,-6.0,0.010054997933779349,-2.4069942637136807e-19,3.0034218400641577e-19,8.980135315798083e-19,2.306477285643576e-22,-6.0,0.014025464799603895,0.0,-3.776639893002386e-21,-6.44796429069904e-24,0.0009999862982232668,0.0,0.0,0.0,1.245571039196634,-3.0208420536768374e-19,-5.064095004931085e-19,0.0,568.608835681673,568.6088356816731,568.608835681673,568.608835681673
0.10400000000000098,2.412624648321061e-09,-6.0000000024127,0.010457863471001076,0.0003634423991611552,0.0003635062372843962,2.7953835173319454e-05,2.2938274678348444e-22,-6.0,0.02491749317527324,0.0,1.934196310680287e-07,-1.9343148303731682e-07,0.023086957517271585,0.0,0.0,0.0,2.3675510598301854,-0.00010955636164346957,-0.00010958330330474117,-6.265527411100637e-06,596.8057530472445,596.7424738732356,596.75492691512,596.754919135146
0.15600000000000058,2.0021560476985463e-07,-6.000000200359295,0.014561164618811032,0.0007528091085775259,0.0007740981744160345,7.707815902162994e-05,2.274141915644817e-22,-6.0,0.041867586551043744,0.0,5.383280923843347e-06,-5.417721816153632e-06,0.12343263061248003,0.0,0.0,0.0,2.829511801035832,-7.52253714661207e-05,-9.194556160477722e-05,-9.723168500814779e-06,608.0167261335934,607.9693442908717,607.9661726221846,607.9614333323021
0.20800000000000018,7.883731330874068e-07,-6.000000749689777,0.02497182934821077,-0.00045748722312306133,-4.236040582048136e-05,0.00010231521991784276,2.2482832029034685e-22,-6.0,0.0641330323618625,0.0,1.2823899930713187e-05,-1.2608122793096165e-05,0.2543355768780361,0.0,0.0,0.0,2.922897474890643,0.0001234582631660901,5.175248150364605e-05,-5.532482130232154e-06,610.2038240354877,610.2533027021608,610.2221164533544,610.2018665375825
0.2599999999999998,1.3403420492507549e-06,-6.000001052220857,0.042478106952716047,-0.0011917835008290658,-0.001015142928490972,6.558208162880735e-05,2.217039806924741e-22,-6.0,0.09103491827816745,0.0,1.3886030942359695e-05,-8.959953291404567e-06,0.39235771584082857,0.0,0.0,0.0,2.789069729488604,0.00010640255967262442,0.00011219301027874284,4.1752983711822245e-07,606.9733211883118,607.0353794115479,607.004786469667,607.0064303471328
0.31200000000000117,1.3465380241808634e-06,-6.000000723758272,0.06702979189687013,-0.00017297895340199343,-0.0006589622027176542,1.5597893302991833e-05,2.1811315217017493e-22,-6.0,0.12195347121578147,0.0,2.4438714311577644e-06,6.91023239740026e-06,0.5248430122596923,0.0,0.0,0.0,2.5165101226745783,-7.783854298123044e-05,-7.6013064776356254e-06,2.766887551135018e-06,600.4113659741621,600.3868431647305,600.3974486587559,600.4176077556112
0.36400000000000077,9.9145196923582e-07,-6.000000290749886,0.09810903780492931,0.0009667689281675738,0.00046334682777755907,-1.2851835768621478e-05,2.141214516482775e-22,-6.0,0.15632370168792953,0.0,-1.099175666811816e-05,1.5797140700250087e-05,0.6451287117171681,0.0,0.0,0.0,2.1627114492219977,-0.00013580652166983394,-0.00011870216704643787,2.1450324351124883e-06,591.7578652683441,591.6837452431289,591.7249419944882,591.7299232035907
0.41600000000000037,8.580745845776658e-07,-6.000000344026529,0.1349102109996963,0.0005279341165228966,0.0006194525377640938,-1.9261753927575322e-05,2.0978860608980518e-22,-6.0,0.19363133527115464,0.0,-8.04619046073567e-06,3.099829401425698e-06,0.7474840286926123,0.0,0.0,0.0,1.7901375344950974,5.2905041446767075e-06,-2.5348712744600117e-05,1.938890605772864e-06,582.4444715039358,582.4385369290643,582.4521215575819,582.4430564994462
0.46799999999999997,1.0179518996562595e-06,-6.000000682608469,0.17643382138685437,-0.0004986057117688765,-0.0005511630039625025,-2.3902491954723916e-05,2.0516889366594876e-22,-6.0,0.23340901394518349,0.0,9.449178412656997e-06,-1.2193198902532785e-05,0.8305895581809617,0.0,0.0,0.0,1.430585634424404,8.927321952130526e-05,0.00012457268019634916,1.328784114554902e-06,573.3126635002484,573.3769374270394,573.3437328368756,573.3543424309198
0.5200000000000014,9.244659128833207e-07,-6.000000786120166,0.22170617897911427,-0.0007773920063398933,-0.0009463986383888979,-2.2136304593880665e-05,2.0031155547627509e-22,-6.0,0.27523275100772615,0.0,9.396925608781366e-06,-1.1104567464006236e-05,0.8954108288998187,0.0,0.0,0.0,1.0997625360551357,6.56842115852183e-05,8.81546133329113e-05,1.5834576645746031e-06,564.8207578968171,564.867691840273,564.8459218704185,564.8527771944721
0.572000000000001,3.836545960342718e-07,-6.000000511503706,0.26982584120804876,-0.00013204682012904985,1.1647098691610677e-05,-1.8900605587531058e-05,1.9526117960813118e-22,-6.0,0.3187186241604972,0.0,-1.0670601873404185e-05,3.7212220067036155e-06,0.9434857822056021,0.0,0.0,0.0,0.8079360623137533,-3.90218898748002e-05,-6.555272706447429e-05,5.47364165018841e-07,557.2562771577423,557.2239376280482,557.2460053960298,557.2378008043485
0.6240000000000006,-1.5192632155405037e-07,-6.0000001705356265,0.3199854904118769,0.0007265753004321084,0.0008648984010350242,-2.3548453829030205e-05,1.9005805922530114e-22,-6.0,0.36351969221436836,0.0,-2.2124389428939654e-05,1.630905239477442e-05,0.9772523014615386,0.0,0.0,0.0,0.554729213536414,-0.00011092844018755258,-5.915499995370099e-05,3.430962087735008e-06,550.577549065494,550.5243119746875,550.5542196123482,550.5704246603367
0.6760000000000002,-3.051426588555636e-07,-6.000000162569588,0.3715120447731486,0.0006817030923035146,0.00012322101489856385,-3.7154727544780095e-05,1.8473852628194821e-22,-6.0,0.4093231216711242,0.0,-4.602366513527513e-06,9.675517957163779e-06,0.9983930606401378,0.0,0.0,0.0,0.3446013099932733,-3.053424104328868e-05,8.290682211298821e-05,3.5794725232023445e-06,544.9329498849256,544.9495115536756,544.9353006962518,544.971173129496
0.7279999999999998,-3.965380002201567e-07,-6.000000454390545,0.4237553922974042,-0.0004603257501231431,-0.0008095729450498057,-5.887129785529022e-05,1.7933526236851802e-22,-6.0,0.45584751020870923,0.0,9.881328791643767e-06,-1.209259488048071e-05,1.0075845521359919,0.0,0.0,0.0,0.18750234036078683,0.00010741191326040711,0.00012962042843877837,4.543014498891538e-06,540.669988873509,540.7455319711157,540.7195805030003,540.7266582391591
0.7800000000000011,-8.155965490135849e-07,-6.000000554718329,0.4762043188716257,-0.000905737573797592,-0.00013391424922726448,-4.5757296697817854e-05,1.7387758811140706e-22,-6.0,0.5028403948276304,0.0,-5.888460289171707e-06,-1.4865701679724982e-05,1.008423049516606,0.0,0.0,0.0,0.06690801863567042,6.541532989957648e-05,-4.0663579832443785e-05,7.649783492387079e-07,537.4391022087575,537.4470386029026,537.4626783702538,537.4286654232621
0.8320000000000007,-1.2837325868380871e-06,-6.000000268620527,0.5284989591169498,2.8924944066233594e-05,0.0010971777384194829,-1.772335934288336e-05,1.6839173246761516e-22,-6.0,0.5500759331100554,0.0,-2.4428078970335978e-05,5.837114054769935e-06,1.0030312016416065,0.0,0.0,0.0,-0.024997013941307378,-7.847908367236956e-05,-0.00012751342553441966,-9.8041517429424e-07,534.9729096581708,534.906551189121,534.9442793262516,534.9284832944401
0.8840000000000003,-1.2805926523558585e-06,-5.999999984622305,0.580354516909486,0.0007890933865599865,0.0009669407528023466,4.691121473136374e-06,1.6290108317911533e-22,-6.0,0.5973527467017148,0.0,-1.3506086414314763e-05,1.6552357376584672e-05,0.9927259407762641,0.0,0.0,0.0,-0.09259148484631974,-8.624557508117323e-05,-2.219353022416743e-05,-1.3767449999601146e-06,533.10707436829,533.0720205328829,533.0744741920344,533.0951797273075
0.9359999999999999,-8.554581311141627e-07,-6.000000029824642,0.6315589552149024,0.0002782348195078843,-0.0002408220989381119,1.3508969232683058e-05,1.5742641957912479e-22,-6.0,0.6444919167514035,0.0,1.1480624423486254e-05,3.0342654535567597e-06,0.9788666743686075,0.0,0.0,0.0,-0.14218112980751813,3.112071162854962e-05,0.00010075443571493975,-5.72659940170476e-07,531.7048431163578,531.7475821474291,531.7129605992268,531.7355280728858
0.9880000000000013,-5.18838366481356e-07,-6.000000198120484,0.6819610129551287,-0.0006311533564621377,-0.0007931497676610536,8.542907440222572e-06,1.5198612887364988e-22,-6.0,0.6913351216353648,0.0,1.7234862808323717e-05,-1.1757885648453181e-05,0.9624901417993718,0.0,0.0,0.0,-0.17901296749447765,9.813139734284106e-05,6.894398354418801e-05,4.829371620318053e-07,530.6834381909696,530.7376887868016,530.7169661705537,530.7074888339396
1.040000000000001,-5.138211971095405e-07,-6.000000107585994,0.7314483021008165,-0.0006081142175197892,-8.909463605590182e-05,1.883683111525096e-06,1.465964069564632e-22,-6.0,0.737742907855369,0.0,1.254098705835114e-06,-6.341765749066886e-06,0.9441100850067125,0.0,0.0,0.0,-0.20506774151566112,2.3766727571766797e-05,-5.063476579836345e-05,5.715382035721413e-07,529.9964235603123,529.9876874847365,530.0061222582717,529.981930888351
1.0920000000000005,-5.574153704385119e-07,-5.999999762827708,0.779932791277375,0.0002813695922301538,0.0006447511550449465,2.769174868320457e-07,1.412714447538681e-22,-6.0,0.7835930855314422,0.0,-9.211274715349927e-06,1.02518289687644e-05,0.9243043726468381,0.0,0.0,0.0,-0.22361647505616195,-7.633667645842853e-05,-7.879302608133641e-05,2.8630284470209254e-07,529.5057907246626,529.4553019610072,529.4819350485437,529.4811356025195
1.1440000000000001,-3.4141583171111424e-07,-5.999999530994228,0.8273556760083426,0.0007154733375491167,0.0003512048649325223,1.6148756315328555e-06,1.3602360103708143e-22,-6.0,0.8287792404141326,0.0,-2.5512635708571815e-07,1.3421031222873798e-05,0.9035165969441259,0.0,0.0,0.0,-0.2372082263664972,-5.640325303119285e-05,9.433702422130866e-06,1.9416949927441436e-08,529.1131692194388,529.0978715984452,529.0948661414182,529.1163087281847
1.1959999999999997,2.1701342968110795e-08,-5.9999995982351555,0.8736742454969552,0.00015017381226946832,-0.0004134135151238964,3.876842449424009e-06,1.3086356258464123e-22,-6.0,0.8732093548184094,0.0,1.2047615675731105e-05,4.458941474793785e-07,0.8820047061192857,0.0,0.0,0.0,-0.24729553739586216,3.851480061052033e-05,6.969875577906608e-05,-1.1719433494503599e-07,528.809279344855,528.8445422352681,528.8214251117306,528.8315868444396
1.248000000000001,2.1594774563613527e-07,-5.999999737565054,0.9188569844655858,-0.000472631939613784,-0.0005215245067715954,5.338560977647639e-06,1.258004925248037e-22,-6.0,0.9168045303328612,0.0,9.833300542857534e-06,-8.322899304359574e-06,0.8599604965332777,0.0,0.0,0.0,-0.25495461172818074,6.333538312929045e-05,2.2813510362503716e-05,-1.1044179356075616e-07,528.60103778036,528.629121843463,528.6213030208545,528.6080931047715
1.3000000000000007,1.8884793764026454e-07,-5.999999687554884,0.9628806813878583,-0.00029324595228140854,5.433760993181144e-05,5.504012608376415e-06,1.2084216763827424e-22,-6.0,0.9594978055850834,0.0,-1.2692042678452586e-06,-2.3318069549206336e-06,0.8375185129977982,0.0,0.0,0.0,-0.260854104569482,-4.135662530140477e-06,-4.853009894060292e-05,-1.0069313873160836e-09,528.4602633891826,528.4430893332677,528.4589113064956,528.4444344904973
1.3520000000000003,1.74196981967579e-07,-5.999999514354447,1.0057275062957294,0.00030486925833346935,0.00039120962900515677,4.706281030362239e-06,1.1599510535469218e-22,-6.0,1.0012330627482087,0.0,-4.641698524767542e-06,6.776593710322222e-06,0.814768425952248,0.0,0.0,0.0,-0.2653171982813508,-5.6256643214365937e-05,-4.062029095795344e-05,6.422369605701143e-08,528.3438539156228,528.3122554133367,528.3257270270833,528.3308271585928
1.404,3.1533581814815817e-07,-5.999999462888981,1.047383792350768,0.00041209328789445186,4.196966256672636e-05,4.094074057171034e-06,1.112646811319362e-22,-6.0,1.0419640168554245,0.0,2.3464500100860696e-06,5.326761632465354e-06,0.791785046275659,0.0,0.0,0.0,-0.268523343601918,-2.1318858745476464e-05,2.5044420124253545e-05,5.20110117036292e-08,528.2387257647227,528.2399411410448,528.231950915468,528.2470758339508
1.4560000000000013,4.7451560719153833e-07,-5.999999582522761,1.0878394201888488,-5.573640084611923e-05,-0.00039636273131269734,3.997780735111527e-06,1.0665523686539241e-22,-6.0,1.0816532823503036,0.0,7.159202179512565e-06,-3.0040944654699113e-06,0.7686310486674575,0.0,0.0,0.0,-0.27052401396825887,3.801580699521458e-05,4.571270951065543e-05,2.119934597172175e-08,528.1703440275696,528.1976613379825,528.1828206248699,528.1853318200366
1.508000000000001,4.711490752872655e-07,-5.999999684229748,1.1270874727529974,-0.000359051751526235,-0.0002785940227968383,4.048248380649555e-06,1.0217018093473646e-22,-6.0,1.1202715116416744,0.0,2.5603943234177663e-06,-5.5068564300126965e-06,0.7453702697897658,0.0,0.0,0.0,-0.27136020610939904,3.555420687781641e-05,-7.686237050569787e-07,5.305458611783222e-09,528.1552057477928,528.1665554075452,528.1668245485457,528.1549733240894
1.5600000000000005,3.492555940921446e-07,-5.999999640220469,1.1651242514411797,-8.868834352399884e-05,0.00016832330127540356,4.178375681650709e-06,9.781208045838624e-23,-6.0,1.1577966007537543,0.0,-4.063715303982204e-06,1.4184082908801672e-07,0.7220622744893703,0.0,0.0,0.0,-0.27102769795396164,-1.9356302630679016e-05,-4.262053546594138e-05,-1.0581130035887223e-08,528.18022408529,528.1600029573302,528.1738721859305,528.1662817848057
1.612,2.9161626254717487e-07,-5.9999995566336555,1.2019491485826246,0.0002876091291235068,0.00027679335870023624,4.286614632738091e-06,9.358274629049198e-23,-6.0,1.1942129574660956,0.0,-3.5702213150331847e-06,4.285063686766885e-06,0.698766661608235,0.0,0.0,0.0,-0.26952274262165354,-3.857068537329741e-05,-1.857442148620369e-05,-2.4816438442404527e-08,528.2211225952689,528.2024793834449,528.2084533590922,528.2149770085241
1.6639999999999997,3.468930009751391e-07,-5.999999588020722,1.2375646653725116,0.0002059314631339319,-6.40489451334304e-05,4.450735010179496e-06,8.948331126202464e-23,-6.0,1.2295108276247126,0.0,1.7615327199115536e-06,1.0687340400911999e-06,0.6755433217653557,0.0,0.0,0.0,-0.2668581335212059,-3.4384448063966614e-07,2.7562175757330752e-05,-5.321708941636165e-08,528.281169244342,528.2900478036557,528.2808729475166,528.2899758326173
1.716000000000001,3.7893596409102793e-07,-5.9999997053551555,1.271976438150144,-0.00014913856618764608,-0.00029940048603427306,4.82870149411279e-06,8.551430213611245e-23,-6.0,1.2636856755761858,0.0,3.098929695495227e-06,-3.610549120607925e-06,0.6524529779905165,0.0,0.0,0.0,-0.2630785361205274,3.197051383000962e-05,2.7241825754584562e-05,-9.607614242611896e-08,528.3806313960996,528.3999425035397,528.3907257679763,528.3891835850202
1.7680000000000007,2.895226105843766e-07,-5.999999764441003,1.3051930660915727,-0.00023273820418108222,-0.0001034747425058296,5.114611977645738e-06,8.16757057181584e-23,-6.0,1.2967376149315784,0.0,-1.0538658918407946e-06,-2.9081011732887604e-06,0.6295479844439769,0.0,0.0,0.0,-0.25818705162588246,1.3389346567087298e-05,-1.265220777698928e-05,-7.892835058749769e-08,528.5254834768282,528.5257238206813,528.5295760830512,528.5210852386863
1.8200000000000003,1.555333152523167e-07,-5.999999727482636,1.3372259124125285,2.6246998959831385e-05,0.00018848371903542037,4.7014752660930665e-06,7.796702953335109e-23,-6.0,1.3286708861073937,0.0,-4.0652597456951615e-06,1.0552750309681065e-06,0.6068854584128511,0.0,0.0,0.0,-0.25226837624700527,-2.1350781706847308e-05,-2.890072445443758e-05,-6.8207172621982194e-09,528.6973907246107,528.6810113080447,528.6904079437547,528.6879470491018
1.8719999999999999,9.71350860623103e-08,-5.999999698154345,1.3680893694486722,0.00020724096375375914,0.00015457725149258637,4.010090574951165e-06,7.438735745788377e-23,-6.0,1.3594933773172408,0.0,-2.1090204210387152e-06,2.0497038878165375e-06,0.5845233776917692,0.0,0.0,0.0,-0.2454641838931305,-2.0811514355682633e-05,-2.3528854907071485e-06,2.9597745588806092e-08,528.8810666201732,528.8735188978152,528.8743878453193,528.8804022717565
1.9240000000000013,1.0400254463867789e-07,-5.999999752133289,1.3978004433065703,6.288143392846371e-05,-0.00010207735994509884,3.5178147543089857e-06,7.093540066541705e-23,-6.0,1.3892161859012326,0.0,9.496177784573213e-07,-7.475119905239762e-07,0.562502102683385,0.0,0.0,0.0,-0.23780492117414906,9.3068132182531e-06,2.366982438793492e-05,2.8354679601788406e-08,529.0836442521669,529.0943848241941,529.0867734858298,529.0914515530503
1.9760000000000009,7.230959070662869e-08,-5.999999833103821,1.4263781281300647,-0.00015246695149511049,-0.00017859176352265374,4.36549439925954e-06,6.760954422700009e-23,-6.0,1.41785321708095,0.0,4.84806780789487e-07,-2.59159177231676e-06,0.540864570179828,0.0,0.0,0.0,-0.2293922579604841,2.10094684412236e-05,1.1368131667748612e-05,-2.2664957880161786e-07,529.3166322044227,529.3271730287287,529.3226893750236,529.3195505448778
2.0280000000000005,-3.097277714498063e-08,-5.999999853032421,1.4538436524873355,-0.00011414063733838645,2.3966967411243673e-05,5.7311312010277785e-06,6.440788968070821e-23,-6.0,1.4454208174168452,0.0,-2.2657936206311134e-06,-9.618097982266273e-07,0.5196499740492554,0.0,0.0,0.0,-0.2203398833772904,-3.217548895031911e-07,-1.7201158584926603e-05,-2.1652265624583414e-07,529.574745466322,529.5690434143291,529.5738934133273,529.5684007551883
2.08,-1.2468629098691914e-07,-5.99999982481318,1.480220078129733,7.614162916569566e-05,0.000188646016187947,6.0636188855609735e-06,6.132829386660654e-23,-6.0,1.4719374404227776,0.0,-2.872993299875753e-06,1.0767310567108699e-06,0.4988959822036708,0.0,0.0,0.0,-0.2107939477514467,-1.6829618844075042e-05,-1.983891398820626e-05,-1.8140735758992213e-07,529.8413096565222,529.829383448222,529.8352101232814,529.8342313679198
2.1319999999999997,-1.4092844638968387e-07,-5.999999825370583,1.5055320792307223,0.00011382884352768323,7.729002271905879e-05,6.653172807496064e-06,5.836840430321988e-23,-6.0,1.4974233419596361,0.0,-5.685391138680099e-07,5.429247285351248e-07,0.4786178818455816,0.0,0.0,0.0,-0.20073512122559498,-5.700182514015106e-06,6.3574438116727645e-06,-2.466016354341342e-07,530.1128813630374,530.1130950211561,530.110178069499,530.1140976885239
2.184000000000001,-1.2381871913119436e-07,-5.9999998717767795,1.529804187620107,-3.954960171794195e-05,-0.00014267926165910714,6.53457104418965e-06,5.552569136343054e-23,-6.0,1.521900303187247,0.0,1.1406045178235213e-06,-1.2019172083975835e-06,0.45881472363855114,0.0,0.0,0.0,-0.1900602355865748,1.5274896532857752e-05,2.4407656243548284e-05,-1.5175913377702534e-07,530.4007462062534,530.4136387906348,530.4051859574245,530.408153130226
2.2360000000000007,-1.6256716795950786e-07,-5.999999903328957,1.5530642444892366,-0.00011698660201366989,-0.00012877938453135815,6.265208361870127e-06,5.2797477490563846e-23,-6.0,1.545391379001514,0.0,-2.6268083416791573e-07,-1.1228369134830536e-06,0.4395904485911476,0.0,0.0,0.0,-0.1795627684345317,9.432959804667714e-06,3.3973331569162746e-06,-1.8260258399542474e-07,530.6944787316805,530.6986449313831,530.696912826519,530.6949529604567
2.2880000000000003,-2.5343149907371976e-07,-5.9999998874115645,1.5753415784513103,-1.2436032227601147e-06,9.264353186352284e-05,5.115540173951584e-06,5.018096367929684e-23,-6.0,1.5679206700225892,0.0,-2.287880925713815e-06,4.1884534750599724e-07,0.42090763916866153,0.0,0.0,0.0,-0.1689274001328859,-9.208466140875957e-06,-1.9972323293437636e-05,-1.1502757407158718e-08,530.9939584659561,530.9844882231401,530.9909304000242,530.9874371309782
2.34,-3.0700094667534326e-07,-5.999999869689656,1.5966642773528708,0.00010902139060054812,0.0001779961439742244,3.5892364298984654e-06,4.767325343088914e-23,-6.0,1.589513116330202,0.0,-1.6809919796832512e-06,7.999514849680025e-07,0.40277118740743134,0.0,0.0,0.0,-0.15819587216868736,-1.2685284462520484e-05,-1.2507282596406839e-05,3.091390307345934e-08,531.2886772858512,531.2805059137545,531.284669106855,531.2847268429002
2.3920000000000012,-2.8639089756315084e-07,-5.999999895927711,1.617060751984982,5.285409487424318e-05,3.090362129150077e-05,3.8130274031366736e-06,4.527137437801853e-23,-6.0,1.6101943112646726,0.0,4.5467752745633124e-07,-4.136445726011136e-07,0.38518009154321853,0.0,0.0,0.0,-0.14736389701333744,2.881086223859673e-06,9.984901831629571e-06,-1.2605874959527153e-07,531.5808161586021,531.58498698319,531.5813166727464,531.5836195501341
2.444000000000001,-2.504814295085162e-07,-5.999999944501667,1.6365593876880087,-6.586151585676815e-05,-0.00010709589832910565,4.466272391682192e-06,4.297229776117062e-23,-6.0,1.6299903337269561,0.0,1.0960509843570325e-06,-1.2183375281484756e-06,0.3681269275963156,0.0,0.0,0.0,-0.13635711335734738,1.0505073079497483e-05,1.3271447172085e-05,-1.6165906148423882e-07,531.8817897396038,531.8894930928452,531.8846377305695,531.885534008867
2.4960000000000004,-2.571595792694644e-07,-5.999999966556106,1.6551876726502617,-7.227630516882943e-05,-5.348179868238287e-05,4.084884532820882e-06,4.0772955926019265e-23,-6.0,1.6489275975187943,0.0,-7.500913528571194e-08,-5.881488787267309e-07,0.351617367037239,0.0,0.0,0.0,-0.12527448530951674,2.5751302600890268e-06,-2.7433092477612537e-06,-3.497157922954288e-08,532.1900414803512,532.1899870232153,532.1907552038327,532.1890330680719
2.548,-2.865204507261978e-07,-5.999999958190104,1.672975974890245,1.7901081138100596e-05,7.4786971501024e-05,2.9898728797927474e-06,3.8670257999507897e-23,-6.0,1.6670327163650223,0.0,-8.527354734929664e-07,2.9650781977944774e-07,0.33570085070123856,0.0,0.0,0.0,-0.11455354896052669,-7.638811180737678e-06,-1.2235525576798683e-05,4.49335563037811e-08,532.4875771427319,532.4811452977052,532.4852592822112,532.4837716679867
2.5999999999999996,-2.8620485203271335e-07,-5.999999955847395,1.6899538026041594,6.187506167625331e-05,8.1053664226601e-05,2.118654988074581e-06,3.666110389134486e-23,-6.0,1.6843323833547699,0.0,-1.3206727032820855e-07,1.941887978942233e-07,0.32033342394846837,0.0,0.0,0.0,-0.10392331776024685,-5.473101282203623e-06,-2.8800370447156108e-06,5.388520467651843e-08,532.7775287642306,532.7748269551311,532.7759433732975,532.7767820954458
2.652000000000001,-2.5232482509280083e-07,-5.999999978371456,1.7061490581860244,6.265786504428164e-06,-2.468825057456311e-05,1.9511871880802947e-06,3.4742396757327303e-23,-6.0,1.700853263626968,0.0,8.079943443474353e-07,-4.917911514035354e-07,0.3054987110460531,0.0,0.0,0.0,-0.09332331354027301,3.5605596467361748e-06,8.810221592778813e-06,-4.766306049462343e-08,533.0651954884516,533.0691946132288,533.066183083255,533.0678801514669
2.7040000000000006,-2.2705952602325034e-07,-6.00000000433576,1.7215898868696853,-4.422037601475049e-05,-6.476211498868256e-05,2.7098155675953787e-06,3.2911054051260877e-23,-6.0,1.716621899208645,0.0,5.955724104270031e-07,-6.041258342599624e-07,0.2912157547019082,0.0,0.0,0.0,-0.08298652152594846,4.672849598768386e-06,4.844728916037697e-06,-8.979603723604268e-08,533.3491979197462,533.3522730488565,533.3503999725916,533.350455506822
2.7560000000000002,-2.2844034789144205e-07,-6.000000012055777,1.7363036045728002,-2.6423634079493915e-05,4.604769667558762e-06,2.8003071660999195e-06,3.1164017283210814e-23,-6.0,1.7316646249922554,0.0,-1.2630610746475645e-07,-1.4574271149099027e-07,0.2774082189911288,0.0,0.0,0.0,-0.07227536041220259,-1.438480854421852e-06,-7.090373825222998e-06,-2.6807783190312082e-08,533.6455804353263,533.6428262782663,533.6450240945426,533.643198972156
2.808,-2.2783213770417032e-07,-6.0000000086856256,1.7503140048881207,2.822950579924997e-05,8.453561969167581e-05,2.400855236749914e-06,2.949826059337091e-23,-6.0,1.7460074949110402,0.0,-1.44671126584066e-07,1.493042275779893e-07,0.2641256741650068,0.0,0.0,0.0,-0.0618097377518734,-5.552166461620343e-06,-1.0581987508470692e-05,-1.702193521381814e-08,533.9334803217487,533.9282730415729,533.9316300982779,533.9300067289751
2.860000000000001,-1.932364620390534e-07,-6.000000015665409,1.763653115242142,1.9170538897318657e-05,3.7232509923304386e-05,2.3156753315843038e-06,2.791079824293e-23,-6.0,1.7596762174394975,0.0,7.159810260665451e-07,-1.4658305139665027e-07,0.2514402712538063,0.0,0.0,0.0,-0.0521812712979614,1.6050275391299407e-07,1.7994928968734603e-06,-1.842511981593905e-08,534.1941845065242,534.1948167807514,534.19417323667,534.194701957919
2.912000000000001,-1.4343009193827454e-07,-6.000000030352552,1.7763484081658367,-2.7826890094015408e-05,-6.744775302204727e-05,2.119671750561935e-06,2.6398691115926016e-23,-6.0,1.7726960996096657,0.0,1.1027767883803361e-06,-3.496464691861933e-07,0.23925918236482485,0.0,0.0,0.0,-0.04284666061916493,4.5286260021302205e-06,1.0070835204382866e-05,1.0865160612979278e-09,534.4475654010048,534.4522727846852,534.4490293109811,534.4508163156247
2.9640000000000004,-1.214496410161119e-07,-6.0000000336810375,1.7884245243574513,-3.649998414017271e-05,-7.581564102259764e-05,1.9191694594988847e-06,2.4959052319169042e-23,-6.0,1.7850919987934206,0.0,4.241684235471984e-07,-7.227722288511047e-08,0.22753894389531748,0.0,0.0,0.0,-0.03354361120324941,1.724166042583899e-06,2.923331669401472e-06,-1.5732857923023608e-08,534.7036656491915,534.705163453928,534.7041675345434,534.7045540040475
3.016,-1.312699805351539e-07,-6.0000000220530305,1.7999062823455267,7.89460944118769e-06,1.876387097287834e-05,2.0947825447822375e-06,2.358905196086281e-23,-6.0,1.7968882815565195,0.0,-3.113646374180753e-07,2.8154479385187076e-07,0.2163048298468213,0.0,0.0,0.0,-0.024572215451847186,-3.9861600174650145e-06,-8.21693001183024e-06,-3.408369859562436e-08,534.9516917224954,534.9477606900318,534.9502911857567,534.9489283098151
3.0679999999999996,-1.34663485861606e-07,-6.000000013192295,1.8108171698799012,3.356275271809658e-05,6.910571982321084e-05,2.0496475734447316e-06,2.228592118252751e-23,-6.0,1.8081087889420395,0.0,-9.616174713143527e-08,1.8597989588000084e-07,0.20548682525523448,0.0,0.0,0.0,-0.01541440337803876,-3.3727845582862275e-06,-6.612879764016886e-06,-9.28331204600955e-09,535.2015524899391,535.1983372699938,535.2004348052778,535.1993915477627
3.120000000000001,-1.1005888492849e-07,-6.00000001802628,1.82118050302566,5.792888741388891e-06,1.1204571568090237e-05,1.8281571373319011e-06,2.1046955513203085e-23,-6.0,1.8187768075892696,0.0,5.649101093778919e-07,-1.3880267142469274e-07,0.19516596901551803,0.0,0.0,0.0,-0.006865572234049849,1.8692702797880105e-06,3.963133676710244e-06,7.373443872785235e-09,535.4324913820441,535.4343685014413,535.433118166442,535.4337920620504
3.1720000000000006,-8.052976361255506e-08,-6.000000025502291,1.8310213975227168,-2.9913774905019637e-05,-5.9910968788701565e-05,1.8036339667962088e-06,1.9869517609665495e-23,-6.0,1.828915046139288,0.0,6.12778356894152e-07,-1.679395179833277e-07,0.18529540288716878,0.0,0.0,0.0,0.0013498542129846275,3.745660293687274e-06,7.456826035363542e-06,-5.656424722590375e-08,535.6560476142193,535.6596515474288,535.6570596061819,535.6582535195587
3.224,-7.558366398317332e-08,-6.000000020826498,1.8403614888347621,-2.0958721022471534e-05,-4.025357215832156e-05,2.2827843653004522e-06,1.8751039441494828e-23,-6.0,1.8385456164206022,0.0,1.986561848543655e-08,1.2588589702874572e-07,0.17582861683675255,0.0,0.0,0.0,0.009486228457406251,-1.551070641213021e-08,-2.6938896159556834e-07,-6.862538498941126e-08,535.8799755175941,535.8798839009804,535.879736448544,535.8796548076058
3.276,-8.78939746917495e-08,-6.000000007318979,1.8492227848800176,1.484757422626205e-05,3.087193134598792e-05,2.2360788443243297e-06,1.7689023975275455e-23,-6.0,1.8476900189474719,0.0,-3.0014670107835287e-07,2.9160093294598057e-07,0.16679418156720108,0.0,0.0,0.0,0.01721390391815718,-3.2956407873233816e-06,-6.556452658215281e-06,-3.802572818691086e-08,536.0922811014538,536.0891141599935,536.0910920698426,536.0900438862395
3.328000000000001,-8.799874629712624e-08,-5.999999999920742,1.8576267775778375,2.9914420117338672e-05,5.2163024201986615e-05,2.2856089527127783e-06,1.6681046407958512e-23,-6.0,1.8563691323001366,0.0,3.833952004059567e-08,1.249077916457923e-07,0.1581591304440957,0.0,0.0,0.0,0.024688497273631732,-2.9378477429347625e-06,-4.147667633641828e-06,-8.018079006745193e-08,536.2957447382851,536.293467975415,536.2945274463945,536.2941386991738
3.380000000000001,-6.639158765893564e-08,-6.000000005246436,1.8655930831020204,8.953077751097804e-06,2.8516849616227625e-06,2.4409362294165338e-06,1.5724754995462422e-23,-6.0,1.864603205990215,0.0,4.939179091442856e-07,-1.4803836830500818e-07,0.14989015854784818,0.0,0.0,0.0,0.0320841396412066,9.423508524007293e-07,3.4586347772691782e-06,-5.512133227144205e-08,536.4954644486232,536.4968780700137,536.4955793342908,536.4963875791535
3.4320000000000004,-4.3400301336798284e-08,-6.000000014422948,1.8731414468292225,-2.4057147166915007e-05,-4.27583967141906e-05,2.229303987644831e-06,1.4817871518904933e-23,-6.0,1.8724118564462482,0.0,4.274589365507003e-07,-1.8603372231087518e-07,0.14200746191594688,0.0,0.0,0.0,0.03914073311490352,3.3019067413889197e-06,3.643896181280414e-06,-5.439913256398823e-08,536.6873493320719,536.689579563752,536.6882242683519,536.688334077967
3.484,-3.75430357555213e-08,-6.000000013700119,1.8802910923586986,-2.360924243313401e-05,-9.996379979269955e-06,2.130211123625012e-06,1.395819142743678e-23,-6.0,1.8798140657838447,0.0,3.914856901689639e-08,5.8231606990870294e-08,0.13447932902096368,0.0,0.0,0.0,0.04602359994032838,6.923719967541612e-07,-3.193252252734893e-06,-2.9230272164676005e-08,536.8763169284039,536.8755141997592,536.8764396453016,536.8751924434581
3.5359999999999996,-3.649123227106097e-08,-6.000000003139568,1.8870597640814089,9.48589872321071e-06,3.4814803862466056e-05,2.1634748303859998e-06,1.3143583693462704e-23,-6.0,1.886828183052285,0.0,1.819796539342204e-08,2.3479227256936613e-07,0.1272921163836532,0.0,0.0,0.0,0.05273691716642151,-3.0668581576578727e-06,-5.909743013649519e-06,-1.0390142643294891e-07,537.0602950631846,537.0574147491998,537.0589573753264,537.0580451808061
3.588000000000001,-2.173014431215277e-08,-5.999999996249926,1.8934648548962478,2.464333568159057e-05,1.829587533655055e-05,2.7833518472050424e-06,1.2371990413078004e-23,-6.0,1.8934719276749346,0.0,3.5815287367995396e-07,1.0124688975321076e-07,0.12042846764846597,0.0,0.0,0.0,0.05935187615866396,-2.0970944871357597e-06,6.525280894285316e-07,-1.526258982031467e-07,537.2392424388039,537.2387790775108,537.2380504809361,537.2389324548672
3.6400000000000006,-3.241138948504903e-11,-5.999999999469967,1.8995235206749836,-7.324856565576264e-07,-4.492463136175404e-05,2.7971144830698527e-06,1.1641426181802165e-23,-6.0,1.8997623948244395,0.0,4.250423875587875e-07,-1.0442830906978499e-07,0.11390431737525963,0.0,0.0,0.0,0.06562615175246612,2.3566909183618475e-06,7.146000354426772e-06,-5.589748696977665e-08,537.408065756246,537.4111128863166,537.4086313297372,537.4101670687762
3.692,2.8513892688642255e-09,-6.000000002468137,1.9052533092450838,-2.7853548726526513e-05,-5.494895529135955e-05,1.9298190692718927e-06,1.0949977273141134e-23,-6.0,1.9057160624956553,0.0,-5.7601546106089364e-08,-3.468774409021176e-08,0.10771952290622093,0.0,0.0,0.0,0.07142282430736341,3.3048899353994e-06,3.035754854413688e-06,3.1201066369894395e-08,537.566122759953,537.5681553532825,537.5672882880913,537.5672020126289
3.7439999999999998,-1.706251778179874e-08,-5.999999994327211,1.9106714481846807,-6.7375723156230505e-06,1.5483582939421947e-05,1.408304882175682e-06,1.0295800645146227e-23,-6.0,1.9113488000595926,0.0,-4.620946117521788e-07,2.137879083833646e-07,0.1018462961259472,0.0,0.0,0.0,0.07687370099798464,-1.894285278992789e-06,-6.499064345769344e-06,-3.8947744455537664e-09,537.716791972324,537.7141020943056,537.7161716583629,537.7146959311681
3.796000000000001,-3.094833855381137e-08,-5.9999999834322875,1.9157928682526686,3.0328242398134098e-05,6.278310332106095e-05,1.3197404225437968e-06,9.677122797944856e-24,-6.0,1.9166758781005613,0.0,-1.792639359985309e-07,1.9243484165453885e-07,0.09625108205986341,0.0,0.0,0.0,0.08214033529039655,-4.372671907391594e-06,-6.2311858866837025e-06,-2.5470239175259315e-08,537.8603810176364,537.8569836269186,537.8588934920281,537.8582980390072
3.8480000000000008,-1.8880654099535842e-08,-5.9999999850486025,1.920631796794238,2.542179605100099e-05,1.9026993982108743e-05,1.4679698442569522e-06,9.092238503188591e-24,-6.0,1.9217119793561628,0.0,3.5421554822618236e-07,-1.0680085278278113e-07,0.09092844465215345,0.0,0.0,0.0,0.08718615879023613,-9.086197287694014e-07,2.388898884058313e-06,-4.428413182956334e-08,537.9956362819421,537.9961104305326,537.9951947822886,537.9962510116044
3.9000000000000004,1.6501781179824964e-09,-5.999999997443148,1.9252021723081327,-1.1780098487330459e-05,-4.34315643015767e-05,1.6482619343877422e-06,8.539509424483763e-24,-6.0,1.9264712105959632,0.0,3.7165227081652494e-07,-2.6475981195057616e-07,0.08586966889415758,0.0,0.0,0.0,0.0920003447282044,2.9132733752532953e-06,5.9440557495872715e-06,-6.71402637910693e-08,538.1253239121083,538.1281603154774,538.1260287786819,538.1269993336718
3.952,4.436710585402646e-09,-6.000000005126122,1.929517198188775,-2.928512577376391e-05,-3.7412046927735556e-05,2.114428350167565e-06,8.01736264613169e-24,-6.0,1.9309671152896648,0.0,-6.631813241140066e-08,-9.139019216758636e-08,0.08105628119151369,0.0,0.0,0.0,0.09665967187742261,2.0823896840041276e-06,5.088833094646491e-07,-1.0988223254737342e-07,538.2529911028047,538.2538207169853,538.2532846390768,538.2527808696516
4.004,-8.599222205072053e-09,-6.000000000648536,1.9335893884735578,-5.130962078224863e-06,1.8919367465183146e-05,2.0820494695365017e-06,7.524289125897416e-24,-6.0,1.9352126869294202,0.0,-2.845510173256308e-07,1.3993479286985678e-07,0.07648371587069652,0.0,0.0,0.0,0.10112412883573801,-1.8085663809554925e-06,-5.06527254825163e-06,-4.201038028854647e-08,538.375659564162,538.3734593517693,538.374938036869,538.3738956139608
4.055999999999999,-1.4430278303317413e-08,-5.999999993608574,1.937430968054696,1.849803451968605e-05,3.6338405707610414e-05,1.4723593638774575e-06,7.05884208604127e-24,-6.0,1.939220382883732,0.0,-2.4954769060651784e-08,1.1414647482203438e-07,0.072139991278209,0.0,0.0,0.0,0.10542289845353937,-2.4193737083630413e-06,-2.508339278859876e-06,1.895818668407534e-08,538.4919868460709,538.490409900949,538.4912769620527,538.491248491684
4.107999999999999,-5.267287122324672e-09,-5.999999994016287,1.9410533758703845,9.03309164195441e-06,-3.6057383562873558e-06,9.829816243142859e-07,6.619635355476796e-24,-6.0,1.9430021386721756,0.0,2.330770806540836e-07,-5.4490332009985466e-08,0.06801247381184328,0.0,0.0,0.0,0.10958410804768984,4.793576342229271e-07,3.286209713425017e-06,-9.050310832670085e-10,538.6036122572749,538.6048170447849,538.6037625557173,538.6046606037495
4.160000000000002,2.762559266746888e-09,-5.999999998290864,1.9444677003547164,-1.4287489561188525e-05,-3.487416447773478e-05,9.604617028303019e-07,6.205341674654318e-24,-6.0,1.946569382561067,0.0,9.355035430734727e-08,-7.605923007885373e-08,0.06409440121171894,0.0,0.0,0.0,0.11360115648965013,2.3923930006741105e-06,3.7018698227951328e-06,-1.1540543746690361e-08,538.7123038792174,538.7142533345286,538.713030009803,538.713448890118
4.2120000000000015,-3.4924390945131366e-09,-5.999999996851414,1.9476847263757118,-1.338229211357289e-05,-1.0887849802548805e-05,1.0192125860186303e-06,5.8146909736046635e-24,-6.0,1.949933050390236,0.0,-2.0028405583608146e-07,7.627428302992105e-08,0.06038325485403172,0.0,0.0,0.0,0.11742255570060234,2.1738154917382706e-07,-1.68898195808415e-06,-2.265026808972881e-08,538.8172471530767,538.8167765027273,538.8172398375932,538.816630140305
4.264000000000001,-1.4444082803759852e-08,-5.999999989884015,1.9507147533861016,9.454535484467585e-06,2.9596089045270627e-05,9.831280928060906e-07,5.446468632504216e-24,-6.0,1.9531036005502964,0.0,-1.7999186382821695e-07,1.4145063846789065e-07,0.05686468097344795,0.0,0.0,0.0,0.12109356942449198,-2.1825465736976592e-06,-4.295210343544717e-06,-7.0931698108385035e-09,538.917635167563,538.915563820511,538.9169132123369,538.9162376605799
4.316000000000001,-1.33664335815032e-08,-5.999999986676425,1.9535678960682012,1.6402900280555657e-05,2.3703605731125926e-05,8.361443524285265e-07,5.0995137331368154e-24,-6.0,1.956091029038301,0.0,1.1345582985826996e-07,1.609025102722287e-08,0.053540652393079556,0.0,0.0,0.0,0.12452599508372367,-1.0863078230177288e-06,-3.8600831982944176e-07,4.752216016257033e-09,539.0099380082821,539.0094672973601,539.0096068229494,539.0098307141405
4.368,-2.1420021042615813e-09,-5.999999990327432,1.9562537200173715,-8.721531035132954e-07,-1.1803877149754496e-05,9.373330400011947e-07,4.772717308720176e-24,-6.0,1.9589048845274732,0.0,2.3183587140702614e-07,-9.701251881506254e-08,0.05039287694127349,0.0,0.0,0.0,0.12780132274122674,1.397777583336e-06,2.8263950643325846e-06,-2.5685698738195605e-08,539.0979252239251,539.0992755020765,539.0982849401172,539.0987416049943
4.42,4.429548417644566e-09,-5.999999993802878,1.9587810139172788,-1.4643662947148058e-05,-2.4860991369523565e-05,9.376925969431022e-07,4.4650205987325385e-24,-6.0,1.9615542833938917,0.0,5.99027259165128e-08,-3.775092351819203e-08,0.04741009196419863,0.0,0.0,0.0,0.13095077370382158,1.5956104981578895e-06,1.7582309439565266e-06,-9.90387043612267e-09,539.1834554398138,539.1845273424084,539.1839318291812,539.1839838034
4.4719999999999995,5.721219184933371e-10,-5.999999991279982,1.9611582160291139,-5.382695581774696e-06,-2.9463387180237492e-06,7.961700379289207e-07,4.175413314611641e-24,-6.0,1.9640479246495532,0.0,-1.2161252540727556e-07,8.451743359004036e-08,0.044588927122313125,0.0,0.0,0.0,0.133943314187257,-5.102081438462637e-07,-1.6207479170689358e-06,4.01271701119522e-09,539.2654578883837,539.2647769278368,539.2653084496586,539.2649535696279
4.523999999999999,-4.812621034561219e-09,-5.999999986442489,1.9633935036697252,1.2207450018003598e-05,1.9324695120468066e-05,7.31967159278065e-07,3.902931921498624e-24,-6.0,1.966394104737285,0.0,-7.127206793986568e-08,8.052892097480307e-08,0.04192035516711134,0.0,0.0,0.0,0.13679891011925246,-1.923622576282561e-06,-2.5372961979054366e-06,-7.225215819833882e-09,539.3432737618502,539.3418484516045,539.3426346577825,539.3424385826276
4.575999999999999,-2.3097581309951014e-09,-5.999999986611971,1.965494542947547,1.1528210603904801e-05,1.199998946167371e-05,7.845217896510451e-07,3.64665794055958e-24,-6.0,1.9686007321484773,0.0,1.0496252606522983e-07,-4.883527383168255e-08,0.039397803811163055,0.0,0.0,0.0,0.1395117588463051,-2.2288326825772904e-07,-2.776600811194844e-08,-1.7752609271187813e-08,539.4161629913774,539.4160829172314,539.4160316303705,539.4160939638829
4.628000000000002,5.286614171358809e-09,-5.999999991604669,1.967468847247344,-6.345338549241251e-06,-1.1413858173475627e-05,7.88388963797092e-07,3.405716275832597e-24,-6.0,1.9706753418296343,0.0,1.4400081249260355e-07,-1.0276102185402988e-07,0.03701669635057908,0.0,0.0,0.0,0.14206843380009157,1.6293490415580945e-06,2.119299588185369e-06,-7.749480889027434e-09,539.4848083363817,539.4860057517225,539.4853025361183,539.4854590390042
4.6800000000000015,8.241728346973201e-09,-5.999999994122944,1.969323401841891,-1.1975485823809093e-05,-1.6202453654427095e-05,7.693758615975811e-07,3.179273569014591e-24,-6.0,1.9726251093483589,0.0,1.7132895827889906e-09,-1.1249823340410678e-08,0.03476566628970376,0.0,0.0,0.0,0.144509975036689,8.298288355495723e-07,6.586086654174088e-07,-2.0091681026578577e-08,539.5513621809449,539.551837568057,539.5515591509242,539.5515044654757
4.732000000000001,4.463274723324742e-09,-5.9999999916489175,1.971064842398502,9.047520789458313e-07,4.858984767790489e-06,9.171190520926115e-07,2.9665365851155044e-24,-6.0,1.974456864793551,0.0,-9.26133113300718e-08,6.695183964308762e-08,0.03264086126459507,0.0,0.0,0.0,0.14682036204431287,-9.978991316801602e-07,-2.1370754472113676e-06,-3.647248039227781e-08,539.6147380335343,539.6137368806376,539.6142958083938,539.6139320128029
4.784000000000001,2.483676764354787e-09,-5.9999999894054765,1.9726994666029873,1.1500679313414546e-05,1.6992722168234927e-05,9.74748485309298e-07,2.7667506314654704e-24,-6.0,1.9761771063884255,0.0,7.4138424740683184e-09,1.805019251583299e-08,0.030634223391690744,0.0,0.0,0.0,0.14901880578664684,-1.2960401496945215e-06,-1.736420695536926e-06,-2.5703275481408307e-08,539.6742728822577,539.6733045739428,539.6737719807115,539.6736313608536
4.836,7.449141115777826e-09,-5.99999999192391,1.9742332625569765,5.8310966185130065e-06,1.5118859210334776e-06,8.538914969180135e-07,2.579198012157982e-24,-6.0,1.9777920137984104,0.0,1.3043659497040115e-07,-8.09711967271998e-08,0.028739788477523287,0.0,0.0,0.0,0.15111357739877407,2.1117895349269765e-07,1.0808933485688293e-06,-1.3703238932113724e-08,539.7303164125494,539.7307289464303,539.730337429669,539.7306151128025
4.888,1.3098147285312877e-08,-5.999999996927668,1.975671897408213,-7.061669658152874e-06,-1.6992869265214144e-05,7.901820778641416e-07,2.403196519647873e-24,-6.0,1.9793074611191273,0.0,7.46107065106831e-08,-9.013039471606244e-08,0.02695295063862941,0.0,0.0,0.0,0.153097591827807,1.15412722020802e-06,1.9169074157480785e-06,-1.50810666910711e-08,539.7837827933804,539.7847632181443,539.7841001781184,539.7843436949629
4.9399999999999995,1.1767659685566625e-08,-5.999999999113753,1.9770207611203554,-7.114498035141751e-06,-1.0019863729897151e-05,7.144087907616867e-07,2.2380979648928627e-24,-6.0,1.9807290295324937,0.0,-7.755314657119078e-08,-1.2893198949871367e-08,0.025266456604825543,0.0,0.0,0.0,0.1549940252514851,1.6052942478380977e-07,-2.824339779847762e-07,-4.9400406781374556e-09,539.8356456699678,539.8356067557622,539.8356801869467,539.8355387847676
4.991999999999999,6.0918680288324235e-09,-5.999999998249727,1.9782849573076047,2.493932264432421e-06,8.770929003800325e-06,5.975091819646141e-07,2.0832867471293957e-24,-6.0,1.9820620196215588,0.0,-1.0603724208799125e-07,2.283265692348683e-08,0.023677323622436658,0.0,0.0,0.0,0.15678797113962364,-8.180350081761145e-07,-1.844606378525269e-06,-6.453146329998392e-09,539.8846434258076,539.8837935375477,539.8843604690167,539.8840327977819
5.043999999999999,3.991779045174908e-09,-5.999999998280764,1.9794694270281223,6.21277351478036e-06,1.2963447699108633e-05,6.045705758338358e-07,1.9381784641049366e-24,-6.0,1.9833114633369902,0.0,5.3176854120287205e-09,-1.967407123074549e-08,0.02218127029141451,0.0,0.0,0.0,0.15847753471797876,-5.150214795208663e-07,-8.570366721338498e-07,-9.096727431247068e-09,539.9302003858267,539.9297624758304,539.9300052139613,539.92989605541
5.096000000000002,7.28382290008101e-09,-6.000000000847768,1.9805787474982666,-2.6408716837286525e-07,-3.055762751544095e-06,5.542753004351042e-07,1.802218563347401e-24,-6.0,1.9844821356102162,0.0,8.074720952987265e-08,-6.033381237304335e-08,0.02076941267807742,0.0,0.0,0.0,0.16010095181148837,5.263084349380241e-07,1.3864824475959175e-06,-9.489166150162098e-10,539.9736257937542,539.9742362358635,539.9737905460389,539.974065059289
5.1480000000000015,9.407245409640959e-09,-6.00000000332272,1.9816171763950332,-6.5444270633084445e-06,-1.468088409472692e-05,4.883645803370172e-07,1.674881034835997e-24,-6.0,1.9855785656100824,0.0,1.884483519468288e-09,-3.211416849555191e-08,0.01943896080602533,0.0,0.0,0.0,0.1616500321287307,7.281191053266139e-07,1.4568803255808423e-06,-6.210034538232156e-09,540.0155382311535,540.0162354908721,540.0157495626623,540.015982119182
5.200000000000001,5.4696906391923776e-09,-6.000000003077699,1.982588975147727,-3.2847039198596385e-06,-4.779974721118854e-06,5.346785683827698e-07,1.5556671452440254e-24,-6.0,1.9866050476415575,0.0,-1.1278123321461804e-07,2.4018977375521834e-08,0.0181907075417571,0.0,0.0,0.0,0.16308387896763582,-1.2960620351777366e-07,-5.49896844178575e-07,-1.002135446126678e-08,540.0548253975671,540.0546085755253,540.0547501230527,540.0546160128661
5.252000000000001,-5.569272840421548e-10,-6.000000001396814,1.9834982123337146,3.86779380678032e-06,1.0461240934370596e-05,5.141947091799394e-07,1.4441042137520952e-24,-6.0,1.9875656516864981,0.0,-9.915179093660213e-08,2.87711592858565e-08,0.01701699449061935,0.0,0.0,0.0,0.16443317502613597,-6.725103592159982e-07,-1.4777774223515497e-06,-2.7189007010933533e-09,540.0915794526463,540.090893365566,540.0913556746465,540.0910987400432
5.304,-2.2751258618183853e-09,-6.000000001266635,1.9843485697862921,4.4490343136793e-06,9.417484192801774e-06,4.465756404934891e-07,1.339744429276842e-24,-6.0,1.9884642335878109,0.0,8.100352625746875e-09,-1.5165495271219784e-08,0.015912240186114097,0.0,0.0,0.0,0.16571344251531023,-1.9055704927866838e-07,-2.006698793862838e-07,2.305518417589791e-09,540.1259508860393,540.1258260662253,540.1258978916725,540.1258946652035
5.356,4.680113564534498e-11,-6.000000003003775,1.9851435050912636,-1.3560137016929454e-06,-3.835823003307149e-06,3.8777302012705535e-07,1.2421637088251149e-24,-6.0,1.989304444879506,0.0,5.162041687721962e-08,-3.8007846549679506e-08,0.014872275735819207,0.0,0.0,0.0,0.16693393717743382,4.988626370979637e-07,1.187923373372123e-06,3.1623851218721923e-09,540.1586582346415,540.1591963658966,540.1588280870816,540.1590479164548
5.4079999999999995,9.294326940671006e-10,-6.000000004222414,1.9858862840958744,-4.1251960601742106e-06,-8.538763441756318e-06,4.583880653615633e-07,1.1509605965645157e-24,-6.0,1.990089742266166,0.0,-1.2166626467967177e-08,-1.0106893288040237e-08,0.013894251044722847,0.0,0.0,0.0,0.16809148383085468,2.871672461652703e-07,6.067117422852114e-07,-1.615877319988726e-08,540.1901517396278,540.1904368951174,540.1901886708205,540.1902906084179
5.459999999999999,-1.6523044272016222e-09,-6.000000003763451,1.9865799792026047,8.439152556015687e-07,2.501294592310332e-06,5.611700713506346e-07,1.0657552030970111e-24,-6.0,1.9908233967562468,0.0,-6.12373684506613e-08,1.537182772281152e-08,0.012972188782577016,0.0,0.0,0.0,0.16921517857767346,-5.539761941952122e-07,-1.1290012780457685e-06,-1.615454041441845e-08,540.2209789673087,540.2204421124878,540.2207475935368,540.2205641656391
5.511999999999999,-3.246699059244034e-09,-6.000000003602474,1.9872275154094794,4.478631265974229e-06,1.0948945970460944e-05,5.439312666024293e-07,1.545736253452013e-05,-6.0,1.9915085024544175,0.0,-7.141173250638274e-11,-9.873631541474945e-09,0.01210772574438237,0.0,0.0,0.0,0.17026877556597353,-4.812510001654588e-07,0.07562063950921877,-1.734858801679437e-08,528.0510786109294,552.1779776749697,528.0508615047859,552.1780704360307
5.564000000000002,2.3355818782378357e-06,-6.000000005221501,1.9878213505091484,-2.549315994219324e-05,0.2775625144806664,4.4684216388730884e-07,0.0003367649732056202,-6.0,1.9921479850188022,0.0,0.0001930143679054264,-3.782744734629436e-08,0.010918567158214796,-2.8978620866328814e-05,0.22361902353399937,-3.344501254561485e-08,0.1747008925348539,1.049245715959283e-05,0.02099489958514024,1.9662585090451564e-08,537.0093217059721,543.7081431506101,537.01275563889,543.7048837121041
5.616000000000001,0.00015200778283102966,-5.9999999887360715,1.9883639718034558,-0.0002814465084332124,1.2887203251407355,-1.7799626760106102e-06,0.0010354804797149506,-6.0,1.9927446097895787,0.0,0.005691380983874041,7.846052739869529e-07,0.01025552383191866,-0.00011760401666360064,0.33861376281974603,2.1483841442715742e-07,0.17642040993085156,6.10497545807819e-05,-0.09042766635288159,4.528604161232414e-07,554.6356948163801,525.8096539304928,554.6561550993131,525.7912198303422
5.668000000000001,0.0008615568883944037,-5.99999984446015,1.9888255264913557,0.011624313392043307,2.1376911141581982,0.0010503991881939331,0.0022624757370478285,-6.0,1.993300989595868,0.0,0.019430120812174212,1.656955905689105e-06,0.007939757491624694,0.011494310991937337,0.35340957694423636,0.000766693517145195,0.19791599913309893,-0.0041063163472725905,-0.11166993233604092,-0.0002823741959424399,559.5936829503415,522.7261886554941,557.402500334199,523.0923621167308
5.720000000000001,0.002521948828538283,-6.000005472371364,1.9891525098055125,0.037007834180764664,2.6739526819853943,0.002780644043049407,0.004173481522238594,-6.0,1.993819592248258,0.0,0.0407532301332732,-0.0002189730353350549,0.007967366199144243,0.0012401520823810042,-0.028464616252044578,0.00017917278371112503,0.20669270640433365,-0.004744527443601258,-0.10249779996596126,-0.00019528680260744936,558.3654382145716,524.2239664582517,556.25788215112,525.101942402741
5.772,0.005325089569718947,-6.000025746734625,1.989477120322247,-0.0077338753194148655,1.4822308240936006,0.001522601242129276,0.00668464921734116,-6.0,1.9943027477246376,0.0,0.06109201283007513,-0.0004610063796731005,0.008225926388009012,-0.024757533158153197,-0.6007011884490253,-0.0005472972121184457,0.20295194069289255,0.004568145164271275,0.1044508888846209,3.134001500068331e-05,523.4318959127905,558.170663235524,525.0427966196393,556.8614231577171
5.824,0.00876230906819726,-6.000042024402257,1.9898311145757122,-0.06849533317505362,0.11594473002903288,0.0007605641318605885,0.009746668075534457,-6.000000008491246,1.9947526550572896,0.00043778145218147167,0.06734606709777938,-0.00013780450793272737,0.007095691556615729,-0.010617489972897475,-0.21226251666131613,-0.0004993738773271504,0.19949559584862406,0.007654685296413582,0.21559987838047728,4.7127889787037403e-05,504.14809946932434,575.4218077851723,506.9277970522078,573.2751078955818
5.8759999999999994,0.012300784237615228,-6.000029945765256,1.9901179267615328,-0.03452190192951425,1.886636078077404,-0.0015157672159445028,0.013609561879268399,-6.000000124873797,1.9951713889293978,0.00043778145218147167,0.07019112010902222,0.00044355857488170044,0.007144897615103121,0.023789800009418813,0.9355890982200263,9.447318870551123e-05,0.21237369701487493,-0.001327829489948282,-0.17166629987382118,0.00023567064062860008,567.8741746059338,512.6972263639101,568.229705674989,513.9821418800842
5.927999999999999,0.016618723150848627,-6.000002999092069,1.9903779752299073,0.04270659807860381,3.9398658676253637,-7.917502522018717e-05,0.018260062235032928,-6.000000364839809,1.9955609059892725,0.00043778145218147167,0.09395978198700883,0.00047399741494217755,0.011295472709676933,0.021337939876794852,0.32244744932499775,0.0006013136218126844,0.21389057370713221,-0.007468114950412989,-0.24970233356392812,-0.00017015593541099884,581.1823962369605,499.13813419361014,578.4263407037602,501.0895332326371
5.980000000000002,0.02255361109611388,-5.999993449561025,1.990637431960997,0.04852078831004197,2.755580559002898,-6.264029448401912e-05,0.023592589251271345,-6.00000071362815,1.9959230508907226,0.00043778145218147167,0.12588314581807752,-1.8094463977990407e-05,0.01166656154920219,-0.012069553188006198,-0.8089453767814524,0.0002873404558793822,0.21142587870601146,-0.0017312544132834825,0.044939817028306295,0.00014433786421856243,534.1938301422573,547.9552268336344,534.129231236041,548.980214483914
6.032000000000002,0.029616497199992233,-6.000004391291646,1.9909131946710266,-0.01850315537201575,0.3139380053043435,0.0003008173746501434,0.02970070449308226,-6.000001093028038,1.996259562068049,0.00043778145218147167,0.13883372375920214,-0.00025276632890276264,0.006352092695086478,-0.02385453854293244,-0.5533674957240196,0.0004881586867480266,0.20884292674765512,0.006224510521972481,0.2808141941999742,-0.00015643275534945155,493.78042798759805,585.446275715392,495.3710866131925,583.121063108793
6.084000000000001,0.03679888264431087,-6.000008186823742,1.9912075802344016,-0.053252811382082356,0.9001118562843149,0.0007101569402719319,0.03675672217116721,-6.000001402093508,1.996572077254171,0.00043778145218147167,0.13775592553174065,9.324933412501315e-05,0.007714175053820149,3.8086539584509995e-05,0.6671578211013213,0.00022928896433966885,0.2002443504334948,0.005047653639426657,-0.0023198898190938955,9.416132319824586e-05,540.466135197902,541.3351737491089,542.3905931093975,540.0447415588366
6.136000000000001,0.04430049843920893,-5.9999899682994275,1.9915262383196681,-0.008002488473136268,3.413458204632739,0.00010503868845794031,0.04463085191687426,-6.000001646677153,1.996862138750384,0.00043778145218147167,0.1512247684540662,0.0004644988824341072,0.014590052058398483,0.021756188461816824,0.7382429897609706,0.0004385507486226388,0.1963462150344608,-0.002631294753092281,-0.24510739060759873,-6.63917231272846e-05,579.1760493791891,500.0614600868447,578.1827602736295,500.72510391875704
6.188000000000001,0.05313864358906366,-5.9999680894345255,1.991814405760217,0.04410476605241555,3.8645624265085856,0.0010175239760738734,0.05324923463539764,-6.0000018274197755,1.9971311984562121,-0.00020304337351796507,0.1823497883110377,0.0003263062178211078,0.017419790891740526,0.01008476459191925,-0.2346636855964867,8.471089215990703e-05,0.20351916658485703,-0.004852353025690734,-0.050313207486286794,-4.0449625544352244e-05,549.9290582194118,532.3618065634856,548.271579794365,533.7917081567227
6.24,0.06353990459186723,-5.999964396405328,1.9920209518744716,0.028045359363383156,2.622142575101656,-0.0001916103578920162,0.06287623305183769,-6.000001904821014,1.9973806226677475,-0.00020304337351796507,0.20955196938121454,-7.62745956598581e-05,0.013911319063922336,-0.014373740040990846,-0.4765266982224411,-0.00010960828038955746,0.2085988683544499,0.0010102186155883117,0.0786917127362424,8.341903969013792e-05,528.3019823353541,553.6897596071417,528.9197657624029,553.6507363634489
6.292,0.07496491895856712,-5.9999729480612425,1.9922428610247096,-0.022417301437345293,1.642130186534355,-0.0002638646033096288,0.07344419453435178,-6.000001880374931,1.9976116966527857,-0.00020304337351796507,0.22466123631965712,-0.0001556917880774044,0.011193177607713418,-0.014433305372577716,-0.16802745306929254,7.33021383370887e-05,0.20035871529174992,0.005328995978896574,0.08686377974292626,-3.423697534886306e-05,526.2362340253861,555.6068067538472,527.8598831189148,553.8385291062748
6.343999999999999,0.08696797721373659,-5.99997274067998,1.9925043867063996,-0.02965111463751011,1.9251741625456256,-0.00021475341840012784,0.08481875448956137,-6.000001765476088,1.9978256290109522,-0.0002128662319029656,0.2347237335740439,0.00012203751703559337,0.012893515222766026,0.006628184508331032,0.24438681147355554,7.006718482845405e-05,0.19143447109645476,0.0020987873526295193,0.049393996620263454,1.2140714441770749e-05,532.5340035752243,548.9439991034259,533.2543466382594,548.3252212747818
6.395999999999999,0.09965935401355619,-5.999960330040491,1.9927242301903787,0.012276791436973295,3.539252394719384,-0.00015560399800611585,0.09723190735554896,-6.000001566030341,1.998023555826887,-0.0002128662319029656,0.2514400583705462,0.00026629382951466943,0.01856437866644645,0.015503549840371,0.6015526891140445,0.00011455928502583713,0.20192779467466562,-0.003128914648224774,-0.1850194781863212,-6.526963433705562e-05,570.3833305330163,510.3837542212831,569.2276773543095,511.20578028107377
6.448000000000002,0.11368170043453664,-5.9999528045130255,1.9928949491338308,0.034778351186481,4.133062787052623,9.763529578551919e-05,0.11069484365223897,-6.000001290040458,1.9982065446244195,-0.0002128662319029656,0.28164025906295886,4.321483077841339e-05,0.023705077491462962,4.188906855899727e-05,-0.16027606381243595,-8.02260057657903e-05,0.20468111974826977,-0.0021877443293168595,-0.1168407251347593,3.3157867079449115e-05,559.7558553199807,521.8269005297661,559.1903311928346,522.6648452085424
6.500000000000002,0.12926386839286566,-5.999959792253703,1.9930562151244378,0.006282753898992761,2.405552921594788,-0.0007433554458875697,0.12504005836612067,-6.000000947118585,1.9983755981294926,-0.0002128662319029656,0.30869759890864823,-0.00020673647605235363,0.01718884333039104,-0.013591090563058062,-0.7384864813835114,1.5312256000827245e-05,0.20212421375654188,0.00270198447192925,0.11540973610134755,4.5885869408772594e-05,521.8843284882274,559.5271192493486,522.9361746701707,558.8444357012247
6.552000000000001,0.14567350850789085,-5.999969808344705,1.9932266690678417,-0.025467385834300704,0.8938898580499605,-0.00018833349661972985,0.14019445257310148,-6.00000054286323,1.9985316578494465,-0.00025994885933720694,0.3174923682471973,-0.00013677615719240953,0.007792658972850532,-0.006171152226434834,-0.12440958770152152,0.00012253423520364306,0.20548886727009105,0.0040996129489163525,0.19156352752157108,-4.1960720466859984e-05,509.173967720893,571.5712232823256,510.4093132308434,570.1993756251795
6.604000000000001,0.1622995090838905,-5.9999694118769975,1.9933223575328474,-0.01597265525539312,2.669431835260255,-0.0005737980117464889,0.1564696292699983,-6.000000067161011,1.9986756074760856,-0.00025994885933720694,0.3227525630777689,9.619442035597046e-05,0.01547493038249519,0.008952864272136622,0.8732591297050206,0.00017236300313216977,0.21210438669951412,0.0005642037202960618,-0.16210427562555962,3.4577000983196236e-05,566.4511906102467,514.9679345310412,566.7343385348603,514.9018603196158
6.656000000000001,0.17980945896364192,-5.999962212661202,1.9934107700624752,0.016964294238885323,4.501985891461639,6.528330043769167e-05,0.17375257567406113,-5.999999526849696,1.9988082761197667,-0.00025994885933720694,0.34735704978970483,0.00013096347005778482,0.02868372671002744,0.00979302183941036,0.2688828204803341,0.00022546005290444566,0.21224525557478066,-0.0024104276410880495,-0.22885643290211943,-9.412568921492746e-05,577.1672505941608,503.4040492941975,576.1485713812285,503.887181315299
6.708,0.19895149744240567,-5.999961853951067,1.9935008011223911,0.02254103770407615,3.316154791308817,-0.00020437607056019745,0.19188961979773578,-5.999998930651585,1.9989304413815632,-0.000290471108493745,0.3793937840578005,-7.365012055393371e-05,0.025058645653289118,-0.004080271818461734,-0.7669634159172233,1.5673213511854753e-05,0.21272738768660862,-0.0003061323993012567,0.12804425296959743,6.73957436617753e-05,520.5527307049825,561.2488222676321,520.6880256479114,561.5622253107259
6.76,0.219281618197496,-5.9999709041149405,1.99348790888298,-0.005169565484670189,2.2868294267193665,-0.000315128810145035,0.21115649989087135,-5.999998277132215,1.9990428322703584,-0.000290471108493745,0.39642906280358786,-0.00020001306560560325,0.015395957143525634,-0.010721473793782878,-0.06511387973506885,8.252769648462558e-05,0.23189530556800747,0.0033024229617137474,0.04520137101774298,-2.5604841795613007e-05,534.1907907075987,549.6150390149498,535.167618040745,548.4933013607454
6.811999999999999,0.24031515062883235,-5.999977950506499,1.993510696992089,-0.023290931970457306,2.684803882001232,-0.0001873039845586794,0.23151603471772217,-5.999997571505987,1.9991461319715311,-0.000290471108493745,0.40969141546339455,-6.996285876593878e-05,0.020022365803094015,-0.0012335588364353939,0.18861286882651587,9.600042512447615e-05,0.21975112726959536,0.0031894469772147005,-0.05063397190802682,-1.6982286488415447e-05,549.111317472217,534.0144446341116,550.0549084333526,532.9259770471541
6.863999999999999,0.2621701120932283,-5.999975292600425,1.9936176073824667,-0.006198373648772318,2.918256832427767,2.1252295020478783e-05,0.25277048142028163,-5.999996822224957,1.999240980473684,-0.000290471108493745,0.42681549692286536,0.00010656159703697746,0.024436983295472482,0.0089418914490051,-0.03458899046842393,8.537510157192283e-05,0.2072227129319659,-4.853429594422901e-05,-0.045269614756769626,-4.716332910493881e-05,548.4939277207881,534.0661333783029,548.3214777335625,533.9203534465956
6.916000000000002,0.2849242601796347,-5.999969771452284,1.9937596372305146,0.01680416750709747,2.6588979123747123,6.458980122645336e-05,0.27500690387864096,-5.99999605945949,1.999327977059676,-0.00024325149350070668,0.4432743216224303,7.80832330724727e-05,0.02306861984942216,0.005114342541855593,0.00523657118096889,-2.728788908657906e-05,0.20569659878606614,-0.00125951156330296,0.04990214664597189,-1.766136088625399e-05,533.4371414859444,548.9261570580372,532.9695355673181,549.2626440444706
